,Restaurant,Type,Rating,Price,Address,Lat,Lng,url,ID
0,Dutch Bike Hire,Active Life,,,Queensway,51.512001,-0.18747,,
1,Vegas Gallery,Art Galleries,,,274 Poyser St Railway Arches,51.529886,-0.056789,,
2,National Portrait Gallery,Art Galleries,4.5,£,St Martin's Place,51.509425,-0.128123,https://www.yelp.com/biz/national-portrait-gallery-london?adjust_creative=-uBzzloii2ivvF3N0jkhKQ&utm_campaign=yelp_api_v3&utm_medium=api_v3_business_search&utm_source=-uBzzloii2ivvF3N0jkhKQ,uNBw-V4ZYn-cXt4fc9Jw9Q
3,South London Gallery,Art Galleries,4.5,££,65 Peckham Road,51.474248,-0.079688,https://www.yelp.com/biz/south-london-gallery-london?adjust_creative=-uBzzloii2ivvF3N0jkhKQ&utm_campaign=yelp_api_v3&utm_medium=api_v3_business_search&utm_source=-uBzzloii2ivvF3N0jkhKQ,SR8YJe1KLU24LOwCcVlo9w
4,The Queen's Gallery,Art Galleries,3.5,££,Buckingham Palace,51.499837,-0.14234,https://www.yelp.com/biz/the-queens-gallery-london?adjust_creative=-uBzzloii2ivvF3N0jkhKQ&utm_campaign=yelp_api_v3&utm_medium=api_v3_business_search&utm_source=-uBzzloii2ivvF3N0jkhKQ,XSjMfPAc1EYi6NOLwJCzIA
5,The National Gallery,Art Museums,,,Trafalgar Square,51.508929,-0.128302,,
6,Victoria and Albert Museum,Art Museums,,,Cromwell Road,51.4963940559606,-0.171935630295101,,
7,Coin Street Festival,Arts & Entertainment,,,,51.492195,-0.125095,,
8,Camino,Bars,3.5,££,3 Varnishers Yard,51.5312937277784,-0.121793746948242,https://www.yelp.com/biz/camino-london?adjust_creative=-uBzzloii2ivvF3N0jkhKQ&utm_campaign=yelp_api_v3&utm_medium=api_v3_business_search&utm_source=-uBzzloii2ivvF3N0jkhKQ,OyLrjCVSSp5UUAYe9Vm0Hg
9,Project Orange,Bars,4.5,££,43 St John's Hill,51.462851913426,-0.17040910213262,https://www.yelp.com/biz/project-orange-london?adjust_creative=-uBzzloii2ivvF3N0jkhKQ&utm_campaign=yelp_api_v3&utm_medium=api_v3_business_search&utm_source=-uBzzloii2ivvF3N0jkhKQ,ZsvAq-7mwVE4VBB4Q82jaQ
10,The Dairy,Bars,4.5,££££,15 The Pavement,51.4618724,-0.1395915,https://www.yelp.com/biz/the-dairy-london-2?adjust_creative=-uBzzloii2ivvF3N0jkhKQ&utm_campaign=yelp_api_v3&utm_medium=api_v3_business_search&utm_source=-uBzzloii2ivvF3N0jkhKQ,8P4qwhVKdxoV1bW-_I3s-A
11,VOC Grill and Punch House,Bars,3.5,££,2 Varnishers Yard,51.5328287841143,-0.124282836914062,https://www.yelp.com/biz/voc-grill-and-punch-house-london?adjust_creative=-uBzzloii2ivvF3N0jkhKQ&utm_campaign=yelp_api_v3&utm_medium=api_v3_business_search&utm_source=-uBzzloii2ivvF3N0jkhKQ,SaifWta4q3nlvj1MrgO0Xg
12,Belgo Centraal,Belgian,4.0,££,50 Earlham Street,51.5137833644188,-0.125649969207333,https://www.yelp.com/biz/belgo-centraal-london?adjust_creative=-uBzzloii2ivvF3N0jkhKQ&utm_campaign=yelp_api_v3&utm_medium=api_v3_business_search&utm_source=-uBzzloii2ivvF3N0jkhKQ,H-l4CDhIZ0uTfyv_lR1p7Q
13,Look Mum No Hands!,Bikes,4.0,£,49 Old Street,51.524013227609,-0.096938452042226,https://www.yelp.com/biz/look-mum-no-hands-london?adjust_creative=-uBzzloii2ivvF3N0jkhKQ&utm_campaign=yelp_api_v3&utm_medium=api_v3_business_search&utm_source=-uBzzloii2ivvF3N0jkhKQ,nwZeSFKD0dRqDM1H4pDy3w
14,Mirror Room,Breakfast & Brunch,,,252 High Holborn,51.5175931,-0.1178827,,
15,Pedler,Breakfast & Brunch,4.5,£££,58 Peckham Rye,51.465394,-0.066771,https://www.yelp.com/biz/pedler-london?adjust_creative=-uBzzloii2ivvF3N0jkhKQ&utm_campaign=yelp_api_v3&utm_medium=api_v3_business_search&utm_source=-uBzzloii2ivvF3N0jkhKQ,Lh4GPX7fKLSbLLvFIFB0YQ
16,The Modern Pantry,Breakfast & Brunch,4.0,££,47-48 St John's Square,51.5230301121618,-0.103575187145258,https://www.yelp.com/biz/the-modern-pantry-london?adjust_creative=-uBzzloii2ivvF3N0jkhKQ&utm_campaign=yelp_api_v3&utm_medium=api_v3_business_search&utm_source=-uBzzloii2ivvF3N0jkhKQ,zOLPCLptUE2UKRXYWCEHvg
17,My Old Dutch,Breakfast & Brunch,4.0,££,16 Kensington Church Street,51.5025085986798,-0.190974987903188,https://www.yelp.com/biz/my-old-dutch-london-2?adjust_creative=-uBzzloii2ivvF3N0jkhKQ&utm_campaign=yelp_api_v3&utm_medium=api_v3_business_search&utm_source=-uBzzloii2ivvF3N0jkhKQ,XurEgYTPm4PARiqrqcotkw
18,The King's Head,British,3.0,£££,84 Upper Tooting Road,51.434168,-0.162714,https://www.yelp.com/biz/the-kings-head-london-2?adjust_creative=-uBzzloii2ivvF3N0jkhKQ&utm_campaign=yelp_api_v3&utm_medium=api_v3_business_search&utm_source=-uBzzloii2ivvF3N0jkhKQ,MxHY2DvmZ8GysD-HheavUQ
19,The Blue Legume,British,4.0,££,177 Upper St,51.541374206543,-0.103168003261089,https://www.yelp.com/biz/the-blue-legume-london?adjust_creative=-uBzzloii2ivvF3N0jkhKQ&utm_campaign=yelp_api_v3&utm_medium=api_v3_business_search&utm_source=-uBzzloii2ivvF3N0jkhKQ,bOEPov-chRVQhggY5k805w
20,The Gilbert Scott,British,4.0,££££,Euston Road,51.5294649409269,-0.126171112060547,https://www.yelp.com/biz/the-gilbert-scott-london?adjust_creative=-uBzzloii2ivvF3N0jkhKQ&utm_campaign=yelp_api_v3&utm_medium=api_v3_business_search&utm_source=-uBzzloii2ivvF3N0jkhKQ,OvAtlIbaaeZG3Jlhj-XOHA
21,The Riding House Café,British,3.5,££,43-51 Great Tichfield Street,51.5183614862654,-0.140664577282208,https://www.yelp.com/biz/the-riding-house-caf%C3%A9-london-2?adjust_creative=-uBzzloii2ivvF3N0jkhKQ&utm_campaign=yelp_api_v3&utm_medium=api_v3_business_search&utm_source=-uBzzloii2ivvF3N0jkhKQ,cA7GccAlTm6EdudmEUFtSA
22,Open Kitchen,British,3.5,££,40 Hoxton Street,51.5303725185205,-0.0801017251312715,https://www.yelp.com/biz/open-kitchen-london?adjust_creative=-uBzzloii2ivvF3N0jkhKQ&utm_campaign=yelp_api_v3&utm_medium=api_v3_business_search&utm_source=-uBzzloii2ivvF3N0jkhKQ,M17L9rnCeltj7Eq38DyL1A
23,MEATmarket,Burgers,3.5,££,The Deck Jubilee Market Hall,51.5115639700479,-0.121881224701809,https://www.yelp.com/biz/meatmarket-london?adjust_creative=-uBzzloii2ivvF3N0jkhKQ&utm_campaign=yelp_api_v3&utm_medium=api_v3_business_search&utm_source=-uBzzloii2ivvF3N0jkhKQ,m1HQUczUwC4-WfGnIfgQkg
24,Lowlander Grand Cafe,Cafes,3.5,£££,4 Creechurch Lane,51.5136041,-0.0788719,https://www.yelp.com/biz/lowlander-grand-cafe-london-2?adjust_creative=-uBzzloii2ivvF3N0jkhKQ&utm_campaign=yelp_api_v3&utm_medium=api_v3_business_search&utm_source=-uBzzloii2ivvF3N0jkhKQ,zPTsSBY1Lago2PvtOHTUYA
25,Temple Church,Churches,,,1 Inner Temple Lane,51.5136903,-0.1108634,,
26,PortSide Parlour,Cocktail Bars,4.5,£££,14 Rivington Street,51.5260588,-0.0825125,https://www.yelp.com/biz/portside-parlour-london-2?adjust_creative=-uBzzloii2ivvF3N0jkhKQ&utm_campaign=yelp_api_v3&utm_medium=api_v3_business_search&utm_source=-uBzzloii2ivvF3N0jkhKQ,eVXY5kedgkTe5L279X-kfg
27,Rules,Cocktail Bars,4.5,£££,Upstairs,51.51088,-0.12309,https://www.yelp.com/biz/rules-london?adjust_creative=-uBzzloii2ivvF3N0jkhKQ&utm_campaign=yelp_api_v3&utm_medium=api_v3_business_search&utm_source=-uBzzloii2ivvF3N0jkhKQ,Ds183PwKYB6PXSygM2N-EA
28,Barts,Cocktail Bars,3.5,£££,87 Sloane Avenue,51.4926281,-0.1669994,https://www.yelp.com/biz/barts-london?adjust_creative=-uBzzloii2ivvF3N0jkhKQ&utm_campaign=yelp_api_v3&utm_medium=api_v3_business_search&utm_source=-uBzzloii2ivvF3N0jkhKQ,Ee7TTtcIn7ia8D3phX_k-w
29,The V&A Café,Coffee & Tea,4.0,££,Victoria & Albert Museum,51.497374632002,-0.172478386364495,https://www.yelp.com/biz/the-v-and-a-caf%C3%A9-london-3?adjust_creative=-uBzzloii2ivvF3N0jkhKQ&utm_campaign=yelp_api_v3&utm_medium=api_v3_business_search&utm_source=-uBzzloii2ivvF3N0jkhKQ,nI1XOUOdIAh5SmQJ4b31yw
30,Costa Coffee,Coffee & Tea,4.0,£,198 Earls Court Road,51.4926218,-0.1939531,https://www.yelp.com/biz/costa-coffee-london-121?adjust_creative=-uBzzloii2ivvF3N0jkhKQ&utm_campaign=yelp_api_v3&utm_medium=api_v3_business_search&utm_source=-uBzzloii2ivvF3N0jkhKQ,cle1dgxqx1rXK5J2EY3rQQ
31,My Old Dutch,Creperies,3.5,££,131-132 High Holborn,51.5175498062912,-0.121954230547052,https://www.yelp.com/biz/my-old-dutch-london-5?adjust_creative=-uBzzloii2ivvF3N0jkhKQ&utm_campaign=yelp_api_v3&utm_medium=api_v3_business_search&utm_source=-uBzzloii2ivvF3N0jkhKQ,cb3Jpyal_xLH_L_MI0zxEw
32,My Old Dutch,Creperies,3.5,££,221 Kings Road,51.4864497,-0.1709963,https://www.yelp.com/biz/my-old-dutch-london-4?adjust_creative=-uBzzloii2ivvF3N0jkhKQ&utm_campaign=yelp_api_v3&utm_medium=api_v3_business_search&utm_source=-uBzzloii2ivvF3N0jkhKQ,ci6r0vrtoyU-c3RAb-nIiA
33,La Crêperie de Hampstead,Creperies,4.5,£,77 Hampstead High Street,51.55568223459,-0.17692025446205,https://www.yelp.com/biz/la-cr%C3%AAperie-de-hampstead-london-2?adjust_creative=-uBzzloii2ivvF3N0jkhKQ&utm_campaign=yelp_api_v3&utm_medium=api_v3_business_search&utm_source=-uBzzloii2ivvF3N0jkhKQ,HHg5hAmrb8wEwaj88yBmHA
34,Absolutely Starving,Delis,4.0,££,51 Tooley Street,51.5050986007288,-0.0849500457449048,https://www.yelp.com/biz/absolutely-starving-london?adjust_creative=-uBzzloii2ivvF3N0jkhKQ&utm_campaign=yelp_api_v3&utm_medium=api_v3_business_search&utm_source=-uBzzloii2ivvF3N0jkhKQ,cy28kr98GOWJzUqf7Dg_dg
35,Mrs Kibble's Olde Sweet Shoppe,Desserts,4.5,££,4 St Christopher's Place,51.515488,-0.150191,https://www.yelp.com/biz/mrs-kibbles-olde-sweet-shoppe-london-2?adjust_creative=-uBzzloii2ivvF3N0jkhKQ&utm_campaign=yelp_api_v3&utm_medium=api_v3_business_search&utm_source=-uBzzloii2ivvF3N0jkhKQ,kZmUq5ZCVX5veOUYdqZGqg
36,The Chocolate Room,Desserts,4.0,£,324 Station Road,51.5809039,-0.3337373,https://www.yelp.com/biz/the-chocolate-room-harrow?adjust_creative=-uBzzloii2ivvF3N0jkhKQ&utm_campaign=yelp_api_v3&utm_medium=api_v3_business_search&utm_source=-uBzzloii2ivvF3N0jkhKQ,BWbLNYoD08lsr8022XtdwQ
37,Sunday UpMarket,Farmers Market,4.5,£,The Old Truman Brewery,51.5204534220778,-0.0721085071563721,https://www.yelp.com/biz/sunday-upmarket-london?adjust_creative=-uBzzloii2ivvF3N0jkhKQ&utm_campaign=yelp_api_v3&utm_medium=api_v3_business_search&utm_source=-uBzzloii2ivvF3N0jkhKQ,hCsr4V2ZcrwmpwChcASLkQ
38,New Spitalfields Market,Farmers Market,,,Superintendant Office,51.555569,-0.017553,,
39,Borough Market,Farmers Market,4.5,££,8 Southwark Street,51.5051427191678,-0.0909365332063361,https://www.yelp.com/biz/borough-market-london-3?adjust_creative=-uBzzloii2ivvF3N0jkhKQ&utm_campaign=yelp_api_v3&utm_medium=api_v3_business_search&utm_source=-uBzzloii2ivvF3N0jkhKQ,U-Sz3hVjbZ8eaNeKGpZU_A
40,Brick Lane and Market,Fashion,4.5,££,Brick Lane,51.5206479128337,-0.0725192870915743,https://www.yelp.com/biz/brick-lane-and-market-london?adjust_creative=-uBzzloii2ivvF3N0jkhKQ&utm_campaign=yelp_api_v3&utm_medium=api_v3_business_search&utm_source=-uBzzloii2ivvF3N0jkhKQ,6-SiYv2AwKatWmF_ohi20Q
41,Hot Chip,Fast Food,5.0,£,15-16 Brixton Food Court,51.4626349253772,-0.11377656508178,https://www.yelp.com/biz/hot-chip-london?adjust_creative=-uBzzloii2ivvF3N0jkhKQ&utm_campaign=yelp_api_v3&utm_medium=api_v3_business_search&utm_source=-uBzzloii2ivvF3N0jkhKQ,Fs5ErFF70aJ_fDrLqgD3CA
42,Chip Nation,Fish & Chips,,,40 Great Windmill Street,51.5111739,-0.1343177,,
43,Camden Market,Flea Markets,4.5,££,Camden Lock Place,51.541502,-0.14573,https://www.yelp.com/biz/camden-market-london-4?adjust_creative=-uBzzloii2ivvF3N0jkhKQ&utm_campaign=yelp_api_v3&utm_medium=api_v3_business_search&utm_source=-uBzzloii2ivvF3N0jkhKQ,IYSKMlGpn--rfzyg9MpEyQ
44,The New Angel,French,3.5,££££,39 Chepstow Place,51.5128446,-0.1940695,https://www.yelp.com/biz/the-new-angel-london?adjust_creative=-uBzzloii2ivvF3N0jkhKQ&utm_campaign=yelp_api_v3&utm_medium=api_v3_business_search&utm_source=-uBzzloii2ivvF3N0jkhKQ,kyDsukC9YP5aM97WajnO_g
45,Le Mercury,French,4.0,££,140a Upper Street,51.539763831626,-0.10271961840901,https://www.yelp.com/biz/le-mercury-london-2?adjust_creative=-uBzzloii2ivvF3N0jkhKQ&utm_campaign=yelp_api_v3&utm_medium=api_v3_business_search&utm_source=-uBzzloii2ivvF3N0jkhKQ,7KlQYVwDJK-re5gCJp2kdw
46,Boulevard Brasserie,French,3.5,££,40 Wellington Street,51.512475,-0.12074,https://www.yelp.com/biz/boulevard-brasserie-london?adjust_creative=-uBzzloii2ivvF3N0jkhKQ&utm_campaign=yelp_api_v3&utm_medium=api_v3_business_search&utm_source=-uBzzloii2ivvF3N0jkhKQ,sXXkRK0cltx1CFVAQiOI6w
47,Les Deux Salons,French,4.0,£££,40 - 42 William IV Street,51.5096092224121,-0.126536995172501,https://www.yelp.com/biz/les-deux-salons-london?adjust_creative=-uBzzloii2ivvF3N0jkhKQ&utm_campaign=yelp_api_v3&utm_medium=api_v3_business_search&utm_source=-uBzzloii2ivvF3N0jkhKQ,U3Pha6qoX5MraAp5oa7oXA
48,Balthazar,French,4.0,£££,4-6 Russell Street,51.512493,-0.1212219,https://www.yelp.com/biz/balthazar-london?adjust_creative=-uBzzloii2ivvF3N0jkhKQ&utm_campaign=yelp_api_v3&utm_medium=api_v3_business_search&utm_source=-uBzzloii2ivvF3N0jkhKQ,VtLgCcLSEwFBiKPFV6_Mug
49,Le Gavroche,French,4.5,££££,43 Upper Brook Street,51.511300562631,-0.15507069144529,https://www.yelp.com/biz/le-gavroche-london?adjust_creative=-uBzzloii2ivvF3N0jkhKQ&utm_campaign=yelp_api_v3&utm_medium=api_v3_business_search&utm_source=-uBzzloii2ivvF3N0jkhKQ,M1gUkd17zi9ZYjBcSkSpIA
50,The Colonel Fawcett,Gastropubs,4.5,££,1 Randolph Street,51.5418041646628,-0.136007736926076,https://www.yelp.com/biz/the-colonel-fawcett-london?adjust_creative=-uBzzloii2ivvF3N0jkhKQ&utm_campaign=yelp_api_v3&utm_medium=api_v3_business_search&utm_source=-uBzzloii2ivvF3N0jkhKQ,7Q6JpFSFv997rhv7w1izNA
51,Waitrose & Partners,Grocery,4.0,££,128 Gloucester Road,51.4947493970999,-0.183059296473743,https://www.yelp.com/biz/waitrose-and-partners-london-174?adjust_creative=-uBzzloii2ivvF3N0jkhKQ&utm_campaign=yelp_api_v3&utm_medium=api_v3_business_search&utm_source=-uBzzloii2ivvF3N0jkhKQ,tBkUQ3qQtNlX0loC-72rkg
52,Way 2 Save,Grocery,5.0,£,352-354 Kilburn High Rd,51.5462576,-0.2026694,https://www.yelp.com/biz/way-2-save-london-3?adjust_creative=-uBzzloii2ivvF3N0jkhKQ&utm_campaign=yelp_api_v3&utm_medium=api_v3_business_search&utm_source=-uBzzloii2ivvF3N0jkhKQ,S9Ey-tHVx5hO4CPbthEM7Q
53,St Christopher's Village London Bridge,Hostels,,,161 Borough High Street,51.5020393421732,-0.0927776098251143,,
54,Snog,Ice Cream & Frozen Yogurt,3.5,£,5 Garrick Street,51.5115736631529,-0.125741958618164,https://www.yelp.com/biz/snog-london-12?adjust_creative=-uBzzloii2ivvF3N0jkhKQ&utm_campaign=yelp_api_v3&utm_medium=api_v3_business_search&utm_source=-uBzzloii2ivvF3N0jkhKQ,O_bxw5fk2TLaKcnQGNVpsg
55,Bali Bali,Indonesian,3.5,££,150 Shaftesbury Avenue,51.513782,-0.12821,https://www.yelp.com/biz/bali-bali-london?adjust_creative=-uBzzloii2ivvF3N0jkhKQ&utm_campaign=yelp_api_v3&utm_medium=api_v3_business_search&utm_source=-uBzzloii2ivvF3N0jkhKQ,A4zQ6o088HDPQXsYDDtUIA
56,JOE & THE JUICE,Juice Bars & Smoothies,4.0,££,281 Regent Street,51.5161285,-0.1424872,https://www.yelp.com/biz/joe-and-the-juice-london?adjust_creative=-uBzzloii2ivvF3N0jkhKQ&utm_campaign=yelp_api_v3&utm_medium=api_v3_business_search&utm_source=-uBzzloii2ivvF3N0jkhKQ,LtKwDYJMa1Ud_6MrsIOKvQ
57,Kew Palace,Landmarks & Historical Buildings,,,Kew Green,51.48366,-0.289758,,
58,Artesian,Lounges,4.5,£££,1C Portland Place,51.5178898198077,-0.143916606903076,https://www.yelp.com/biz/artesian-london-2?adjust_creative=-uBzzloii2ivvF3N0jkhKQ&utm_campaign=yelp_api_v3&utm_medium=api_v3_business_search&utm_source=-uBzzloii2ivvF3N0jkhKQ,aoMC0Tr_pBbYuUeafqVVYQ
59,Nightjar,Lounges,4.5,£££,129 City Road,51.5265350341797,-0.0877109989523888,https://www.yelp.com/biz/nightjar-london?adjust_creative=-uBzzloii2ivvF3N0jkhKQ&utm_campaign=yelp_api_v3&utm_medium=api_v3_business_search&utm_source=-uBzzloii2ivvF3N0jkhKQ,emdb4ELhKKQXpJ0lIOdg0w
60,Midhurst Butchers,Meat Shops,4.5,££,Fortis Green,51.5908826889912,-0.152090484925167,https://www.yelp.com/biz/midhurst-butchers-london?adjust_creative=-uBzzloii2ivvF3N0jkhKQ&utm_campaign=yelp_api_v3&utm_medium=api_v3_business_search&utm_source=-uBzzloii2ivvF3N0jkhKQ,K16v8TAJaa_1yrCF8E7lqA
61,Ottolenghi,Mediterranean,4.0,££,287 Upper Street,51.5397542479056,-0.102216303348541,https://www.yelp.com/biz/ottolenghi-islington?adjust_creative=-uBzzloii2ivvF3N0jkhKQ&utm_campaign=yelp_api_v3&utm_medium=api_v3_business_search&utm_source=-uBzzloii2ivvF3N0jkhKQ,WT5EjZGp4gn9BNnzTlC2Ww
62,Hamilton's,Modern European,,,Unit 23 Windsor House,51.39234,-0.504544,,
63,The Wallace Collection,Museums,4.5,£,Hertford House,51.5174316756205,-0.153022552114862,https://www.yelp.com/biz/the-wallace-collection-london?adjust_creative=-uBzzloii2ivvF3N0jkhKQ&utm_campaign=yelp_api_v3&utm_medium=api_v3_business_search&utm_source=-uBzzloii2ivvF3N0jkhKQ,hF7L2L1pcPqNrE0js9xMDw
64,Hampton Court Palace,Museums,,,Hampton Court Palace,51.40362,-0.337817,,
65,National Maritime Museum,Museums,,,Romney Road,51.4809466299078,-0.00527477947460664,,
66,Royal Academy of Arts,Museums,,,1 Piccadilly,51.508980693997,-0.13944657577184,,
67,St George's Church C Of E,Music & DVDs,,,7 Little Russell Street,51.5177614,-0.1255078,,
68,Tamesis Dock,Music Venues,3.5,££,Albert Dock,51.4885783958466,-0.12484073638916,https://www.yelp.com/biz/tamesis-dock-london?adjust_creative=-uBzzloii2ivvF3N0jkhKQ&utm_campaign=yelp_api_v3&utm_medium=api_v3_business_search&utm_source=-uBzzloii2ivvF3N0jkhKQ,mM1b_zgmQ_Pyj8Gmc58Tpg
69,Where the Pancakes are,Pancakes,4.5,££,Arch 35a,51.504367,-0.0955551,https://www.yelp.com/biz/where-the-pancakes-are-london-2?adjust_creative=-uBzzloii2ivvF3N0jkhKQ&utm_campaign=yelp_api_v3&utm_medium=api_v3_business_search&utm_source=-uBzzloii2ivvF3N0jkhKQ,7_mJPWb6tREPW58f2xRpgA
70,Husk Coffee & Creative Space,Patisserie/Cake Shop,4.5,£,649 - 651 Commerical Road,51.5128641363092,-0.0380804927226164,https://www.yelp.com/biz/husk-coffee-and-creative-space-london?adjust_creative=-uBzzloii2ivvF3N0jkhKQ&utm_campaign=yelp_api_v3&utm_medium=api_v3_business_search&utm_source=-uBzzloii2ivvF3N0jkhKQ,KEdzoG7JgKvORS5iCf0WpQ
71,Greenwich Market,Public Markets,4.5,££,5b Greenwich Market,51.4810577348372,-0.0086488115868497,https://www.yelp.com/biz/greenwich-market-london-3?adjust_creative=-uBzzloii2ivvF3N0jkhKQ&utm_campaign=yelp_api_v3&utm_medium=api_v3_business_search&utm_source=-uBzzloii2ivvF3N0jkhKQ,Are85mULfn44Tcm9hQuH0A
72,Museum Tavern,Pubs,4.0,££,49 Great Russell Street,51.5182144172415,-0.125971101400664,https://www.yelp.com/biz/museum-tavern-bloomsbury?adjust_creative=-uBzzloii2ivvF3N0jkhKQ&utm_campaign=yelp_api_v3&utm_medium=api_v3_business_search&utm_source=-uBzzloii2ivvF3N0jkhKQ,4m2-sWOvdCqjQ05lH6uy4Q
73,The Slaughtered Lamb,Pubs,3.5,££,34-35 Great Sutton Street,51.523305722599,-0.10117923460476,https://www.yelp.com/biz/the-slaughtered-lamb-london?adjust_creative=-uBzzloii2ivvF3N0jkhKQ&utm_campaign=yelp_api_v3&utm_medium=api_v3_business_search&utm_source=-uBzzloii2ivvF3N0jkhKQ,af_utoi1Jb5LCWGLI6IoFg
74,The Cornershop,Pubs,3.5,££,123 Shoreditch High Street,51.5264282226563,-0.0782869979739189,https://www.yelp.com/biz/the-cornershop-london?adjust_creative=-uBzzloii2ivvF3N0jkhKQ&utm_campaign=yelp_api_v3&utm_medium=api_v3_business_search&utm_source=-uBzzloii2ivvF3N0jkhKQ,lUkOOlQ-_8WG8al5X7GmJQ
75,The Swan,Pubs,4.0,££,119 Acton Lane,51.498052518888,-0.26523814735848,https://www.yelp.com/biz/the-swan-london-4?adjust_creative=-uBzzloii2ivvF3N0jkhKQ&utm_campaign=yelp_api_v3&utm_medium=api_v3_business_search&utm_source=-uBzzloii2ivvF3N0jkhKQ,2Wk2tLxfg0iV8ZT9GMErjA
76,De Hems Dutch Cafe Bar,Pubs,4.0,££,11 Macclesfield Street,51.5120611,-0.1312182,https://www.yelp.com/biz/de-hems-dutch-cafe-bar-london?adjust_creative=-uBzzloii2ivvF3N0jkhKQ&utm_campaign=yelp_api_v3&utm_medium=api_v3_business_search&utm_source=-uBzzloii2ivvF3N0jkhKQ,uW7R_zECQ756i0b2iS3l5w
77,Lowlander,Pubs,4.0,££,36 Drury Lane,51.514624,-0.12241,https://www.yelp.com/biz/lowlander-london?adjust_creative=-uBzzloii2ivvF3N0jkhKQ&utm_campaign=yelp_api_v3&utm_medium=api_v3_business_search&utm_source=-uBzzloii2ivvF3N0jkhKQ,65JkA2ikIjsbBHtrUJcH2w
78,Windmill Taverns,Pubs,3.5,££,86 The Cut,51.502951026977,-0.10814272596907,https://www.yelp.com/biz/windmill-taverns-london?adjust_creative=-uBzzloii2ivvF3N0jkhKQ&utm_campaign=yelp_api_v3&utm_medium=api_v3_business_search&utm_source=-uBzzloii2ivvF3N0jkhKQ,MRMfRhnutkbUDGVLLYQ_9Q
79,The Pommelers Rest,Pubs,3.5,£,196-198 Tower Bridge Road,51.5023852554298,-0.0772468166118542,https://www.yelp.com/biz/the-pommelers-rest-tower-bridge?adjust_creative=-uBzzloii2ivvF3N0jkhKQ&utm_campaign=yelp_api_v3&utm_medium=api_v3_business_search&utm_source=-uBzzloii2ivvF3N0jkhKQ,01pXl7HGpN-U_p31akd7Cw
80,Elephants Head,Pubs,3.5,££,224 Camden High Street,51.5407487,-0.1439448,https://www.yelp.com/biz/elephants-head-london?adjust_creative=-uBzzloii2ivvF3N0jkhKQ&utm_campaign=yelp_api_v3&utm_medium=api_v3_business_search&utm_source=-uBzzloii2ivvF3N0jkhKQ,_abTj0y321OwKVLx5X1LUw
81,Gordon Bennett,Pubs,4.5,££,75 Maple Road,51.3947258,-0.3081413,https://www.yelp.com/biz/gordon-bennett-surbiton?adjust_creative=-uBzzloii2ivvF3N0jkhKQ&utm_campaign=yelp_api_v3&utm_medium=api_v3_business_search&utm_source=-uBzzloii2ivvF3N0jkhKQ,HjVoLxNG-tMAaGG6R9UD9w
82,Nags Head,Pubs,,,,51.514061,-0.12088,,
83,The Grenadier,Pubs,4.0,££,18 Wilton Row,51.501462,-0.155004,https://www.yelp.com/biz/the-grenadier-london?adjust_creative=-uBzzloii2ivvF3N0jkhKQ&utm_campaign=yelp_api_v3&utm_medium=api_v3_business_search&utm_source=-uBzzloii2ivvF3N0jkhKQ,FJs1PrhFMFVL_iMcH69VuQ
84,Lord Wolseley,Pubs,3.5,££,55 White Lion Street,51.5327808,-0.111223,https://www.yelp.com/biz/lord-wolseley-london?adjust_creative=-uBzzloii2ivvF3N0jkhKQ&utm_campaign=yelp_api_v3&utm_medium=api_v3_business_search&utm_source=-uBzzloii2ivvF3N0jkhKQ,lOe25ACx2bqhC5qiQhGcTQ
85,The Clapton Hart,Pubs,4.0,££,231 Lower Clapton Road,51.556726,-0.056064,https://www.yelp.com/biz/the-clapton-hart-london?adjust_creative=-uBzzloii2ivvF3N0jkhKQ&utm_campaign=yelp_api_v3&utm_medium=api_v3_business_search&utm_source=-uBzzloii2ivvF3N0jkhKQ,krhpAYE7a2A62efBLg-IRQ
86,The Crown,Pubs,4.0,££,116 Cloudesley Road,51.5372627,-0.1096032,https://www.yelp.com/biz/the-crown-london-4?adjust_creative=-uBzzloii2ivvF3N0jkhKQ&utm_campaign=yelp_api_v3&utm_medium=api_v3_business_search&utm_source=-uBzzloii2ivvF3N0jkhKQ,Si3cZkuv3ZN06lW8kcb9Mg
87,The Salisbury Hotel,Pubs,4.0,££,1 Grand Parade,51.5821099309491,-0.0997781753540039,https://www.yelp.com/biz/the-salisbury-hotel-london?adjust_creative=-uBzzloii2ivvF3N0jkhKQ&utm_campaign=yelp_api_v3&utm_medium=api_v3_business_search&utm_source=-uBzzloii2ivvF3N0jkhKQ,I00ahdNmf_KUH-0FbDkrOQ
88,Rising Sun,Pubs,3.0,££,46 Tottenham Court Road,51.519244815631,-0.13305669352495,https://www.yelp.com/biz/rising-sun-london-2?adjust_creative=-uBzzloii2ivvF3N0jkhKQ&utm_campaign=yelp_api_v3&utm_medium=api_v3_business_search&utm_source=-uBzzloii2ivvF3N0jkhKQ,hLqp-riW-FS7FJdIrX-WPQ
89,Goodman's Field,Pubs,3.5,£,87-91 Mansell Street,51.5116913,-0.0728216,https://www.yelp.com/biz/goodmans-field-greater-london?adjust_creative=-uBzzloii2ivvF3N0jkhKQ&utm_campaign=yelp_api_v3&utm_medium=api_v3_business_search&utm_source=-uBzzloii2ivvF3N0jkhKQ,byVfWREQ9M1fDhTOI96Mcg
90,Arts Club,Social Clubs,4.5,££££,40 Dover St,51.508169,-0.142274,https://www.yelp.com/biz/arts-club-london?adjust_creative=-uBzzloii2ivvF3N0jkhKQ&utm_campaign=yelp_api_v3&utm_medium=api_v3_business_search&utm_source=-uBzzloii2ivvF3N0jkhKQ,HmRmh9bYb39O2W48pUTbkQ
91,Jerk Garden,Specialty Food,5.0,£,394 Brockley Road,51.453979,-0.0379514,https://www.yelp.com/biz/jerk-garden-london?adjust_creative=-uBzzloii2ivvF3N0jkhKQ&utm_campaign=yelp_api_v3&utm_medium=api_v3_business_search&utm_source=-uBzzloii2ivvF3N0jkhKQ,w8BHTtoDhGm0osvKfbeZsg
92,Fox Excel,Sports Bars,3.0,££,Warehouse K Excel Centre,51.508889,0.025021,https://www.yelp.com/biz/fox-excel-london?adjust_creative=-uBzzloii2ivvF3N0jkhKQ&utm_campaign=yelp_api_v3&utm_medium=api_v3_business_search&utm_source=-uBzzloii2ivvF3N0jkhKQ,tGQs1pWWBMoerK-_tLPLNw
93,Liverpool Street Station,Train Stations,,,Liverpool Street,51.518755,-0.081445,,
94,Alexandra Palace,Venues & Event Spaces,4.0,££,Alexandra Palace Way,51.5939065176711,-0.130093499999995,https://www.yelp.com/biz/alexandra-palace-london-3?adjust_creative=-uBzzloii2ivvF3N0jkhKQ&utm_campaign=yelp_api_v3&utm_medium=api_v3_business_search&utm_source=-uBzzloii2ivvF3N0jkhKQ,-5iFMr_Ew9Tkz9iK5tNBMA
95,Le QuecumBar & Brasserie,Wine Bars,4.5,£££,42-44 Battersea High Street,51.473577,-0.173875,https://www.yelp.com/biz/le-quecumbar-and-brasserie-london-2?adjust_creative=-uBzzloii2ivvF3N0jkhKQ&utm_campaign=yelp_api_v3&utm_medium=api_v3_business_search&utm_source=-uBzzloii2ivvF3N0jkhKQ,KNr7pTfNYPm5xNGpdHdHwQ
