,Restaurant,Type,Rating,Price,Address,Lat,Lng,url,ID
0,The Bike Shed,Accessories,4.5,££,384 Old Street,51.5270903,-0.0782151,https://www.yelp.com/biz/the-bike-shed-london?adjust_creative=-uBzzloii2ivvF3N0jkhKQ&utm_campaign=yelp_api_v3&utm_medium=api_v3_business_search&utm_source=-uBzzloii2ivvF3N0jkhKQ,BNdzjiLoibX1uSH4kAQy5w
1,Afghan Kitchen,Afghan,4.0,££,35 Islington Green,51.5357864609294,-0.103037509845308,https://www.yelp.com/biz/afghan-kitchen-london?adjust_creative=-uBzzloii2ivvF3N0jkhKQ&utm_campaign=yelp_api_v3&utm_medium=api_v3_business_search&utm_source=-uBzzloii2ivvF3N0jkhKQ,nsiUDhW2nBLaW_JCM4gmxg
2,Maloko,African,,,60 Camberwell Church Street,51.4736925,-0.0886691,,
3,Firecracker,Asian Fusion,4.0,££,44 Horseferry Road,51.4949849,-0.1271241,https://www.yelp.com/biz/firecracker-london?adjust_creative=-uBzzloii2ivvF3N0jkhKQ&utm_campaign=yelp_api_v3&utm_medium=api_v3_business_search&utm_source=-uBzzloii2ivvF3N0jkhKQ,y9MWERu8ULGHhMKaDn8F2Q
4,Chai Ki,Asian Fusion,4.0,££,Crossrail Place,51.506224381971,-0.0180665979703719,https://www.yelp.com/biz/chai-ki-london-2?adjust_creative=-uBzzloii2ivvF3N0jkhKQ&utm_campaign=yelp_api_v3&utm_medium=api_v3_business_search&utm_source=-uBzzloii2ivvF3N0jkhKQ,cLyL7ABwhjdkQcREkeOCEw
5,Banana Tree,Asian Fusion,4.0,££,75-79 Battersea Rise,51.460635,-0.166301,https://www.yelp.com/biz/banana-tree-london-7?adjust_creative=-uBzzloii2ivvF3N0jkhKQ&utm_campaign=yelp_api_v3&utm_medium=api_v3_business_search&utm_source=-uBzzloii2ivvF3N0jkhKQ,RaIZ-cnvuSM3wLDuQkl-aw
6,Rapsa,Asian Fusion,4.5,££,100-104 Hoxton Street,51.5310648658011,-0.0800106030410461,https://www.yelp.com/biz/rapsa-london-2?adjust_creative=-uBzzloii2ivvF3N0jkhKQ&utm_campaign=yelp_api_v3&utm_medium=api_v3_business_search&utm_source=-uBzzloii2ivvF3N0jkhKQ,gJAFSUO7U70GQJFo3ynRUw
7,KIN,Asian Fusion,4.0,££,88 Leather Lane,51.521448855755,-0.10987964543908,https://www.yelp.com/biz/kin-london-2?adjust_creative=-uBzzloii2ivvF3N0jkhKQ&utm_campaign=yelp_api_v3&utm_medium=api_v3_business_search&utm_source=-uBzzloii2ivvF3N0jkhKQ,uSmXcq26qSXpsoLyog_nlA
8,Ottolenghi,Bakeries,4.0,££,63 Ledbury Road,51.514890823172,-0.19941762827537,https://www.yelp.com/biz/ottolenghi-london-3?adjust_creative=-uBzzloii2ivvF3N0jkhKQ&utm_campaign=yelp_api_v3&utm_medium=api_v3_business_search&utm_source=-uBzzloii2ivvF3N0jkhKQ,L-ZNTln24SoU_jYia4M19Q
9,Duck & Waffle Local,Bars,4.5,££,52 Haymarket,51.5094175706263,-0.132749820495633,https://www.yelp.com/biz/duck-and-waffle-local-london?adjust_creative=-uBzzloii2ivvF3N0jkhKQ&utm_campaign=yelp_api_v3&utm_medium=api_v3_business_search&utm_source=-uBzzloii2ivvF3N0jkhKQ,a4FkZ2b7Wn3-AP7q3ptHtQ
10,Redemption,Bars,,,6 Chepstow Road,51.5155772,-0.195027,,
11,Greenberry Café,Brasseries,4.0,££,101 Regents Park Road,51.542194,-0.156334,https://www.yelp.com/biz/greenberry-caf%C3%A9-london?adjust_creative=-uBzzloii2ivvF3N0jkhKQ&utm_campaign=yelp_api_v3&utm_medium=api_v3_business_search&utm_source=-uBzzloii2ivvF3N0jkhKQ,T-_ewkgY9DiMJ36qHL4UvQ
12,Balans Soho Society,Breakfast & Brunch,4.0,££,187 Kensington High Street,51.4999833,-0.1956639,https://www.yelp.com/biz/balans-soho-society-london?adjust_creative=-uBzzloii2ivvF3N0jkhKQ&utm_campaign=yelp_api_v3&utm_medium=api_v3_business_search&utm_source=-uBzzloii2ivvF3N0jkhKQ,OLXUZqx6doQtdeHfyEoyOw
13,The Good Life Eatery,Breakfast & Brunch,4.0,££,59 Sloane Avenue,51.4919548,-0.1653394,https://www.yelp.com/biz/the-good-life-eatery-london?adjust_creative=-uBzzloii2ivvF3N0jkhKQ&utm_campaign=yelp_api_v3&utm_medium=api_v3_business_search&utm_source=-uBzzloii2ivvF3N0jkhKQ,h7I2R6d3x1yVYDj0PVhZaw
14,Andina,Breakfast & Brunch,4.0,££,1 Redchurch Street,51.5243208695971,-0.077134990126122,https://www.yelp.com/biz/andina-london?adjust_creative=-uBzzloii2ivvF3N0jkhKQ&utm_campaign=yelp_api_v3&utm_medium=api_v3_business_search&utm_source=-uBzzloii2ivvF3N0jkhKQ,vCF8ut7OZcfA4hEmhngfSQ
15,Caravan Kings Cross,Breakfast & Brunch,4.0,££,1 Granary Square,51.5357788239146,-0.125370576153865,https://www.yelp.com/biz/caravan-kings-cross-london?adjust_creative=-uBzzloii2ivvF3N0jkhKQ&utm_campaign=yelp_api_v3&utm_medium=api_v3_business_search&utm_source=-uBzzloii2ivvF3N0jkhKQ,B6ayHXLwfYBuIADficAeMg
16,Simplicity,Breakfast & Brunch,3.5,££,1 Tunnel Road,51.501247,-0.053137,https://www.yelp.com/biz/simplicity-london?adjust_creative=-uBzzloii2ivvF3N0jkhKQ&utm_campaign=yelp_api_v3&utm_medium=api_v3_business_search&utm_source=-uBzzloii2ivvF3N0jkhKQ,a50cdpgVp7afE2-WU3fQ7Q
17,Piebury Corner,British,5.0,£,209-211 Holloway Road,51.55099,-0.11041,https://www.yelp.com/biz/piebury-corner-london-4?adjust_creative=-uBzzloii2ivvF3N0jkhKQ&utm_campaign=yelp_api_v3&utm_medium=api_v3_business_search&utm_source=-uBzzloii2ivvF3N0jkhKQ,HaYOqwNtC6JK2uuGmr1KGg
18,The Orangery,British,4.0,£££,Kensington Palace,51.5066360577041,-0.187725349125042,https://www.yelp.com/biz/the-orangery-london-7?adjust_creative=-uBzzloii2ivvF3N0jkhKQ&utm_campaign=yelp_api_v3&utm_medium=api_v3_business_search&utm_source=-uBzzloii2ivvF3N0jkhKQ,PBFvhVyBi0lEJyTbyuxf5w
19,Niche,British,4.0,££,197-199 Rosebery Avenue,51.5299391920297,-0.105478788954883,https://www.yelp.com/biz/niche-london-5?adjust_creative=-uBzzloii2ivvF3N0jkhKQ&utm_campaign=yelp_api_v3&utm_medium=api_v3_business_search&utm_source=-uBzzloii2ivvF3N0jkhKQ,NCj4ufnnu9iJuJVy_15nxw
20,Giraffe,British,4.0,££,120 Wilton Rd,51.493899,-0.1423036,https://www.yelp.com/biz/giraffe-london-13?adjust_creative=-uBzzloii2ivvF3N0jkhKQ&utm_campaign=yelp_api_v3&utm_medium=api_v3_business_search&utm_source=-uBzzloii2ivvF3N0jkhKQ,Ck5cgnj3SlLgieo5hMvHQg
21,Goddards at Greenwich,British,4.5,£,22 King William Walk,51.4812088,-0.0083317,https://www.yelp.com/biz/goddards-at-greenwich-london?adjust_creative=-uBzzloii2ivvF3N0jkhKQ&utm_campaign=yelp_api_v3&utm_medium=api_v3_business_search&utm_source=-uBzzloii2ivvF3N0jkhKQ,MaNE6xr9_bqpIWCLm5VhkA
22,Plum & Spilt Milk,British,4.0,£££,King's Cross Street,51.532379,-0.1254596,https://www.yelp.com/biz/plum-and-spilt-milk-london?adjust_creative=-uBzzloii2ivvF3N0jkhKQ&utm_campaign=yelp_api_v3&utm_medium=api_v3_business_search&utm_source=-uBzzloii2ivvF3N0jkhKQ,Y51qImK_hOk-AaT5c5yC2w
23,Mother Mash,British,4.0,££,26 Ganton Street,51.512935,-0.139414,https://www.yelp.com/biz/mother-mash-london?adjust_creative=-uBzzloii2ivvF3N0jkhKQ&utm_campaign=yelp_api_v3&utm_medium=api_v3_business_search&utm_source=-uBzzloii2ivvF3N0jkhKQ,IBV7BsXnv2gX68nWUARhjw
24,Maggie Jones's,British,4.5,£££,6 Old Court Place,51.502856014927,-0.1909916674772,https://www.yelp.com/biz/maggie-joness-london-2?adjust_creative=-uBzzloii2ivvF3N0jkhKQ&utm_campaign=yelp_api_v3&utm_medium=api_v3_business_search&utm_source=-uBzzloii2ivvF3N0jkhKQ,5tAAwu7ZDhulLsyt09bXnw
25,The Table,British,4.0,££,83 Southwark Street,51.505604,-0.099671,https://www.yelp.com/biz/the-table-london-8?adjust_creative=-uBzzloii2ivvF3N0jkhKQ&utm_campaign=yelp_api_v3&utm_medium=api_v3_business_search&utm_source=-uBzzloii2ivvF3N0jkhKQ,rKwkCvsSfp8z7w1CmNnMMQ
26,The Blue Legume,British,4.0,££,177 Upper St,51.541374206543,-0.103168003261089,https://www.yelp.com/biz/the-blue-legume-london?adjust_creative=-uBzzloii2ivvF3N0jkhKQ&utm_campaign=yelp_api_v3&utm_medium=api_v3_business_search&utm_source=-uBzzloii2ivvF3N0jkhKQ,bOEPov-chRVQhggY5k805w
27,Dou Dou,Buffets,4.5,£,Camden Town,51.5396299521655,-0.1422534,https://www.yelp.com/biz/dou-dou-london?adjust_creative=-uBzzloii2ivvF3N0jkhKQ&utm_campaign=yelp_api_v3&utm_medium=api_v3_business_search&utm_source=-uBzzloii2ivvF3N0jkhKQ,CEPduoos73caV6mfrtxH-A
28,Honest Burgers Meard St - Soho,Burgers,4.5,££,4a Meard St,51.5134184063764,-0.132883885733008,https://www.yelp.com/biz/honest-burgers-meard-st-soho-london?adjust_creative=-uBzzloii2ivvF3N0jkhKQ&utm_campaign=yelp_api_v3&utm_medium=api_v3_business_search&utm_source=-uBzzloii2ivvF3N0jkhKQ,zdyKTWY6jDasd6Q8BEJdAw
29,Friends of Ours,Cafes,4.5,££,61 Pitfield Street,51.5291189,-0.0836995,https://www.yelp.com/biz/friends-of-ours-london?adjust_creative=-uBzzloii2ivvF3N0jkhKQ&utm_campaign=yelp_api_v3&utm_medium=api_v3_business_search&utm_source=-uBzzloii2ivvF3N0jkhKQ,-ylzTrYtRJUJa2BuAInoyQ
30,Kennington Lane Cafe,Cafes,5.0,£,383 Kennington Lane,51.4860611,-0.1208514,https://www.yelp.com/biz/kennington-lane-cafe-london?adjust_creative=-uBzzloii2ivvF3N0jkhKQ&utm_campaign=yelp_api_v3&utm_medium=api_v3_business_search&utm_source=-uBzzloii2ivvF3N0jkhKQ,p77CnjTGOIZA1hEpLfCC6Q
31,The Hive SW6,Cafes,5.0,£,670 Fulham Road,51.4754906,-0.2062352,https://www.yelp.com/biz/the-hive-sw6-london?adjust_creative=-uBzzloii2ivvF3N0jkhKQ&utm_campaign=yelp_api_v3&utm_medium=api_v3_business_search&utm_source=-uBzzloii2ivvF3N0jkhKQ,JV97uhTY3WFQPtm80YI5YA
32,Hawraman Cafe Bar,Cafes,,,38 Chalk Farm Road,51.542848,-0.1483066,,
33,Regency Café,Cafes,4.5,£,17-19 Regency Street,51.4940143171,-0.13222007974201,https://www.yelp.com/biz/regency-caf%C3%A9-london-2?adjust_creative=-uBzzloii2ivvF3N0jkhKQ&utm_campaign=yelp_api_v3&utm_medium=api_v3_business_search&utm_source=-uBzzloii2ivvF3N0jkhKQ,YNduANMPzIVE8CzBH7YjEQ
34,Kin Café,Cafes,4.5,££,22 Foley Street,51.5193586,-0.1404321,https://www.yelp.com/biz/kin-caf%C3%A9-london?adjust_creative=-uBzzloii2ivvF3N0jkhKQ&utm_campaign=yelp_api_v3&utm_medium=api_v3_business_search&utm_source=-uBzzloii2ivvF3N0jkhKQ,Y5fRcO7-cjW77hYB5FEwWw
35,EZ & Moss,Cafes,4.5,£,183 Holloway Road,51.5501848,-0.1092206,https://www.yelp.com/biz/ez-and-moss-london?adjust_creative=-uBzzloii2ivvF3N0jkhKQ&utm_campaign=yelp_api_v3&utm_medium=api_v3_business_search&utm_source=-uBzzloii2ivvF3N0jkhKQ,k-qIxL_IHDlXxlgDpNkN7Q
36,Love Gift Vegan,Caribbean,,,386 Lee High Rd,51.4569312,0.0090325,,
37,Jamaica Patty Co.,Caribbean,4.5,£,26 New Row,51.51113,-0.126663,https://www.yelp.com/biz/jamaica-patty-co-london?adjust_creative=-uBzzloii2ivvF3N0jkhKQ&utm_campaign=yelp_api_v3&utm_medium=api_v3_business_search&utm_source=-uBzzloii2ivvF3N0jkhKQ,Ldwq1_0iRTUth1q0DoaojQ
38,Negril,Caribbean,4.0,££,132 Brixton Hill,51.4527575,-0.1213855,https://www.yelp.com/biz/negril-london?adjust_creative=-uBzzloii2ivvF3N0jkhKQ&utm_campaign=yelp_api_v3&utm_medium=api_v3_business_search&utm_source=-uBzzloii2ivvF3N0jkhKQ,w3gHIiTFqUs68ecxO941GA
39,Good Earth,Chinese,4.0,££,233 Brompton Road,51.4968451,-0.1684174,https://www.yelp.com/biz/good-earth-london-2?adjust_creative=-uBzzloii2ivvF3N0jkhKQ&utm_campaign=yelp_api_v3&utm_medium=api_v3_business_search&utm_source=-uBzzloii2ivvF3N0jkhKQ,Ame6cZG8I-DQ5tkMtdyyeg
40,Silk Road,Chinese,4.0,££,49 Camberwell Church Street,51.4739712,-0.0896081,https://www.yelp.com/biz/silk-road-london-2?adjust_creative=-uBzzloii2ivvF3N0jkhKQ&utm_campaign=yelp_api_v3&utm_medium=api_v3_business_search&utm_source=-uBzzloii2ivvF3N0jkhKQ,6iCxFP7Oc0qG_6ByenO0sw
41,Lemongrass Restaurant,Chinese,4.0,££,243 Royal College Street,51.5424947,-0.1391339,https://www.yelp.com/biz/lemongrass-restaurant-london?adjust_creative=-uBzzloii2ivvF3N0jkhKQ&utm_campaign=yelp_api_v3&utm_medium=api_v3_business_search&utm_source=-uBzzloii2ivvF3N0jkhKQ,Ukviw0MTBHKqC_hxctkfxA
42,River View Chinese Restaurant,Chinese,4.0,££,New Crane Wharf,51.50579,-0.05393,https://www.yelp.com/biz/river-view-chinese-restaurant-london?adjust_creative=-uBzzloii2ivvF3N0jkhKQ&utm_campaign=yelp_api_v3&utm_medium=api_v3_business_search&utm_source=-uBzzloii2ivvF3N0jkhKQ,GUyS7KWsvqSNPz1mYMD8Bw
43,The Alchemist,Cocktail Bars,4.0,££,6 Bevis Marks,51.5150476,-0.0793474,https://www.yelp.com/biz/the-alchemist-london-3?adjust_creative=-uBzzloii2ivvF3N0jkhKQ&utm_campaign=yelp_api_v3&utm_medium=api_v3_business_search&utm_source=-uBzzloii2ivvF3N0jkhKQ,LpIY4AvlAQZqJEZgcFoFPA
44,Curious Yellow Kafé,Coffee & Tea,4.5,£,77 Pitfield Street,51.52954503532,-0.0838136672973633,https://www.yelp.com/biz/curious-yellow-kaf%C3%A9-london-2?adjust_creative=-uBzzloii2ivvF3N0jkhKQ&utm_campaign=yelp_api_v3&utm_medium=api_v3_business_search&utm_source=-uBzzloii2ivvF3N0jkhKQ,bgNNAcV-GYqPXkYcHmZNCg
45,The Waiting Room,Coffee & Tea,4.5,£,142 Deptford High Street,51.4792366027832,-0.0259060002863407,https://www.yelp.com/biz/the-waiting-room-london-2?adjust_creative=-uBzzloii2ivvF3N0jkhKQ&utm_campaign=yelp_api_v3&utm_medium=api_v3_business_search&utm_source=-uBzzloii2ivvF3N0jkhKQ,khnhd6DnBb-zIfZEC1y9zg
46,Curled Leaf,Coffee & Tea,5.0,££,98 Mill Lane,51.5515376226734,-0.19876798784018,https://www.yelp.com/biz/curled-leaf-london?adjust_creative=-uBzzloii2ivvF3N0jkhKQ&utm_campaign=yelp_api_v3&utm_medium=api_v3_business_search&utm_source=-uBzzloii2ivvF3N0jkhKQ,n_HexdowAUaDBNZ8qWFykg
47,Katakata,Creperies,,,132 Brixton Hill,51.4527259737879,-0.121387057006359,,
48,Natural Kitchen,Delis,3.5,££,77-78 Marylebone High Street,51.520971,-0.152275,https://www.yelp.com/biz/natural-kitchen-london-3?adjust_creative=-uBzzloii2ivvF3N0jkhKQ&utm_campaign=yelp_api_v3&utm_medium=api_v3_business_search&utm_source=-uBzzloii2ivvF3N0jkhKQ,C7TB4RqD69KIj8NpclF-xA
49,Fitz Fine Food,Delis,,,Borough Market,51.5050392,-0.09079,,
50,Ping Pong,Dim Sum,3.5,££,29 A James Street,51.5153116,-0.150888,https://www.yelp.com/biz/ping-pong-london-32?adjust_creative=-uBzzloii2ivvF3N0jkhKQ&utm_campaign=yelp_api_v3&utm_medium=api_v3_business_search&utm_source=-uBzzloii2ivvF3N0jkhKQ,lfUDW3AFKicfSZivkYVKBA
51,The Queen of Sheba,Ethiopian,4.5,££,12 Fortess Road,51.5522561,-0.1408549,https://www.yelp.com/biz/the-queen-of-sheba-london?adjust_creative=-uBzzloii2ivvF3N0jkhKQ&utm_campaign=yelp_api_v3&utm_medium=api_v3_business_search&utm_source=-uBzzloii2ivvF3N0jkhKQ,W8uZ2XRz0mL1h8geJDD5MQ
52,Sourced Market,Farmers Market,4.0,££,St Pancras International,51.532036,-0.126343,https://www.yelp.com/biz/sourced-market-london-2?adjust_creative=-uBzzloii2ivvF3N0jkhKQ&utm_campaign=yelp_api_v3&utm_medium=api_v3_business_search&utm_source=-uBzzloii2ivvF3N0jkhKQ,pD0FFxeSxvd997eVE81I0g
53,Woody Grill,Fast Food,4.0,£,1A Camden Road,51.539693431101,-0.14189511136749,https://www.yelp.com/biz/woody-grill-london?adjust_creative=-uBzzloii2ivvF3N0jkhKQ&utm_campaign=yelp_api_v3&utm_medium=api_v3_business_search&utm_source=-uBzzloii2ivvF3N0jkhKQ,qQHJL2i-7WxcFbgRJy4GHw
54,Temple of Seitan,Fast Food,4.5,£,10 Morning Lane,51.5458702483097,-0.054151803576945,https://www.yelp.com/biz/temple-of-seitan-london?adjust_creative=-uBzzloii2ivvF3N0jkhKQ&utm_campaign=yelp_api_v3&utm_medium=api_v3_business_search&utm_source=-uBzzloii2ivvF3N0jkhKQ,sovwL7rq0Kd01fYC3wLbYA
55,Sketch,French,4.0,£££,9 Conduit Street,51.5127614699071,-0.14159163911048,https://www.yelp.com/biz/sketch-london-2?adjust_creative=-uBzzloii2ivvF3N0jkhKQ&utm_campaign=yelp_api_v3&utm_medium=api_v3_business_search&utm_source=-uBzzloii2ivvF3N0jkhKQ,zJNI06Y2zZQFh9OBSFCdgQ
56,Savoir Faire,French,4.5,££,42 New Oxford Street,51.5171949,-0.1260125,https://www.yelp.com/biz/savoir-faire-london?adjust_creative=-uBzzloii2ivvF3N0jkhKQ&utm_campaign=yelp_api_v3&utm_medium=api_v3_business_search&utm_source=-uBzzloii2ivvF3N0jkhKQ,4ibHPLYd299_m1LOdcqxXw
57,Clos Maggiore,French,4.5,£££,33 King Street,51.51166,-0.124695,https://www.yelp.com/biz/clos-maggiore-london-2?adjust_creative=-uBzzloii2ivvF3N0jkhKQ&utm_campaign=yelp_api_v3&utm_medium=api_v3_business_search&utm_source=-uBzzloii2ivvF3N0jkhKQ,D7p8_LXEFq3OqLxZIO-dLQ
58,Pied à Terre,French,4.5,££££,34 Charlotte Street,51.519099,-0.13517,https://www.yelp.com/biz/pied-%C3%A0-terre-london-3?adjust_creative=-uBzzloii2ivvF3N0jkhKQ&utm_campaign=yelp_api_v3&utm_medium=api_v3_business_search&utm_source=-uBzzloii2ivvF3N0jkhKQ,NSrYBenDSYo1irgdWesU4Q
59,The Grazing Goat Marylebone,Gastropubs,4.0,££,6 New Quebec Street,51.515378341447,-0.15823586449841,https://www.yelp.com/biz/the-grazing-goat-marylebone-london?adjust_creative=-uBzzloii2ivvF3N0jkhKQ&utm_campaign=yelp_api_v3&utm_medium=api_v3_business_search&utm_source=-uBzzloii2ivvF3N0jkhKQ,bJiVADMSTEKj0MjqiLrOPA
60,Leggero,Gluten-Free,4.0,££,64 Old Compton Street,51.5126756608556,-0.132752752549664,https://www.yelp.com/biz/leggero-london?adjust_creative=-uBzzloii2ivvF3N0jkhKQ&utm_campaign=yelp_api_v3&utm_medium=api_v3_business_search&utm_source=-uBzzloii2ivvF3N0jkhKQ,Cv0-Mwcp1nXkSE4ZcnaN2Q
61,Farmstand,Gluten-Free,4.0,£,42 Drury Lane,51.5143394470215,-0.122018814086914,https://www.yelp.com/biz/farmstand-london-3?adjust_creative=-uBzzloii2ivvF3N0jkhKQ&utm_campaign=yelp_api_v3&utm_medium=api_v3_business_search&utm_source=-uBzzloii2ivvF3N0jkhKQ,LYPuCoeoYpRpMcvFfwK3wQ
62,Mon Plaisir,Gluten-Free,5.0,£,32-34 Hill Road,51.514506,-0.126767,https://www.yelp.com/biz/mon-plaisir-clevedon?adjust_creative=-uBzzloii2ivvF3N0jkhKQ&utm_campaign=yelp_api_v3&utm_medium=api_v3_business_search&utm_source=-uBzzloii2ivvF3N0jkhKQ,X7BOyI5AXb0TnitGaJ7Ysg
63,Konaki Restaurant,Greek,4.0,££,5 Coptic Street,51.5174575,-0.1263657,https://www.yelp.com/biz/konaki-restaurant-london?adjust_creative=-uBzzloii2ivvF3N0jkhKQ&utm_campaign=yelp_api_v3&utm_medium=api_v3_business_search&utm_source=-uBzzloii2ivvF3N0jkhKQ,mBkMpzhvXflyZsqX0s-FKg
64,Planet Organic,Health Markets,4.0,££,22 Torrington Place,51.521367,-0.134126,https://www.yelp.com/biz/planet-organic-london-2?adjust_creative=-uBzzloii2ivvF3N0jkhKQ&utm_campaign=yelp_api_v3&utm_medium=api_v3_business_search&utm_source=-uBzzloii2ivvF3N0jkhKQ,pTzAvHQQ-eJqp8fcZ8F_wQ
65,Chutneys,Indian,4.0,£,124 Drummond Street,51.526885742863,-0.13758647273438,https://www.yelp.com/biz/chutneys-london?adjust_creative=-uBzzloii2ivvF3N0jkhKQ&utm_campaign=yelp_api_v3&utm_medium=api_v3_business_search&utm_source=-uBzzloii2ivvF3N0jkhKQ,yM_Soly8tagfja0NNUqb5w
66,Vijay India Restaurant,Indian,4.5,££,49 Willesden Lane,51.5407952,-0.201584,https://www.yelp.com/biz/vijay-india-restaurant-london?adjust_creative=-uBzzloii2ivvF3N0jkhKQ&utm_campaign=yelp_api_v3&utm_medium=api_v3_business_search&utm_source=-uBzzloii2ivvF3N0jkhKQ,RnI5EHQP9esD19epdo8s8Q
67,Cafe Silka,Indian,4.5,££,30 Albion Street,51.499434608424,-0.053143651424866,https://www.yelp.com/biz/cafe-silka-london?adjust_creative=-uBzzloii2ivvF3N0jkhKQ&utm_campaign=yelp_api_v3&utm_medium=api_v3_business_search&utm_source=-uBzzloii2ivvF3N0jkhKQ,LHgANF39rcuiRaJv1ibi3Q
68,Ravi Shankar,Indian,4.0,£,133-135 Drummond Street,51.527081,-0.13666,https://www.yelp.com/biz/ravi-shankar-london?adjust_creative=-uBzzloii2ivvF3N0jkhKQ&utm_campaign=yelp_api_v3&utm_medium=api_v3_business_search&utm_source=-uBzzloii2ivvF3N0jkhKQ,AwmVZ5X4FicbLUCOlWq3WQ
69,Tayyabs,Indian,4.0,££,83-89 Fieldgate Street,51.5172233660434,-0.0633161000573224,https://www.yelp.com/biz/tayyabs-london-3?adjust_creative=-uBzzloii2ivvF3N0jkhKQ&utm_campaign=yelp_api_v3&utm_medium=api_v3_business_search&utm_source=-uBzzloii2ivvF3N0jkhKQ,Que7HUcGPIdWGme3IjEWXg
70,Trishna,Indian,4.5,£££,15-17 Blandford Street,51.518294,-0.153047,https://www.yelp.com/biz/trishna-london?adjust_creative=-uBzzloii2ivvF3N0jkhKQ&utm_campaign=yelp_api_v3&utm_medium=api_v3_business_search&utm_source=-uBzzloii2ivvF3N0jkhKQ,q-OOWNDtWue-ALqtnL2iDQ
71,Amitas Vegetarian,Indian,5.0,£,126 Green Street,51.5429446,0.032271,https://www.yelp.com/biz/amitas-vegetarian-london?adjust_creative=-uBzzloii2ivvF3N0jkhKQ&utm_campaign=yelp_api_v3&utm_medium=api_v3_business_search&utm_source=-uBzzloii2ivvF3N0jkhKQ,WS6uwqv5LnVjeSh-7Z6F1A
72,Taste Of Cochin,Indian,,,9 Approach Road,51.409352,-0.227088,,
73,Jai Krishna,Indian,4.0,£,161 Stroud Green Road,51.570228454423,-0.11459932784773,https://www.yelp.com/biz/jai-krishna-london?adjust_creative=-uBzzloii2ivvF3N0jkhKQ&utm_campaign=yelp_api_v3&utm_medium=api_v3_business_search&utm_source=-uBzzloii2ivvF3N0jkhKQ,8971IC1VEYJyOqsowN99sg
74,Woodlands,Indian,4.0,££,77 Marylebone Lane,51.5180611,-0.151165,https://www.yelp.com/biz/woodlands-london?adjust_creative=-uBzzloii2ivvF3N0jkhKQ&utm_campaign=yelp_api_v3&utm_medium=api_v3_business_search&utm_source=-uBzzloii2ivvF3N0jkhKQ,uHEGftH6JSPt4T9Dv7lKCg
75,Woodlands Restaurant,Indian,3.5,££,37 Panton Street,51.5095919,-0.1315508,https://www.yelp.com/biz/woodlands-restaurant-london?adjust_creative=-uBzzloii2ivvF3N0jkhKQ&utm_campaign=yelp_api_v3&utm_medium=api_v3_business_search&utm_source=-uBzzloii2ivvF3N0jkhKQ,U5KT3ojJN01z9y9Fmf4Bfg
76,The Famous Curry Bazaar,Indian,4.0,££,77 Brick Lane,51.5201642927316,-0.0719567060821191,https://www.yelp.com/biz/the-famous-curry-bazaar-london?adjust_creative=-uBzzloii2ivvF3N0jkhKQ&utm_campaign=yelp_api_v3&utm_medium=api_v3_business_search&utm_source=-uBzzloii2ivvF3N0jkhKQ,gbvQyRDYdS-Deq0e7vLq9w
77,Shayona,Indian,,,54 - 62 Meadow Garth,51.547863,-0.2624042,,
78,Dishoom,Indian,4.5,££,12 Upper Saint Martin's Lane,51.512447030091,-0.1269579217873,https://www.yelp.com/biz/dishoom-london?adjust_creative=-uBzzloii2ivvF3N0jkhKQ&utm_campaign=yelp_api_v3&utm_medium=api_v3_business_search&utm_source=-uBzzloii2ivvF3N0jkhKQ,oK_SLmmAVQg3meguh7LrIA
79,Dishoom,Indian,4.5,££,5 Stable Street,51.5363182978271,-0.125145272091882,https://www.yelp.com/biz/dishoom-london-3?adjust_creative=-uBzzloii2ivvF3N0jkhKQ&utm_campaign=yelp_api_v3&utm_medium=api_v3_business_search&utm_source=-uBzzloii2ivvF3N0jkhKQ,R1UKQHTz65dQKkdLjzVEBg
80,Gopal’s Corner,Indian,,,Market Halls Victoria - 1st Floor,51.4963598,-0.1443307,,
81,Jai Shri Krishna,Indian,4.0,£,,51.590213,-0.104382,https://www.yelp.com/biz/jai-shri-krishna-london?adjust_creative=-uBzzloii2ivvF3N0jkhKQ&utm_campaign=yelp_api_v3&utm_medium=api_v3_business_search&utm_source=-uBzzloii2ivvF3N0jkhKQ,hQauSZTzq-qhmSN9yIwhhw
82,Ganapati,Indian,4.5,££,38 Holly Grove,51.469647326576,-0.073005378271727,https://www.yelp.com/biz/ganapati-london?adjust_creative=-uBzzloii2ivvF3N0jkhKQ&utm_campaign=yelp_api_v3&utm_medium=api_v3_business_search&utm_source=-uBzzloii2ivvF3N0jkhKQ,7NdidQzvlnlCTrLGVGkY2w
83,Dosa World,Indian,4.0,££,46 Hanbury Street,51.5201988220215,-0.0706939995288849,https://www.yelp.com/biz/dosa-world-london?adjust_creative=-uBzzloii2ivvF3N0jkhKQ&utm_campaign=yelp_api_v3&utm_medium=api_v3_business_search&utm_source=-uBzzloii2ivvF3N0jkhKQ,jRi5sU-9m9F_WxeN7ElBxg
84,Gujarati Rasoi,Indian,4.5,£,10 C Bradbury Street,51.5486677,-0.0762269,https://www.yelp.com/biz/gujarati-rasoi-london-2?adjust_creative=-uBzzloii2ivvF3N0jkhKQ&utm_campaign=yelp_api_v3&utm_medium=api_v3_business_search&utm_source=-uBzzloii2ivvF3N0jkhKQ,Su5jF1qOBmzN1dymQwshJw
85,Dishoom,Indian,4.5,££,7 Boundary Street,51.5245310066818,-0.076594190862934,https://www.yelp.com/biz/dishoom-london-2?adjust_creative=-uBzzloii2ivvF3N0jkhKQ&utm_campaign=yelp_api_v3&utm_medium=api_v3_business_search&utm_source=-uBzzloii2ivvF3N0jkhKQ,vlq4D26p_143Tj21OF-iMA
86,The Vegetarians Paradise,Indian,3.5,£,59 Marchmont Street,51.525005,-0.125415,https://www.yelp.com/biz/the-vegetarians-paradise-london?adjust_creative=-uBzzloii2ivvF3N0jkhKQ&utm_campaign=yelp_api_v3&utm_medium=api_v3_business_search&utm_source=-uBzzloii2ivvF3N0jkhKQ,g7EiFuJHGQ14UlbRbP7mTg
87,Dishoom,Indian,4.5,££,22 Kingly Street,51.513087,-0.139767,https://www.yelp.com/biz/dishoom-london-7?adjust_creative=-uBzzloii2ivvF3N0jkhKQ&utm_campaign=yelp_api_v3&utm_medium=api_v3_business_search&utm_source=-uBzzloii2ivvF3N0jkhKQ,mc1KLbA1Sy4kUTKo0ZEeRQ
88,Vasantha Vilas,Indian,5.0,££,206 High Street North,51.5397163935504,0.0511657680534654,https://www.yelp.com/biz/vasantha-vilas-london?adjust_creative=-uBzzloii2ivvF3N0jkhKQ&utm_campaign=yelp_api_v3&utm_medium=api_v3_business_search&utm_source=-uBzzloii2ivvF3N0jkhKQ,kC_nkOqLsECRYImd2G9hNw
89,Saravana Bhavan Central London,Indian,,,17 Charing Cross Road,51.5101805,-0.1286267,,
90,Roti Chai,Indian,4.0,££,3 Portman Mews South,51.5146226,-0.1557135,https://www.yelp.com/biz/roti-chai-london-2?adjust_creative=-uBzzloii2ivvF3N0jkhKQ&utm_campaign=yelp_api_v3&utm_medium=api_v3_business_search&utm_source=-uBzzloii2ivvF3N0jkhKQ,RFyH1Qiv06LYHrwqzLkVXg
91,Arancini Brothers,Italian,4.5,£,115A Kentish Town Road,51.5189616956944,-0.083632884655799,https://www.yelp.com/biz/arancini-brothers-london-4?adjust_creative=-uBzzloii2ivvF3N0jkhKQ&utm_campaign=yelp_api_v3&utm_medium=api_v3_business_search&utm_source=-uBzzloii2ivvF3N0jkhKQ,M5U_bhEd5J5isIQ5u9UsLQ
92,TortelliniCup,Italian,,,O2 Centre,51.5477120796588,-0.181073722758984,,
93,Padella,Italian,4.5,££,6 Southwark Street,51.5051451,-0.0899515,https://www.yelp.com/biz/padella-london-3?adjust_creative=-uBzzloii2ivvF3N0jkhKQ&utm_campaign=yelp_api_v3&utm_medium=api_v3_business_search&utm_source=-uBzzloii2ivvF3N0jkhKQ,KzYd2EaFvmu63wqTIektSA
94,Bucci Restaurant,Italian,4.5,££,195 Balham High Road,51.4413043,-0.1544355,https://www.yelp.com/biz/bucci-restaurant-london?adjust_creative=-uBzzloii2ivvF3N0jkhKQ&utm_campaign=yelp_api_v3&utm_medium=api_v3_business_search&utm_source=-uBzzloii2ivvF3N0jkhKQ,yHfKmtOcekcyWE9eyNmNmw
95,Arancini Brothers,Italian,4.0,£,592 Kingsland Road,51.54592,-0.0755888,https://www.yelp.com/biz/arancini-brothers-london-3?adjust_creative=-uBzzloii2ivvF3N0jkhKQ&utm_campaign=yelp_api_v3&utm_medium=api_v3_business_search&utm_source=-uBzzloii2ivvF3N0jkhKQ,C8sYZKBuws6SRUUzlgb0fQ
96,Shoryu Ramen,Japanese,4.0,££,9 Regent Street,51.508494856125,-0.13381448629492,https://www.yelp.com/biz/shoryu-ramen-london?adjust_creative=-uBzzloii2ivvF3N0jkhKQ&utm_campaign=yelp_api_v3&utm_medium=api_v3_business_search&utm_source=-uBzzloii2ivvF3N0jkhKQ,SuOm8qiv8MPAqj71PBI9bg
97,Itadaki Zen,Japanese,4.0,££,139 King's Cross Road,51.5296729,-0.116012,https://www.yelp.com/biz/itadaki-zen-london?adjust_creative=-uBzzloii2ivvF3N0jkhKQ&utm_campaign=yelp_api_v3&utm_medium=api_v3_business_search&utm_source=-uBzzloii2ivvF3N0jkhKQ,u2T6ZhYb_gNCgNvq_1uJtA
98,Mi Cocina Es Tuya,Latin American,4.0,££,61 Westow St,51.4177748,-0.0820176,https://www.yelp.com/biz/mi-cocina-es-tuya-london?adjust_creative=-uBzzloii2ivvF3N0jkhKQ&utm_campaign=yelp_api_v3&utm_medium=api_v3_business_search&utm_source=-uBzzloii2ivvF3N0jkhKQ,nMDC_0s833y6uWDzEEIWRA
99,Hummusa,Lebanese,,,82 Lee High Road,51.461273,-0.00647015869617462,,
100,Comptoir Libanais,Lebanese,5.0,£,52 Poland Street,51.5140237,-0.1368746,https://www.yelp.com/biz/comptoir-libanais-london-11?adjust_creative=-uBzzloii2ivvF3N0jkhKQ&utm_campaign=yelp_api_v3&utm_medium=api_v3_business_search&utm_source=-uBzzloii2ivvF3N0jkhKQ,RsitHVcTNdEx7G-xNJCcag
101,Wild Food Cafe - Islington,Live/Raw Food,,,269 - 270 Upper Street,51.5426596,-0.102888,,
102,Makan Café,Malaysian,4.5,£,270 Portobello Road,51.519035,-0.207198,https://www.yelp.com/biz/makan-caf%C3%A9-london-3?adjust_creative=-uBzzloii2ivvF3N0jkhKQ&utm_campaign=yelp_api_v3&utm_medium=api_v3_business_search&utm_source=-uBzzloii2ivvF3N0jkhKQ,kFuNTfCd50hHjw3xxnCQ1w
103,Ottolenghi,Mediterranean,4.0,££,50 Artillery Lane,51.5181446,-0.0771446,https://www.yelp.com/biz/ottolenghi-london-6?adjust_creative=-uBzzloii2ivvF3N0jkhKQ&utm_campaign=yelp_api_v3&utm_medium=api_v3_business_search&utm_source=-uBzzloii2ivvF3N0jkhKQ,IXfqW71UvwKzjSg0HsFiFQ
104,Sunny's Olive Tree,Mediterranean,4.5,£,Whitecross Street,51.522898,-0.0928,https://www.yelp.com/biz/sunnys-olive-tree-london-3?adjust_creative=-uBzzloii2ivvF3N0jkhKQ&utm_campaign=yelp_api_v3&utm_medium=api_v3_business_search&utm_source=-uBzzloii2ivvF3N0jkhKQ,tIfB4hNVr0aQC7BkYZYO7A
105,Ottolenghi,Mediterranean,4.0,££,287 Upper Street,51.5397542479056,-0.102216303348541,https://www.yelp.com/biz/ottolenghi-islington?adjust_creative=-uBzzloii2ivvF3N0jkhKQ&utm_campaign=yelp_api_v3&utm_medium=api_v3_business_search&utm_source=-uBzzloii2ivvF3N0jkhKQ,WT5EjZGp4gn9BNnzTlC2Ww
106,Jakobs,Mediterranean,5.0,££,20 Gloucester Road,51.49905885109,-0.18382193239086,https://www.yelp.com/biz/jakobs-london?adjust_creative=-uBzzloii2ivvF3N0jkhKQ&utm_campaign=yelp_api_v3&utm_medium=api_v3_business_search&utm_source=-uBzzloii2ivvF3N0jkhKQ,eekflLQwzpeZ9sNg89F38A
107,Kitchen @ 149,Mediterranean,3.5,£,149 Hornsey Road,51.559506,-0.114575,https://www.yelp.com/biz/kitchen-149-london?adjust_creative=-uBzzloii2ivvF3N0jkhKQ&utm_campaign=yelp_api_v3&utm_medium=api_v3_business_search&utm_source=-uBzzloii2ivvF3N0jkhKQ,2UOyTS-Tj1l5o7gflGJzHQ
108,NOPI,Mediterranean,4.0,£££,21-22 Warwick Street,51.511617,-0.1385226,https://www.yelp.com/biz/nopi-london?adjust_creative=-uBzzloii2ivvF3N0jkhKQ&utm_campaign=yelp_api_v3&utm_medium=api_v3_business_search&utm_source=-uBzzloii2ivvF3N0jkhKQ,AMfqUC9oYC0xc55MaXbvAA
109,Mestizo,Mexican,4.0,££,103 Hampstead Road,51.52752,-0.1387649,https://www.yelp.com/biz/mestizo-london?adjust_creative=-uBzzloii2ivvF3N0jkhKQ&utm_campaign=yelp_api_v3&utm_medium=api_v3_business_search&utm_source=-uBzzloii2ivvF3N0jkhKQ,XeAaUJWcS9RZsE80a1UxjA
110,Maroush II,Middle Eastern,4.5,££,38 Beauchamp Place,51.49724,-0.164357,https://www.yelp.com/biz/maroush-ii-london?adjust_creative=-uBzzloii2ivvF3N0jkhKQ&utm_campaign=yelp_api_v3&utm_medium=api_v3_business_search&utm_source=-uBzzloii2ivvF3N0jkhKQ,_hoy9y5s47Bx2tCrXv1OVw
111,Noura,Middle Eastern,4.0,£££,16 Hobart Place,51.4981193,-0.147859,https://www.yelp.com/biz/noura-london-5?adjust_creative=-uBzzloii2ivvF3N0jkhKQ&utm_campaign=yelp_api_v3&utm_medium=api_v3_business_search&utm_source=-uBzzloii2ivvF3N0jkhKQ,omeoQdyPp2akKbKBiM8W2Q
112,Pilpel,Middle Eastern,4.5,£,Unit 5,51.5152326005808,-0.0989198684692383,https://www.yelp.com/biz/pilpel-london-2?adjust_creative=-uBzzloii2ivvF3N0jkhKQ&utm_campaign=yelp_api_v3&utm_medium=api_v3_business_search&utm_source=-uBzzloii2ivvF3N0jkhKQ,9-77tm8TPVH76HPMgYvhGA
113,Naughty Piglets,Modern European,5.0,££,28 Brixton Water Lane,51.4551122527474,-0.113104695700827,https://www.yelp.com/biz/naughty-piglets-london?adjust_creative=-uBzzloii2ivvF3N0jkhKQ&utm_campaign=yelp_api_v3&utm_medium=api_v3_business_search&utm_source=-uBzzloii2ivvF3N0jkhKQ,7jauLkFeYYJg2VTPxT7KWw
114,Kiln,Noodles,4.5,££,58 Brewer Street,51.5114108,-0.1360504,https://www.yelp.com/biz/kiln-london?adjust_creative=-uBzzloii2ivvF3N0jkhKQ&utm_campaign=yelp_api_v3&utm_medium=api_v3_business_search&utm_source=-uBzzloii2ivvF3N0jkhKQ,VTOd4cweIR_5uMHh0KLeBg
115,Persepolis,Persian/Iranian,4.5,£,28-30 Peckham High Street,51.4733916,-0.0722307,https://www.yelp.com/biz/persepolis-london?adjust_creative=-uBzzloii2ivvF3N0jkhKQ&utm_campaign=yelp_api_v3&utm_medium=api_v3_business_search&utm_source=-uBzzloii2ivvF3N0jkhKQ,sR_XQYWwLiF5Lkj8-Cu-RA
116,Mohsen,Persian/Iranian,4.5,££,152 Warwick Road,51.495177,-0.20302,https://www.yelp.com/biz/mohsen-london?adjust_creative=-uBzzloii2ivvF3N0jkhKQ&utm_campaign=yelp_api_v3&utm_medium=api_v3_business_search&utm_source=-uBzzloii2ivvF3N0jkhKQ,q7Oz1gTCgoQkFu3VoOQrDQ
117,Apadana Restaurant,Persian/Iranian,4.0,£,351 Kensington High Street,51.4973635246985,-0.203176802846274,https://www.yelp.com/biz/apadana-restaurant-london-3?adjust_creative=-uBzzloii2ivvF3N0jkhKQ&utm_campaign=yelp_api_v3&utm_medium=api_v3_business_search&utm_source=-uBzzloii2ivvF3N0jkhKQ,QYuGi-HP15ZI4Ss-gAuLKQ
118,Homeslice Neal's Yard,Pizza,4.5,££,13 Neal's Yard,51.5144380966574,-0.126426543278564,https://www.yelp.com/biz/homeslice-neals-yard-london?adjust_creative=-uBzzloii2ivvF3N0jkhKQ&utm_campaign=yelp_api_v3&utm_medium=api_v3_business_search&utm_source=-uBzzloii2ivvF3N0jkhKQ,3AqrHgpIbcMXj0q-p_oPzg
119,Sandy's,Pizza,4.0,££,14 Seymour Place,51.5148849487305,-0.161039993166924,https://www.yelp.com/biz/sandys-london?adjust_creative=-uBzzloii2ivvF3N0jkhKQ&utm_campaign=yelp_api_v3&utm_medium=api_v3_business_search&utm_source=-uBzzloii2ivvF3N0jkhKQ,m2XtIGSfOtXqTfR7ij-kzg
120,The Victoria,Pubs,4.5,££,10a Strathearn Place,51.51350403679,-0.17119959969309,https://www.yelp.com/biz/the-victoria-paddington?adjust_creative=-uBzzloii2ivvF3N0jkhKQ&utm_campaign=yelp_api_v3&utm_medium=api_v3_business_search&utm_source=-uBzzloii2ivvF3N0jkhKQ,teXPunKtpwj0NuttvPYhyQ
121,CASK Pub and Kitchen,Pubs,4.5,££,6 Charlwood Street,51.49135039773,-0.13753688795203,https://www.yelp.com/biz/cask-pub-and-kitchen-london-2?adjust_creative=-uBzzloii2ivvF3N0jkhKQ&utm_campaign=yelp_api_v3&utm_medium=api_v3_business_search&utm_source=-uBzzloii2ivvF3N0jkhKQ,5o8lm4tCTGgZfH0N4QAgMg
122,The Spread Eagle,Pubs,4.5,££,224 Homerton High Street,51.5486131491202,-0.0408179463767122,https://www.yelp.com/biz/the-spread-eagle-london-6?adjust_creative=-uBzzloii2ivvF3N0jkhKQ&utm_campaign=yelp_api_v3&utm_medium=api_v3_business_search&utm_source=-uBzzloii2ivvF3N0jkhKQ,1oShlXeGjTrfD-A1I_iHBw
123,The Dove,Pubs,4.0,££,24-26 Broadway Market,51.5363390811417,-0.0618530896556768,https://www.yelp.com/biz/the-dove-london-3?adjust_creative=-uBzzloii2ivvF3N0jkhKQ&utm_campaign=yelp_api_v3&utm_medium=api_v3_business_search&utm_source=-uBzzloii2ivvF3N0jkhKQ,_faDmrUFilwMxk0atkXjNA
124,Holly Bush,Pubs,4.0,££,22 Holly Mount,51.5579124,-0.1793261,https://www.yelp.com/biz/holly-bush-london?adjust_creative=-uBzzloii2ivvF3N0jkhKQ&utm_campaign=yelp_api_v3&utm_medium=api_v3_business_search&utm_source=-uBzzloii2ivvF3N0jkhKQ,y__iD3k2p4Xm0Xl_tSSNZg
125,The Churchill Arms,Pubs,4.0,££,119 Kensington Church Street,51.5068261,-0.194781,https://www.yelp.com/biz/the-churchill-arms-london?adjust_creative=-uBzzloii2ivvF3N0jkhKQ&utm_campaign=yelp_api_v3&utm_medium=api_v3_business_search&utm_source=-uBzzloii2ivvF3N0jkhKQ,hGiblm0l67sLGTtsMvx51A
126,Foodilic,Salad,3.5,£,260 Pentonville Road,51.531028014695,-0.120225165508865,https://www.yelp.com/biz/foodilic-london?adjust_creative=-uBzzloii2ivvF3N0jkhKQ&utm_campaign=yelp_api_v3&utm_medium=api_v3_business_search&utm_source=-uBzzloii2ivvF3N0jkhKQ,HRusjUrXGFzMGbA2liIpwQ
127,Mildreds,Salad,4.5,££,200 Pentonville Road,51.5313571869762,-0.117220487906411,https://www.yelp.com/biz/mildreds-london-3?adjust_creative=-uBzzloii2ivvF3N0jkhKQ&utm_campaign=yelp_api_v3&utm_medium=api_v3_business_search&utm_source=-uBzzloii2ivvF3N0jkhKQ,7-KtpNmkFBSPd4r6MhVzDA
128,Pickles,Sandwiches,3.5,£,6 Old Queen Street,51.501011,-0.130923,https://www.yelp.com/biz/pickles-london-2?adjust_creative=-uBzzloii2ivvF3N0jkhKQ&utm_campaign=yelp_api_v3&utm_medium=api_v3_business_search&utm_source=-uBzzloii2ivvF3N0jkhKQ,HaUEkzqd8ahjouFlhvq1tQ
129,Thakers,Soul Food,,,162a High Street,51.4695549086117,-0.361086806626014,,
130,Bravas Tapas,Spanish,4.5,££,St Katharine Docks,51.507436,-0.071242,https://www.yelp.com/biz/bravas-tapas-london?adjust_creative=-uBzzloii2ivvF3N0jkhKQ&utm_campaign=yelp_api_v3&utm_medium=api_v3_business_search&utm_source=-uBzzloii2ivvF3N0jkhKQ,MI3DDKL7YO38tEF-K-qs_w
131,About Thyme,Spanish,4.5,£££,82 Wilton Road,51.4924969,-0.1399836,https://www.yelp.com/biz/about-thyme-london?adjust_creative=-uBzzloii2ivvF3N0jkhKQ&utm_campaign=yelp_api_v3&utm_medium=api_v3_business_search&utm_source=-uBzzloii2ivvF3N0jkhKQ,ytIFY2JvU-zcd1FsonES5w
132,Hoppers,Sri Lankan,4.5,££,49 Frith Street,51.5135765075684,-0.131750002503395,https://www.yelp.com/biz/hoppers-soho?adjust_creative=-uBzzloii2ivvF3N0jkhKQ&utm_campaign=yelp_api_v3&utm_medium=api_v3_business_search&utm_source=-uBzzloii2ivvF3N0jkhKQ,2U4muki2mQXmkefOtL1VYQ
133,Black Pig With White Pearls,Tapas Bars,4.5,££,61 Stoke Newington High Street,51.55896,-0.0744295,https://www.yelp.com/biz/black-pig-with-white-pearls-london?adjust_creative=-uBzzloii2ivvF3N0jkhKQ&utm_campaign=yelp_api_v3&utm_medium=api_v3_business_search&utm_source=-uBzzloii2ivvF3N0jkhKQ,1BzTEwJ89j_nBSi7Sf3ylQ
134,Taste Of Siam,Thai,4.0,££,45 Camden High Street,51.5356196,-0.1397889,https://www.yelp.com/biz/taste-of-siam-london?adjust_creative=-uBzzloii2ivvF3N0jkhKQ&utm_campaign=yelp_api_v3&utm_medium=api_v3_business_search&utm_source=-uBzzloii2ivvF3N0jkhKQ,O4ctkL-NSlNSD-m3ikDllQ
135,Rosa's Thai Cafe,Thai,4.0,££,25 Gillingham Street,51.4936975642565,-0.141516400361775,https://www.yelp.com/biz/rosas-thai-cafe-london-6?adjust_creative=-uBzzloii2ivvF3N0jkhKQ&utm_campaign=yelp_api_v3&utm_medium=api_v3_business_search&utm_source=-uBzzloii2ivvF3N0jkhKQ,iRGargcTLAdpZwwYv0D90A
136,The Begging Bowl,Thai,4.0,£££,168 Bellenden Road,51.4672892553912,-0.0727415084838867,https://www.yelp.com/biz/the-begging-bowl-london?adjust_creative=-uBzzloii2ivvF3N0jkhKQ&utm_campaign=yelp_api_v3&utm_medium=api_v3_business_search&utm_source=-uBzzloii2ivvF3N0jkhKQ,Bh9Jncp_lEBnJdJjzvtrgA
137,Wok to Walk - Oxford St,Thai,4.5,£,15 Argyll Street,51.5151319864592,-0.141034647080711,https://www.yelp.com/biz/wok-to-walk-oxford-st-london?adjust_creative=-uBzzloii2ivvF3N0jkhKQ&utm_campaign=yelp_api_v3&utm_medium=api_v3_business_search&utm_source=-uBzzloii2ivvF3N0jkhKQ,ccQoTNlwneWz7mC4uy7lhg
138,Grand Bazaar,Turkish,4.0,££,42 James Street,51.5154866,-0.1506015,https://www.yelp.com/biz/grand-bazaar-london?adjust_creative=-uBzzloii2ivvF3N0jkhKQ&utm_campaign=yelp_api_v3&utm_medium=api_v3_business_search&utm_source=-uBzzloii2ivvF3N0jkhKQ,tSRsSKlk4cKWD7Pc7aJihQ
139,Kazan,Turkish,4.5,££,93-94 Wilton Road,51.4927,-0.14072,https://www.yelp.com/biz/kazan-london?adjust_creative=-uBzzloii2ivvF3N0jkhKQ&utm_campaign=yelp_api_v3&utm_medium=api_v3_business_search&utm_source=-uBzzloii2ivvF3N0jkhKQ,vmi7fEu1vy2Tj2yuYlgR0g
140,Ev Restaurant,Turkish,4.0,££,97-99 Isabella Street,51.5041,-0.106221,https://www.yelp.com/biz/ev-restaurant-london-2?adjust_creative=-uBzzloii2ivvF3N0jkhKQ&utm_campaign=yelp_api_v3&utm_medium=api_v3_business_search&utm_source=-uBzzloii2ivvF3N0jkhKQ,Nis31-vJHsaD9BaUoCrXDw
141,Vegan Burgers by Mooshies,Vegan,4.5,£,104 Brick Lane,51.5196543,-0.0715914,https://www.yelp.com/biz/vegan-burgers-by-mooshies-london?adjust_creative=-uBzzloii2ivvF3N0jkhKQ&utm_campaign=yelp_api_v3&utm_medium=api_v3_business_search&utm_source=-uBzzloii2ivvF3N0jkhKQ,e-Tc1FXfJLu0DIWub89EWw
142,The Feel Good Café,Vegan,,,The Village Arcade,51.63136,0.0042,,
143,Miranda Cafe,Vegan,,,28 Broadway Parade,51.5811918320925,-0.121645116567606,,
144,What The Pitta!,Vegan,,,89-91 Bayham Street,51.53798,-0.14062,,
145,The Hive,Vegan,,,240-242 Kensington High Street,51.4988656705546,-0.199602283537388,,
146,The Veggie Table,Vegan,4.5,£,8 Southwark Street,51.505092,-0.090092,https://www.yelp.com/biz/the-veggie-table-london?adjust_creative=-uBzzloii2ivvF3N0jkhKQ&utm_campaign=yelp_api_v3&utm_medium=api_v3_business_search&utm_source=-uBzzloii2ivvF3N0jkhKQ,9jlhFqBRxlvdtDqfeCciEA
147,Buffalo,Vegan,,,171 Mare Street,51.5400751,-0.0560769,,
148,Mildreds,Vegan,4.0,££,45 Lexington Street,51.5130233764648,-0.136484995484352,https://www.yelp.com/biz/mildreds-london?adjust_creative=-uBzzloii2ivvF3N0jkhKQ&utm_campaign=yelp_api_v3&utm_medium=api_v3_business_search&utm_source=-uBzzloii2ivvF3N0jkhKQ,bXo_3uLhacyeGJ0iF743PQ
149,Farmacy,Vegan,4.5,££,74 Westbourne Grove,51.515446,-0.1926381,https://www.yelp.com/biz/farmacy-london?adjust_creative=-uBzzloii2ivvF3N0jkhKQ&utm_campaign=yelp_api_v3&utm_medium=api_v3_business_search&utm_source=-uBzzloii2ivvF3N0jkhKQ,ZTSM33QFv3pwxtSJp8Y02g
150,Mildreds,Vegan,4.5,££,9 Jamestown Road,51.54048,-0.144592,https://www.yelp.com/biz/mildreds-london-2?adjust_creative=-uBzzloii2ivvF3N0jkhKQ&utm_campaign=yelp_api_v3&utm_medium=api_v3_business_search&utm_source=-uBzzloii2ivvF3N0jkhKQ,2C9EoktEUIMwfzj71n26ag
151,Rudy's Dirty Vegan Diner,Vegan,,,Chalk Farm Rd,51.5424003308146,-0.14850796110578,,
152,Wulf and lamb,Vegan,4.5,££,243 Pavilion Road,51.4939041,-0.1586825,https://www.yelp.com/biz/wulf-and-lamb-london?adjust_creative=-uBzzloii2ivvF3N0jkhKQ&utm_campaign=yelp_api_v3&utm_medium=api_v3_business_search&utm_source=-uBzzloii2ivvF3N0jkhKQ,6Qqb-xU4ERH4nsHWKtthLg
153,Café Forty One,Vegan,4.5,££,41-51 Inverness Terrace,51.512652,-0.1867779,https://www.yelp.com/biz/caf%C3%A9-forty-one-london?adjust_creative=-uBzzloii2ivvF3N0jkhKQ&utm_campaign=yelp_api_v3&utm_medium=api_v3_business_search&utm_source=-uBzzloii2ivvF3N0jkhKQ,lWIaUMCpSkJHaODE0JgN8g
154,Vantra,Vegan,,,5 Wardour Street,51.5107003,-0.1340457,,
155,by CHLOE. Covent Garden,Vegan,4.0,££,Drury House,51.51353,-0.12051,https://www.yelp.com/biz/by-chloe-covent-garden-london?adjust_creative=-uBzzloii2ivvF3N0jkhKQ&utm_campaign=yelp_api_v3&utm_medium=api_v3_business_search&utm_source=-uBzzloii2ivvF3N0jkhKQ,TGOBwzRyz0NOm_Pk8b6F3Q
156,Temple of Seitan,Vegan,4.5,££,103 Camley St,51.537883,-0.130586,https://www.yelp.com/biz/temple-of-seitan-london-2?adjust_creative=-uBzzloii2ivvF3N0jkhKQ&utm_campaign=yelp_api_v3&utm_medium=api_v3_business_search&utm_source=-uBzzloii2ivvF3N0jkhKQ,2Kdbq8L0P0Qhpk8ql1D7IQ
157,Wholefood Heaven,Vegan,,,Whitecross Street Market,51.545258,-0.140778,,
158,The Full Nelson,Vegan,,,47 Deptford Broadway,51.4746705408659,-0.025293231010437,,
159,Jusu Brothers,Vegan,5.0,££,147-149 Westbourne Grove,51.5147605,-0.1960694,https://www.yelp.com/biz/jusu-brothers-london?adjust_creative=-uBzzloii2ivvF3N0jkhKQ&utm_campaign=yelp_api_v3&utm_medium=api_v3_business_search&utm_source=-uBzzloii2ivvF3N0jkhKQ,IQpsCaCYOAZkKAJRcA-24Q
160,Cook Daily,Vegan,4.5,£,Arch 358,51.5378951454733,-0.0584027543663979,https://www.yelp.com/biz/cook-daily-london-2?adjust_creative=-uBzzloii2ivvF3N0jkhKQ&utm_campaign=yelp_api_v3&utm_medium=api_v3_business_search&utm_source=-uBzzloii2ivvF3N0jkhKQ,LqF2CjyQu0__v1ySNWJG8Q
161,Vegan Yes,Vegan,,,64 Brick Lane,51.5187357113673,-0.0714313709148927,,
162,Essential Vegan Cafe,Vegan,,,6 Calvert Ave,51.52629,-0.07746,,
163,Black Cat,Vegan,4.5,£,76 Clarence Road,51.5513968,-0.055691,https://www.yelp.com/biz/black-cat-london?adjust_creative=-uBzzloii2ivvF3N0jkhKQ&utm_campaign=yelp_api_v3&utm_medium=api_v3_business_search&utm_source=-uBzzloii2ivvF3N0jkhKQ,f8s8dT9Rm4359xUVHtiqRA
164,Loving Hut Archway,Vegan,4.0,££,669 Holloway Rd,51.5649508868981,-0.133335962891579,https://www.yelp.com/biz/loving-hut-archway-london?adjust_creative=-uBzzloii2ivvF3N0jkhKQ&utm_campaign=yelp_api_v3&utm_medium=api_v3_business_search&utm_source=-uBzzloii2ivvF3N0jkhKQ,dUjqjY7GxJFQ9bzlu4HEgw
165,Kalifornia Kitchen,Vegan,,,19 Percy Street,51.5185890197754,-0.132510006427765,,
166,by CHLOE. Tower Bridge,Vegan,,,One Tower Bridge,51.5035046,-0.0773,,
167,The Detox Kitchen,Vegan,,,10 Mortimer Street,51.5186046,-0.1380871,,
168,Tibits,Vegetarian,4.5,££,124 Southwark Street,51.506317,-0.101547,https://www.yelp.com/biz/tibits-london-7?adjust_creative=-uBzzloii2ivvF3N0jkhKQ&utm_campaign=yelp_api_v3&utm_medium=api_v3_business_search&utm_source=-uBzzloii2ivvF3N0jkhKQ,3KY3-PR4JG-aZe8A7fhuNA
169,Gi Gi Hut,Vegetarian,,,339 Euston Road,51.5243752,-0.14027,,
170,222 Veggie Vegan,Vegetarian,4.0,££,222 North End Road,51.486007,-0.2030859,https://www.yelp.com/biz/222-veggie-vegan-london?adjust_creative=-uBzzloii2ivvF3N0jkhKQ&utm_campaign=yelp_api_v3&utm_medium=api_v3_business_search&utm_source=-uBzzloii2ivvF3N0jkhKQ,R4yaSL1PT2mpt5yNX2U7AA
171,The Grain Shop,Vegetarian,4.0,£,269A Portobello Road,51.51786,-0.206798,https://www.yelp.com/biz/the-grain-shop-london?adjust_creative=-uBzzloii2ivvF3N0jkhKQ&utm_campaign=yelp_api_v3&utm_medium=api_v3_business_search&utm_source=-uBzzloii2ivvF3N0jkhKQ,wRIvr7m40Mjxx-H8BYietw
172,Ethos,Vegetarian,4.0,££,48 Eastcastle Street,51.51638,-0.1390968,https://www.yelp.com/biz/ethos-london-4?adjust_creative=-uBzzloii2ivvF3N0jkhKQ&utm_campaign=yelp_api_v3&utm_medium=api_v3_business_search&utm_source=-uBzzloii2ivvF3N0jkhKQ,5u3SgBbNRJAPfzzffLD42w
173,Wild Food Cafe,Vegetarian,4.0,££,1st Floor,51.5144749136901,-0.126376003026962,https://www.yelp.com/biz/wild-food-cafe-london?adjust_creative=-uBzzloii2ivvF3N0jkhKQ&utm_campaign=yelp_api_v3&utm_medium=api_v3_business_search&utm_source=-uBzzloii2ivvF3N0jkhKQ,1_nby6Ob2JH8kaOvVdk7_Q
174,Koshari Street,Vegetarian,4.5,£,56 St Martin's Ln,51.5109410206983,-0.126831103538283,https://www.yelp.com/biz/koshari-street-london?adjust_creative=-uBzzloii2ivvF3N0jkhKQ&utm_campaign=yelp_api_v3&utm_medium=api_v3_business_search&utm_source=-uBzzloii2ivvF3N0jkhKQ,bRACQuON_142mYHqaifaGQ
175,Tibits,Vegetarian,4.0,££,12-14 Heddon Street,51.511302947998,-0.139624997973442,https://www.yelp.com/biz/tibits-london-3?adjust_creative=-uBzzloii2ivvF3N0jkhKQ&utm_campaign=yelp_api_v3&utm_medium=api_v3_business_search&utm_source=-uBzzloii2ivvF3N0jkhKQ,DnBY9gukSdy42EoJtBhdaQ
176,The Gate,Vegetarian,,,87 Allitsen Road,51.5337,-0.16934,,
177,Squirrel,Vegetarian,4.0,£,11 Harrington Road,51.4939502,-0.1755847,https://www.yelp.com/biz/squirrel-london?adjust_creative=-uBzzloii2ivvF3N0jkhKQ&utm_campaign=yelp_api_v3&utm_medium=api_v3_business_search&utm_source=-uBzzloii2ivvF3N0jkhKQ,rLjRU-MRorU36kc2Xq0zSQ
178,Cafe Pushkar,Vegetarian,3.5,££,424 Coldharbour Lane,51.46164,-0.11361,https://www.yelp.com/biz/cafe-pushkar-london?adjust_creative=-uBzzloii2ivvF3N0jkhKQ&utm_campaign=yelp_api_v3&utm_medium=api_v3_business_search&utm_source=-uBzzloii2ivvF3N0jkhKQ,-PnReVDp_G_OfuJMQ0TOzg
179,The Gate,Vegetarian,,,22-24 Seymour Place,51.5151328683862,-0.161105208098888,,
180,Delhiwala Restaurant & Sweet Centre,Vegetarian,,,72 Vicarage Farm Road,51.4774752,-0.3838098,,
181,Sagar,Vegetarian,4.0,££,17a Percy Street,51.5184954,-0.1327689,https://www.yelp.com/biz/sagar-london-3?adjust_creative=-uBzzloii2ivvF3N0jkhKQ&utm_campaign=yelp_api_v3&utm_medium=api_v3_business_search&utm_source=-uBzzloii2ivvF3N0jkhKQ,xXS34SSivXDzySH9hrAVMw
182,The Gate,Vegetarian,4.5,£££,51 Queen Caroline Street,51.49025,-0.22544,https://www.yelp.com/biz/the-gate-london-8?adjust_creative=-uBzzloii2ivvF3N0jkhKQ&utm_campaign=yelp_api_v3&utm_medium=api_v3_business_search&utm_source=-uBzzloii2ivvF3N0jkhKQ,aX0nQBilAGDtVNWQMRUqqg
183,Levant,Vegetarian,4.0,££££,Jason Court,51.516215,-0.150666,https://www.yelp.com/biz/levant-london?adjust_creative=-uBzzloii2ivvF3N0jkhKQ&utm_campaign=yelp_api_v3&utm_medium=api_v3_business_search&utm_source=-uBzzloii2ivvF3N0jkhKQ,cIqYqd3aRSmfkklAC_ENhw
184,Vanilla Black,Vegetarian,4.0,£££,17-18 Took's Court,51.517175605475,-0.11102477345447,https://www.yelp.com/biz/vanilla-black-london?adjust_creative=-uBzzloii2ivvF3N0jkhKQ&utm_campaign=yelp_api_v3&utm_medium=api_v3_business_search&utm_source=-uBzzloii2ivvF3N0jkhKQ,HzyhCXPooUGWvuPYOfT0WA
185,Bonnington Café,Vegetarian,4.0,£,11 Vauxhall Grove,51.4846229,-0.1200278,https://www.yelp.com/biz/bonnington-caf%C3%A9-london-2?adjust_creative=-uBzzloii2ivvF3N0jkhKQ&utm_campaign=yelp_api_v3&utm_medium=api_v3_business_search&utm_source=-uBzzloii2ivvF3N0jkhKQ,5rGACVUL-kFwJt0LMgHRBA
186,The Gate,Vegetarian,4.0,££,370 St John Street,51.5301667,-0.1051527,https://www.yelp.com/biz/the-gate-london-18?adjust_creative=-uBzzloii2ivvF3N0jkhKQ&utm_campaign=yelp_api_v3&utm_medium=api_v3_business_search&utm_source=-uBzzloii2ivvF3N0jkhKQ,xKhxUFGjQCayQbYaJ9UBfg
187,The Riverside Vegetaria,Vegetarian,4.0,££,64 High Street,51.407239,-0.308125,https://www.yelp.com/biz/the-riverside-vegetaria-kingston-upon-thames?adjust_creative=-uBzzloii2ivvF3N0jkhKQ&utm_campaign=yelp_api_v3&utm_medium=api_v3_business_search&utm_source=-uBzzloii2ivvF3N0jkhKQ,hFR06IFzwrs6RgM6r3W1VA
188,Vijay's Chawalla,Vegetarian,4.0,££,268-270 Green Street,51.5387,0.0332554,https://www.yelp.com/biz/vijays-chawalla-london-2?adjust_creative=-uBzzloii2ivvF3N0jkhKQ&utm_campaign=yelp_api_v3&utm_medium=api_v3_business_search&utm_source=-uBzzloii2ivvF3N0jkhKQ,E1i7l8_bh3yiRjNkJpPSwg
189,Cafe Pura,Vegetarian,,,48 Newton Lodge Oval Square,51.494321,0.013527,,
190,Veg,Vegetarian,2.5,£,11 Islington High Street,51.5323647,-0.1064309,https://www.yelp.com/biz/veg-london-2?adjust_creative=-uBzzloii2ivvF3N0jkhKQ&utm_campaign=yelp_api_v3&utm_medium=api_v3_business_search&utm_source=-uBzzloii2ivvF3N0jkhKQ,2agY-rczZLIERKHB721V2g
191,Carnevale,Vegetarian,4.0,££,135 Whitecross Street,51.5228964,-0.0929861,https://www.yelp.com/biz/carnevale-london?adjust_creative=-uBzzloii2ivvF3N0jkhKQ&utm_campaign=yelp_api_v3&utm_medium=api_v3_business_search&utm_source=-uBzzloii2ivvF3N0jkhKQ,zqr54R-hh99HCPaujuLpXQ
192,My Village Café,Vegetarian,4.0,£,37 Chalk Farm Road,51.5427549,-0.1476913,https://www.yelp.com/biz/my-village-caf%C3%A9-london-2?adjust_creative=-uBzzloii2ivvF3N0jkhKQ&utm_campaign=yelp_api_v3&utm_medium=api_v3_business_search&utm_source=-uBzzloii2ivvF3N0jkhKQ,z3xc2E24kl-kWjEG3Gi_3w
193,Govinda's Restaurant,Vegetarian,4.0,£,10 Soho Street,51.515878,-0.132808,https://www.yelp.com/biz/govindas-restaurant-london-2?adjust_creative=-uBzzloii2ivvF3N0jkhKQ&utm_campaign=yelp_api_v3&utm_medium=api_v3_business_search&utm_source=-uBzzloii2ivvF3N0jkhKQ,PCP32dk4euUG21mX0kp5aw
194,The Canary,Vegetarian,5.0,£,61-63 Old Bethnal Green Road,51.5294906,-0.0609225,https://www.yelp.com/biz/the-canary-london-2?adjust_creative=-uBzzloii2ivvF3N0jkhKQ&utm_campaign=yelp_api_v3&utm_medium=api_v3_business_search&utm_source=-uBzzloii2ivvF3N0jkhKQ,elEmETsx5rVcCeIg7a2yXw
195,Pilpel,Vegetarian,4.5,£,38 Brushfield Street,51.5189556,-0.0772774,https://www.yelp.com/biz/pilpel-london?adjust_creative=-uBzzloii2ivvF3N0jkhKQ&utm_campaign=yelp_api_v3&utm_medium=api_v3_business_search&utm_source=-uBzzloii2ivvF3N0jkhKQ,2hWE0g0lCJt97WQY4o2Q-g
196,Ngon Ngon,Vietnamese,4.5,££,144 Clerkenwell Road,51.5221634,-0.1097323,https://www.yelp.com/biz/ngon-ngon-london?adjust_creative=-uBzzloii2ivvF3N0jkhKQ&utm_campaign=yelp_api_v3&utm_medium=api_v3_business_search&utm_source=-uBzzloii2ivvF3N0jkhKQ,E2GbtvuTVKo23qJeyqc82w
197,Sen Viet,Vietnamese,4.0,££,119 King's Cross Road,51.529089,-0.1159522,https://www.yelp.com/biz/sen-viet-london?adjust_creative=-uBzzloii2ivvF3N0jkhKQ&utm_campaign=yelp_api_v3&utm_medium=api_v3_business_search&utm_source=-uBzzloii2ivvF3N0jkhKQ,5ctdM8Aiw1K9M6vZ2jUTeA
198,BunBunBun Vietnamese Food,Vietnamese,4.5,££,134B Kingsland Road,51.5317879,-0.0768315,https://www.yelp.com/biz/bunbunbun-vietnamese-food-london-2?adjust_creative=-uBzzloii2ivvF3N0jkhKQ&utm_campaign=yelp_api_v3&utm_medium=api_v3_business_search&utm_source=-uBzzloii2ivvF3N0jkhKQ,VovLxnCCWutZhE9NnSD9NA
199,Cafe East,Vietnamese,4.0,£,100 Redriff Road,51.4962937564236,-0.0415420532226562,https://www.yelp.com/biz/cafe-east-london-2?adjust_creative=-uBzzloii2ivvF3N0jkhKQ&utm_campaign=yelp_api_v3&utm_medium=api_v3_business_search&utm_source=-uBzzloii2ivvF3N0jkhKQ,rlgecmgj4sTj1-BapJBg_Q
