,Restaurant,Type,Rating,Price,Address,Lat,Lng,url,ID
0,Momowich,Asian Fusion,4.5,£,9 Carthusian Street,51.5205756735942,-0.0980528444051743,https://www.yelp.com/biz/momowich-london-3?adjust_creative=-uBzzloii2ivvF3N0jkhKQ&utm_campaign=yelp_api_v3&utm_medium=api_v3_business_search&utm_source=-uBzzloii2ivvF3N0jkhKQ,MXS9sVOtxhIK_bOc6E6zqQ
1,Bintang Restaurant,Asian Fusion,4.0,££,93 Kentish Town Road,51.5435936,-0.1419243,https://www.yelp.com/biz/bintang-restaurant-london?adjust_creative=-uBzzloii2ivvF3N0jkhKQ&utm_campaign=yelp_api_v3&utm_medium=api_v3_business_search&utm_source=-uBzzloii2ivvF3N0jkhKQ,U7r1uvzMlxrykH15ebt7lQ
2,Yum Sa,Asian Fusion,,,Unit 1 3 Plaza Gardens,51.4592834202089,-0.210306979715824,,
3,Street Hawker Restaurant,Asian Fusion,4.5,££,166 Randolph Avenue,51.5301528,-0.1863199,https://www.yelp.com/biz/street-hawker-restaurant-london-2?adjust_creative=-uBzzloii2ivvF3N0jkhKQ&utm_campaign=yelp_api_v3&utm_medium=api_v3_business_search&utm_source=-uBzzloii2ivvF3N0jkhKQ,1vk1jic2_jaciKPSG6Hy4w
4,Banana Tree,Asian Fusion,4.0,££,75-79 Battersea Rise,51.460635,-0.166301,https://www.yelp.com/biz/banana-tree-london-7?adjust_creative=-uBzzloii2ivvF3N0jkhKQ&utm_campaign=yelp_api_v3&utm_medium=api_v3_business_search&utm_source=-uBzzloii2ivvF3N0jkhKQ,RaIZ-cnvuSM3wLDuQkl-aw
5,Wok to Walk - Cranbourn St,Asian Fusion,4.5,£,21-22 Cranbourn Street,51.5116604,-0.1279191,https://www.yelp.com/biz/wok-to-walk-cranbourn-st-london-4?adjust_creative=-uBzzloii2ivvF3N0jkhKQ&utm_campaign=yelp_api_v3&utm_medium=api_v3_business_search&utm_source=-uBzzloii2ivvF3N0jkhKQ,GtkU-5oLpWL96c3pC1fyIw
6,E&O,Asian Fusion,4.0,£££,14 Blenheim Crescent,51.5158364710502,-0.205848282245171,https://www.yelp.com/biz/e-and-o-london?adjust_creative=-uBzzloii2ivvF3N0jkhKQ&utm_campaign=yelp_api_v3&utm_medium=api_v3_business_search&utm_source=-uBzzloii2ivvF3N0jkhKQ,qsQAO0i1z8qlQMECyDyitQ
7,Sticky Mango,Asian Fusion,,,33 Coin Street,51.5060829,-0.1098249,,
8,Firecracker,Asian Fusion,4.0,££,44 Horseferry Road,51.4949849,-0.1271241,https://www.yelp.com/biz/firecracker-london?adjust_creative=-uBzzloii2ivvF3N0jkhKQ&utm_campaign=yelp_api_v3&utm_medium=api_v3_business_search&utm_source=-uBzzloii2ivvF3N0jkhKQ,y9MWERu8ULGHhMKaDn8F2Q
9,KIN,Asian Fusion,4.0,££,88 Leather Lane,51.521448855755,-0.10987964543908,https://www.yelp.com/biz/kin-london-2?adjust_creative=-uBzzloii2ivvF3N0jkhKQ&utm_campaign=yelp_api_v3&utm_medium=api_v3_business_search&utm_source=-uBzzloii2ivvF3N0jkhKQ,uSmXcq26qSXpsoLyog_nlA
10,Eight Over Eight,Asian Fusion,4.0,£££,392 Kings Road,51.484206,-0.176734,https://www.yelp.com/biz/eight-over-eight-london?adjust_creative=-uBzzloii2ivvF3N0jkhKQ&utm_campaign=yelp_api_v3&utm_medium=api_v3_business_search&utm_source=-uBzzloii2ivvF3N0jkhKQ,-N4164ebiYY4eD1pXedhnA
11,ULI,Asian Fusion,4.0,££,5 Ladbroke Road,51.5096119,-0.1979603,https://www.yelp.com/biz/uli-london?adjust_creative=-uBzzloii2ivvF3N0jkhKQ&utm_campaign=yelp_api_v3&utm_medium=api_v3_business_search&utm_source=-uBzzloii2ivvF3N0jkhKQ,LFohlIcFGZRg1H_DhOwy9w
12,Firefly Bar & Thai kitchen,Bars,4.0,££,3 Station Parade,51.442691283449,-0.153311463075813,https://www.yelp.com/biz/firefly-bar-and-thai-kitchen-london?adjust_creative=-uBzzloii2ivvF3N0jkhKQ&utm_campaign=yelp_api_v3&utm_medium=api_v3_business_search&utm_source=-uBzzloii2ivvF3N0jkhKQ,9XG_Tyf_8kfSrjN8aCfEBg
13,Oaka At The Mansion House,Bars,4.5,££,48 Kennington Park Road,51.489283,-0.105205,https://www.yelp.com/biz/oaka-at-the-mansion-house-london-2?adjust_creative=-uBzzloii2ivvF3N0jkhKQ&utm_campaign=yelp_api_v3&utm_medium=api_v3_business_search&utm_source=-uBzzloii2ivvF3N0jkhKQ,A4XN6FM_ankGP7kYvwjjIw
14,Hakkasan Mayfair,Chinese,4.0,££££,17 Bruton Street,51.5103202323384,-0.144935268434918,https://www.yelp.com/biz/hakkasan-mayfair-london-2?adjust_creative=-uBzzloii2ivvF3N0jkhKQ&utm_campaign=yelp_api_v3&utm_medium=api_v3_business_search&utm_source=-uBzzloii2ivvF3N0jkhKQ,chEEcQbc8PbidTeXK34H9g
15,Dong Phuong,Chinese,5.0,££,32 Roehampton High Street,51.453886,-0.245483,https://www.yelp.com/biz/dong-phuong-london?adjust_creative=-uBzzloii2ivvF3N0jkhKQ&utm_campaign=yelp_api_v3&utm_medium=api_v3_business_search&utm_source=-uBzzloii2ivvF3N0jkhKQ,GkX3yV3ggecmmemw7MhS9Q
16,Singapore Garden,Chinese,3.5,£££,83 Fairfax Road,51.5423289,-0.1797382,https://www.yelp.com/biz/singapore-garden-london?adjust_creative=-uBzzloii2ivvF3N0jkhKQ&utm_campaign=yelp_api_v3&utm_medium=api_v3_business_search&utm_source=-uBzzloii2ivvF3N0jkhKQ,V09kvXn3NDACmCQF1lYrCQ
17,Marie's Cafe,Coffee & Tea,4.0,£,90 Lower Marsh,51.501533914011,-0.11130307161269,https://www.yelp.com/biz/maries-cafe-london?adjust_creative=-uBzzloii2ivvF3N0jkhKQ&utm_campaign=yelp_api_v3&utm_medium=api_v3_business_search&utm_source=-uBzzloii2ivvF3N0jkhKQ,puXO6DCuNOyopFw6Ykgtzw
18,Paolina's Thai Cafe,Coffee & Tea,4.5,£,181 King's Cross Road,51.530469,-0.118457,https://www.yelp.com/biz/paolinas-thai-cafe-london?adjust_creative=-uBzzloii2ivvF3N0jkhKQ&utm_campaign=yelp_api_v3&utm_medium=api_v3_business_search&utm_source=-uBzzloii2ivvF3N0jkhKQ,hWJYKoBLzeQ6STpTp6FoYw
19,Harar Restaurant,Ethiopian,4.5,££,49 S Lambeth Road,51.482313,-0.124012,https://www.yelp.com/biz/harar-restaurant-london?adjust_creative=-uBzzloii2ivvF3N0jkhKQ&utm_campaign=yelp_api_v3&utm_medium=api_v3_business_search&utm_source=-uBzzloii2ivvF3N0jkhKQ,hDNT98y1tlFVcKKiwEv7tw
20,Thai Crystal,Fast Food,4.5,££,7 Westow Hill,51.419812,-0.0822806,https://www.yelp.com/biz/thai-crystal-london?adjust_creative=-uBzzloii2ivvF3N0jkhKQ&utm_campaign=yelp_api_v3&utm_medium=api_v3_business_search&utm_source=-uBzzloii2ivvF3N0jkhKQ,kAvQbL52fbMOxcm-bJoYGw
21,Newdlez Pad Thai,Food Stands,5.0,£,Sunday UpMarket,51.5203908957086,-0.0724449094546498,https://www.yelp.com/biz/newdlez-pad-thai-london?adjust_creative=-uBzzloii2ivvF3N0jkhKQ&utm_campaign=yelp_api_v3&utm_medium=api_v3_business_search&utm_source=-uBzzloii2ivvF3N0jkhKQ,3n3AizXFUaqJmk5c_zzIqw
22,Banana Tree,Halal,4.0,££,237-239 W End Lane,51.5495692800869,-0.191661783719218,https://www.yelp.com/biz/banana-tree-london-8?adjust_creative=-uBzzloii2ivvF3N0jkhKQ&utm_campaign=yelp_api_v3&utm_medium=api_v3_business_search&utm_source=-uBzzloii2ivvF3N0jkhKQ,VvvfpAZpjEIYV24zcQvjdg
23,Satay Cocktail Bar & Restaurant,Indonesian,3.5,££,447 Coldharbour Lane,51.4614207479944,-0.114383321037687,https://www.yelp.com/biz/satay-cocktail-bar-and-restaurant-london?adjust_creative=-uBzzloii2ivvF3N0jkhKQ&utm_campaign=yelp_api_v3&utm_medium=api_v3_business_search&utm_source=-uBzzloii2ivvF3N0jkhKQ,WAaamCBn-6SmGQ5dYPYwFQ
24,Chozen Noodle,Japanese,3.5,££,141 Praed Street,51.516426,-0.173877,https://www.yelp.com/biz/chozen-noodle-london-4?adjust_creative=-uBzzloii2ivvF3N0jkhKQ&utm_campaign=yelp_api_v3&utm_medium=api_v3_business_search&utm_source=-uBzzloii2ivvF3N0jkhKQ,Ui8Y5D1HwIAVjwNRmXHyiw
25,Home,Laotian,5.0,£,2 Bethnal Green Road,51.5235110717839,-0.0763940066099167,https://www.yelp.com/biz/home-london-10?adjust_creative=-uBzzloii2ivvF3N0jkhKQ&utm_campaign=yelp_api_v3&utm_medium=api_v3_business_search&utm_source=-uBzzloii2ivvF3N0jkhKQ,EBJG1t9MGidxH8bp5Hpm8Q
26,Lao Cafe,Laotian,4.0,££,60 Chandos Place,51.510153354616,-0.125136251632811,https://www.yelp.com/biz/lao-cafe-london?adjust_creative=-uBzzloii2ivvF3N0jkhKQ&utm_campaign=yelp_api_v3&utm_medium=api_v3_business_search&utm_source=-uBzzloii2ivvF3N0jkhKQ,zr2aKieJp8S5by5VPceKUQ
27,Mamak Don,Malaysian,,,9 Parkway,51.5386656968639,-0.143215209245682,,
28,Melur,Malaysian,4.0,££,175 Edgeware Road,51.5182309191524,-0.167822487218507,https://www.yelp.com/biz/melur-london?adjust_creative=-uBzzloii2ivvF3N0jkhKQ&utm_campaign=yelp_api_v3&utm_medium=api_v3_business_search&utm_source=-uBzzloii2ivvF3N0jkhKQ,y1VteCQTZojJ-H3tc5Q-dQ
29,Champor-Champor,Malaysian,4.0,£££,62-64 Weston Street,51.5024226,-0.0854034,https://www.yelp.com/biz/champor-champor-london?adjust_creative=-uBzzloii2ivvF3N0jkhKQ&utm_campaign=yelp_api_v3&utm_medium=api_v3_business_search&utm_source=-uBzzloii2ivvF3N0jkhKQ,40fsbtEuQCAtwcqlnUWEvQ
30,Makan Café,Malaysian,4.5,£,270 Portobello Road,51.519035,-0.207198,https://www.yelp.com/biz/makan-caf%C3%A9-london-3?adjust_creative=-uBzzloii2ivvF3N0jkhKQ&utm_campaign=yelp_api_v3&utm_medium=api_v3_business_search&utm_source=-uBzzloii2ivvF3N0jkhKQ,kFuNTfCd50hHjw3xxnCQ1w
31,Tukdin,Malaysian,4.0,££,41 Craven Road,51.5133999,-0.1792873,https://www.yelp.com/biz/tukdin-london?adjust_creative=-uBzzloii2ivvF3N0jkhKQ&utm_campaign=yelp_api_v3&utm_medium=api_v3_business_search&utm_source=-uBzzloii2ivvF3N0jkhKQ,VRGItrDyJTZKNBN4HeK1AQ
32,Satay House,Malaysian,4.0,££,13 Sale Place,51.517626,-0.169519,https://www.yelp.com/biz/satay-house-london?adjust_creative=-uBzzloii2ivvF3N0jkhKQ&utm_campaign=yelp_api_v3&utm_medium=api_v3_business_search&utm_source=-uBzzloii2ivvF3N0jkhKQ,08OnUftxGa4co_Mc_gbsew
33,Kiln,Noodles,4.5,££,58 Brewer Street,51.5114108,-0.1360504,https://www.yelp.com/biz/kiln-london?adjust_creative=-uBzzloii2ivvF3N0jkhKQ&utm_campaign=yelp_api_v3&utm_medium=api_v3_business_search&utm_source=-uBzzloii2ivvF3N0jkhKQ,VTOd4cweIR_5uMHh0KLeBg
34,The Heron,Pubs,4.0,££,Norfolk Crescent,51.5166613759148,-0.1672946,https://www.yelp.com/biz/the-heron-london?adjust_creative=-uBzzloii2ivvF3N0jkhKQ&utm_campaign=yelp_api_v3&utm_medium=api_v3_business_search&utm_source=-uBzzloii2ivvF3N0jkhKQ,Hk22zJgvR8NKYimQlR2IMA
35,Latymers,Pubs,4.0,£,157 Hammersmith Road,51.4929351140286,-0.217810317873955,https://www.yelp.com/biz/latymers-london?adjust_creative=-uBzzloii2ivvF3N0jkhKQ&utm_campaign=yelp_api_v3&utm_medium=api_v3_business_search&utm_source=-uBzzloii2ivvF3N0jkhKQ,8pO5Gqrd6v_z4kdSY2aBpQ
36,The Churchill Arms,Pubs,4.0,££,119 Kensington Church Street,51.5068261,-0.194781,https://www.yelp.com/biz/the-churchill-arms-london?adjust_creative=-uBzzloii2ivvF3N0jkhKQ&utm_campaign=yelp_api_v3&utm_medium=api_v3_business_search&utm_source=-uBzzloii2ivvF3N0jkhKQ,hGiblm0l67sLGTtsMvx51A
37,The Pineapple,Pubs,4.5,££,51 Leverton Street,51.552982223333,-0.13954697681192,https://www.yelp.com/biz/the-pineapple-london-2?adjust_creative=-uBzzloii2ivvF3N0jkhKQ&utm_campaign=yelp_api_v3&utm_medium=api_v3_business_search&utm_source=-uBzzloii2ivvF3N0jkhKQ,qcwGRAo0E9A6dQ7YgUP5Fw
38,The Old Eagle Pub,Pubs,4.0,££,251 Royal College Street,51.5427837,-0.1393809,https://www.yelp.com/biz/the-old-eagle-pub-london?adjust_creative=-uBzzloii2ivvF3N0jkhKQ&utm_campaign=yelp_api_v3&utm_medium=api_v3_business_search&utm_source=-uBzzloii2ivvF3N0jkhKQ,NDirfYuuDuCMC675xKSTVg
39,Hoppers,Sri Lankan,4.5,££,49 Frith Street,51.5135765075684,-0.131750002503395,https://www.yelp.com/biz/hoppers-soho?adjust_creative=-uBzzloii2ivvF3N0jkhKQ&utm_campaign=yelp_api_v3&utm_medium=api_v3_business_search&utm_source=-uBzzloii2ivvF3N0jkhKQ,2U4muki2mQXmkefOtL1VYQ
40,Benjawan,Thai,4.0,££,176-178 Fortis Green Road,51.591061,-0.147917,https://www.yelp.com/biz/benjawan-london?adjust_creative=-uBzzloii2ivvF3N0jkhKQ&utm_campaign=yelp_api_v3&utm_medium=api_v3_business_search&utm_source=-uBzzloii2ivvF3N0jkhKQ,j3dykSIsdtNeCISbnL4aRA
41,Ploy's Thai Cafe,Thai,,,23 Trinity Road,51.436148,-0.16071,,
42,Lan Naa Thai,Thai,,,131 High Street,51.698298,0.110004,,
43,Sema Thai,Thai,4.0,££,57 Lordship Lane,51.4588744,-0.0747267,https://www.yelp.com/biz/sema-thai-london?adjust_creative=-uBzzloii2ivvF3N0jkhKQ&utm_campaign=yelp_api_v3&utm_medium=api_v3_business_search&utm_source=-uBzzloii2ivvF3N0jkhKQ,eCE-gZjTsU6pRfTbamH4YA
44,Thai-An,Thai,4.0,£,23 White Conduit Street,51.5336418,-0.1089249,https://www.yelp.com/biz/thai-an-london?adjust_creative=-uBzzloii2ivvF3N0jkhKQ&utm_campaign=yelp_api_v3&utm_medium=api_v3_business_search&utm_source=-uBzzloii2ivvF3N0jkhKQ,MsuIkSHr44pODfYdQS91uw
45,Pandan Thai Kitchen,Thai,,,1057 finchley Road,51.580496,-0.19882,,
46,Rosa's Thai Cafe,Thai,,,36 Atlantic Road,51.4622889,-0.1126337,,
47,Busaba Chelsea,Thai,3.0,££,358 King's Road,51.4844324,-0.1761491,https://www.yelp.com/biz/busaba-chelsea-london?adjust_creative=-uBzzloii2ivvF3N0jkhKQ&utm_campaign=yelp_api_v3&utm_medium=api_v3_business_search&utm_source=-uBzzloii2ivvF3N0jkhKQ,D9TrdLMDTyy0DhXgir1xlw
48,thailand Restaurant,Thai,,,207,51.361248,-0.254519,,
49,Royal Thai Restaurant,Thai,3.5,££,50 Caledonian Road,51.5322174,-0.1201815,https://www.yelp.com/biz/royal-thai-restaurant-london?adjust_creative=-uBzzloii2ivvF3N0jkhKQ&utm_campaign=yelp_api_v3&utm_medium=api_v3_business_search&utm_source=-uBzzloii2ivvF3N0jkhKQ,wb8jh1cQJy_yN1LUVIroVQ
50,Busaba Covent Garden,Thai,3.5,££,44 Floral Street,51.51308,-0.123568,https://www.yelp.com/biz/busaba-covent-garden-london?adjust_creative=-uBzzloii2ivvF3N0jkhKQ&utm_campaign=yelp_api_v3&utm_medium=api_v3_business_search&utm_source=-uBzzloii2ivvF3N0jkhKQ,y3Sq5eJZul88rn_FjTf0Yw
51,The Begging Bowl,Thai,4.0,£££,168 Bellenden Road,51.4672892553912,-0.0727415084838867,https://www.yelp.com/biz/the-begging-bowl-london?adjust_creative=-uBzzloii2ivvF3N0jkhKQ&utm_campaign=yelp_api_v3&utm_medium=api_v3_business_search&utm_source=-uBzzloii2ivvF3N0jkhKQ,Bh9Jncp_lEBnJdJjzvtrgA
52,Sawadika Fine Thai Restaurant,Thai,3.0,££,71 Red Lion Street,51.5184746255577,-0.116921103559227,https://www.yelp.com/biz/sawadika-fine-thai-restaurant-london?adjust_creative=-uBzzloii2ivvF3N0jkhKQ&utm_campaign=yelp_api_v3&utm_medium=api_v3_business_search&utm_source=-uBzzloii2ivvF3N0jkhKQ,kjJBg211NqRO5Eqb-tXDAQ
53,Rosa's Thai Cafe,Thai,2.5,££,6 Theberton Street,51.537693,-0.1031679,https://www.yelp.com/biz/rosas-thai-cafe-london-5?adjust_creative=-uBzzloii2ivvF3N0jkhKQ&utm_campaign=yelp_api_v3&utm_medium=api_v3_business_search&utm_source=-uBzzloii2ivvF3N0jkhKQ,B2mzOEBOv1_zhcY2CUwXqw
54,Thai Rice,Thai,3.5,££,303 Portobello Road,51.519225,-0.207811,https://www.yelp.com/biz/thai-rice-london?adjust_creative=-uBzzloii2ivvF3N0jkhKQ&utm_campaign=yelp_api_v3&utm_medium=api_v3_business_search&utm_source=-uBzzloii2ivvF3N0jkhKQ,BcxldfRWeDGcbK5pJFFjWQ
55,Thai Thai,Thai,3.0,££,110 Old Street,51.524757,-0.0931828,https://www.yelp.com/biz/thai-thai-london-5?adjust_creative=-uBzzloii2ivvF3N0jkhKQ&utm_campaign=yelp_api_v3&utm_medium=api_v3_business_search&utm_source=-uBzzloii2ivvF3N0jkhKQ,NNV3-4xa6hep3UleEvbiUw
56,Yupa's Thai Kitchen,Thai,4.0,££,309-317 Chiswick High Road,51.4927242,-0.2687432,https://www.yelp.com/biz/yupas-thai-kitchen-london?adjust_creative=-uBzzloii2ivvF3N0jkhKQ&utm_campaign=yelp_api_v3&utm_medium=api_v3_business_search&utm_source=-uBzzloii2ivvF3N0jkhKQ,hssvDoOZvORBysrG7KR_3g
57,Suksan,Thai,4.5,£££,7 Park Walk,51.486026763916,-0.179845005273819,https://www.yelp.com/biz/suksan-london?adjust_creative=-uBzzloii2ivvF3N0jkhKQ&utm_campaign=yelp_api_v3&utm_medium=api_v3_business_search&utm_source=-uBzzloii2ivvF3N0jkhKQ,TCpTdM9aAF2J768pwK04nQ
58,Mae Ping Thai Restaurant,Thai,4.5,££,16-18 South End,51.366705,-0.0991672,https://www.yelp.com/biz/mae-ping-thai-restaurant-london?adjust_creative=-uBzzloii2ivvF3N0jkhKQ&utm_campaign=yelp_api_v3&utm_medium=api_v3_business_search&utm_source=-uBzzloii2ivvF3N0jkhKQ,GkYCneEaklv2TUkr-GDePA
59,Siam Secret,Thai,3.5,££,5 Hogarth Pl,51.4927268552098,-0.193134987094687,https://www.yelp.com/biz/siam-secret-london?adjust_creative=-uBzzloii2ivvF3N0jkhKQ&utm_campaign=yelp_api_v3&utm_medium=api_v3_business_search&utm_source=-uBzzloii2ivvF3N0jkhKQ,urztwKgVZD-G6NgXZJVYPQ
60,Chada Chada,Thai,4.0,££,17-18 Picton Place,51.515303,-0.150963,https://www.yelp.com/biz/chada-chada-london?adjust_creative=-uBzzloii2ivvF3N0jkhKQ&utm_campaign=yelp_api_v3&utm_medium=api_v3_business_search&utm_source=-uBzzloii2ivvF3N0jkhKQ,x8936b8UceEIXqk7GmhSfg
61,Tumnan Thai,Thai,4.0,££,163 Lavender Hill,51.4648202,-0.1588544,https://www.yelp.com/biz/tumnan-thai-london?adjust_creative=-uBzzloii2ivvF3N0jkhKQ&utm_campaign=yelp_api_v3&utm_medium=api_v3_business_search&utm_source=-uBzzloii2ivvF3N0jkhKQ,G0WWKDLSEfGAQh0HiMc5Og
62,Thai Dining,Thai,,,51 Nork Way,51.3266743,-0.2152006,,
63,Thai Tho,Thai,4.0,£££,20 High Street,51.4249895951506,-0.216998009213285,https://www.yelp.com/biz/thai-tho-london?adjust_creative=-uBzzloii2ivvF3N0jkhKQ&utm_campaign=yelp_api_v3&utm_medium=api_v3_business_search&utm_source=-uBzzloii2ivvF3N0jkhKQ,ZyEYhbmkg7Q0WqhJiYTX4A
64,Thai Lemon Restaurant,Thai,,,91 Field End Road,51.580195,-0.39955,,
65,Nid Ting,Thai,4.0,££,533 Holloway Road,51.562059,-0.126315,https://www.yelp.com/biz/nid-ting-london?adjust_creative=-uBzzloii2ivvF3N0jkhKQ&utm_campaign=yelp_api_v3&utm_medium=api_v3_business_search&utm_source=-uBzzloii2ivvF3N0jkhKQ,bf3ilWtEhCr_oC1nDwV7Vg
66,Hard Wok Cafe,Thai,4.5,£,19 The Arcade,51.517186746189,-0.082547968219952,https://www.yelp.com/biz/hard-wok-cafe-london-2?adjust_creative=-uBzzloii2ivvF3N0jkhKQ&utm_campaign=yelp_api_v3&utm_medium=api_v3_business_search&utm_source=-uBzzloii2ivvF3N0jkhKQ,SxonE3GM7Z7apUH1dMzwjg
67,Papaya Tree,Thai,3.5,££,209 Kensington High Street,51.4996594,-0.1965336,https://www.yelp.com/biz/papaya-tree-london?adjust_creative=-uBzzloii2ivvF3N0jkhKQ&utm_campaign=yelp_api_v3&utm_medium=api_v3_business_search&utm_source=-uBzzloii2ivvF3N0jkhKQ,xLWAII5wZXWAi2Krtg7_Uw
68,Pad Thai,Thai,4.0,££,87 Ballards Lane,51.6039738,-0.1900716,https://www.yelp.com/biz/pad-thai-london-3?adjust_creative=-uBzzloii2ivvF3N0jkhKQ&utm_campaign=yelp_api_v3&utm_medium=api_v3_business_search&utm_source=-uBzzloii2ivvF3N0jkhKQ,tz-drGctSXUu70YFEC3cWg
69,Thaiphoon Restaurant,Thai,,,72 East Barnet Road,51.649422,-0.170937,,
70,Thai Square,Thai,3.0,££,19 Exhibition Road,51.4952231393807,-0.173663543482434,https://www.yelp.com/biz/thai-square-london-33?adjust_creative=-uBzzloii2ivvF3N0jkhKQ&utm_campaign=yelp_api_v3&utm_medium=api_v3_business_search&utm_source=-uBzzloii2ivvF3N0jkhKQ,PGGEVe7kLg27LcUXOI8RVQ
71,Tepa Restaurant,Thai,5.0,£,118 High Road Leyton,51.5542873,-0.0051401,https://www.yelp.com/biz/tepa-restaurant-london?adjust_creative=-uBzzloii2ivvF3N0jkhKQ&utm_campaign=yelp_api_v3&utm_medium=api_v3_business_search&utm_source=-uBzzloii2ivvF3N0jkhKQ,uTslb5bkv7NbHL2CdNsnJQ
72,The Thai Garden,Thai,5.0,£££,72 East Barnet Road,51.6494129,-0.1709252,https://www.yelp.com/biz/the-thai-garden-london?adjust_creative=-uBzzloii2ivvF3N0jkhKQ&utm_campaign=yelp_api_v3&utm_medium=api_v3_business_search&utm_source=-uBzzloii2ivvF3N0jkhKQ,b3TScuz1b953ydttQWldyg
73,Ye Grapes,Thai,3.5,££,16 Shepherd Market,51.506669,-0.146341,https://www.yelp.com/biz/ye-grapes-london-2?adjust_creative=-uBzzloii2ivvF3N0jkhKQ&utm_campaign=yelp_api_v3&utm_medium=api_v3_business_search&utm_source=-uBzzloii2ivvF3N0jkhKQ,uxEQ6cgf1qsts2xfPijgxg
74,Pimlico Thai,Thai,4.5,££,22 Charlwood Street,51.4908488,-0.1375721,https://www.yelp.com/biz/pimlico-thai-london?adjust_creative=-uBzzloii2ivvF3N0jkhKQ&utm_campaign=yelp_api_v3&utm_medium=api_v3_business_search&utm_source=-uBzzloii2ivvF3N0jkhKQ,gZSutYbAEm4-sPz13VUh9Q
75,Busaba Oxford Circus,Thai,4.0,££,52-53 Eastcastle Street,51.5164517,-0.1383191,https://www.yelp.com/biz/busaba-oxford-circus-london?adjust_creative=-uBzzloii2ivvF3N0jkhKQ&utm_campaign=yelp_api_v3&utm_medium=api_v3_business_search&utm_source=-uBzzloii2ivvF3N0jkhKQ,2Skn1OPALuWpPQgIiE_Kuw
76,Thai Square,Thai,3.5,££,148 The Strand,51.511482,-0.118245,https://www.yelp.com/biz/thai-square-london-38?adjust_creative=-uBzzloii2ivvF3N0jkhKQ&utm_campaign=yelp_api_v3&utm_medium=api_v3_business_search&utm_source=-uBzzloii2ivvF3N0jkhKQ,XnWEjbmXwlo9MUVWgz9gcQ
77,Yum Yum,Thai,3.5,££,187 Stoke Newington High Street,51.562484,-0.074157,https://www.yelp.com/biz/yum-yum-london-3?adjust_creative=-uBzzloii2ivvF3N0jkhKQ&utm_campaign=yelp_api_v3&utm_medium=api_v3_business_search&utm_source=-uBzzloii2ivvF3N0jkhKQ,8cbUrNDEfgzXlEDkoON4TA
78,Thai Secret,Thai,,,6 Plender Street,51.53622,-0.13907,,
79,Suda,Thai,3.0,££,5A Berners Street,51.5164873,-0.1360988,https://www.yelp.com/biz/suda-london-4?adjust_creative=-uBzzloii2ivvF3N0jkhKQ&utm_campaign=yelp_api_v3&utm_medium=api_v3_business_search&utm_source=-uBzzloii2ivvF3N0jkhKQ,IqpMAFdbs2G2uCw5Ccpx8A
80,Rama Thai Restaurant,Thai,4.0,££,208 Mile End Road,51.521408,-0.047722,https://www.yelp.com/biz/rama-thai-restaurant-london?adjust_creative=-uBzzloii2ivvF3N0jkhKQ&utm_campaign=yelp_api_v3&utm_medium=api_v3_business_search&utm_source=-uBzzloii2ivvF3N0jkhKQ,oeHh8tDTQsx58e47hr9mGA
81,GRABTHAI,Thai,,,148 Fleet Street,51.5142883565888,-0.107461102492794,,
82,Tao Buffet,Thai,,,40 Great Windmill Street,51.511227,-0.134353,,
83,Nuwa,Thai,,,59 Park Road,51.5260326,-0.1618644,,
84,Pad Thai Story,Thai,,,543 Old York Road,51.45965,-0.18937,,
85,Elephant de Siam - Thai English Kitchen,Thai,3.0,£,The Elephant and Castle,51.4953482906164,-0.0996405674606174,https://www.yelp.com/biz/elephant-de-siam-thai-english-kitchen-london?adjust_creative=-uBzzloii2ivvF3N0jkhKQ&utm_campaign=yelp_api_v3&utm_medium=api_v3_business_search&utm_source=-uBzzloii2ivvF3N0jkhKQ,3bFCEk_gagjDiiu0Damrow
86,Elephant Royale,Thai,4.0,£££,Locks Wharf St Davids Square,51.4860973465375,-0.0139042199706791,https://www.yelp.com/biz/elephant-royale-london?adjust_creative=-uBzzloii2ivvF3N0jkhKQ&utm_campaign=yelp_api_v3&utm_medium=api_v3_business_search&utm_source=-uBzzloii2ivvF3N0jkhKQ,smkyuQsXe-12URax61edmw
87,The Mango Tree,Thai,3.5,£££,46 Grosvenor Place,51.498517,-0.147766,https://www.yelp.com/biz/the-mango-tree-london-2?adjust_creative=-uBzzloii2ivvF3N0jkhKQ&utm_campaign=yelp_api_v3&utm_medium=api_v3_business_search&utm_source=-uBzzloii2ivvF3N0jkhKQ,pK6KW9tk06bp8gc8ug3K7Q
88,The Pepper Tree,Thai,3.5,£,19 Clapham Common South Side,51.460883,-0.138667,https://www.yelp.com/biz/the-pepper-tree-london?adjust_creative=-uBzzloii2ivvF3N0jkhKQ&utm_campaign=yelp_api_v3&utm_medium=api_v3_business_search&utm_source=-uBzzloii2ivvF3N0jkhKQ,CB0fHk7mHMpDVvFbWKsFZg
89,Thai & Co,Thai,4.0,££,826 High Road,51.617338106627,-0.176588594913483,https://www.yelp.com/biz/thai-and-co-london?adjust_creative=-uBzzloii2ivvF3N0jkhKQ&utm_campaign=yelp_api_v3&utm_medium=api_v3_business_search&utm_source=-uBzzloii2ivvF3N0jkhKQ,-E3rt6OTdxHGBcnZ55XRhQ
90,Laicram Thai Restaurant,Thai,4.0,££,1 Blackheath Grove,51.465993375381,0.0094029515073051,https://www.yelp.com/biz/laicram-thai-restaurant-london?adjust_creative=-uBzzloii2ivvF3N0jkhKQ&utm_campaign=yelp_api_v3&utm_medium=api_v3_business_search&utm_source=-uBzzloii2ivvF3N0jkhKQ,B_Ms84nNPUGa1yBukovEmQ
91,Cafe Amaranth,Thai,4.0,££,346-348 Garratt Lane,51.4424053905787,-0.188576364050219,https://www.yelp.com/biz/cafe-amaranth-london?adjust_creative=-uBzzloii2ivvF3N0jkhKQ&utm_campaign=yelp_api_v3&utm_medium=api_v3_business_search&utm_source=-uBzzloii2ivvF3N0jkhKQ,X12CInJssZw1oGOL7hCdRg
92,Hug Thai Kitchen,Thai,,,The Windsor Castle,51.5934786425265,-0.170659626982413,,
93,Thai Aubergine,Thai,3.5,££,109 King's Cross Road,51.5285963,-0.1158945,https://www.yelp.com/biz/thai-aubergine-london?adjust_creative=-uBzzloii2ivvF3N0jkhKQ&utm_campaign=yelp_api_v3&utm_medium=api_v3_business_search&utm_source=-uBzzloii2ivvF3N0jkhKQ,2s_jWOAdgpDR5SzYah27iA
94,Thai Girder,Thai,4.5,££,36 Replingham Road,51.4448384,-0.2042917,https://www.yelp.com/biz/thai-girder-london?adjust_creative=-uBzzloii2ivvF3N0jkhKQ&utm_campaign=yelp_api_v3&utm_medium=api_v3_business_search&utm_source=-uBzzloii2ivvF3N0jkhKQ,S8XOd3QxBjQVin1m1Dcp4g
95,Silom Village Thai Restaurant,Thai,4.0,££,57 The Mall,51.514097074261,-0.30051412578547,https://www.yelp.com/biz/silom-village-thai-restaurant-london?adjust_creative=-uBzzloii2ivvF3N0jkhKQ&utm_campaign=yelp_api_v3&utm_medium=api_v3_business_search&utm_source=-uBzzloii2ivvF3N0jkhKQ,RZn0J2sjLfeo15QY_xN7ag
96,Lux Thai,Thai,,,201 Lordship Lane,51.454929,-0.076743,,
97,Rosa's Soho,Thai,3.5,££,48 Dean Street,51.5127677,-0.131864,https://www.yelp.com/biz/rosas-soho-london-2?adjust_creative=-uBzzloii2ivvF3N0jkhKQ&utm_campaign=yelp_api_v3&utm_medium=api_v3_business_search&utm_source=-uBzzloii2ivvF3N0jkhKQ,9Er41BeKlJhUycRqOF_OaA
98,Horapha Thai Cuisine,Thai,3.0,££,82 Queensway,51.5129023988653,-0.187432765960693,https://www.yelp.com/biz/horapha-thai-cuisine-london?adjust_creative=-uBzzloii2ivvF3N0jkhKQ&utm_campaign=yelp_api_v3&utm_medium=api_v3_business_search&utm_source=-uBzzloii2ivvF3N0jkhKQ,58dSgA8yi-s4iq3zrJfddg
99,Thai Square,Thai,4.0,££,229-230 Strand,51.513472,-0.112225,https://www.yelp.com/biz/thai-square-london-31?adjust_creative=-uBzzloii2ivvF3N0jkhKQ&utm_campaign=yelp_api_v3&utm_medium=api_v3_business_search&utm_source=-uBzzloii2ivvF3N0jkhKQ,XjFz0WwgFxCqjovtwtMRHg
100,Thai Delight,Thai,,,158 Maple Road,51.4146538,-0.0551453,,
101,Lombok Thai,Thai,4.5,££,17 Half Moon Lane,51.453111,-0.10015,https://www.yelp.com/biz/lombok-thai-london?adjust_creative=-uBzzloii2ivvF3N0jkhKQ&utm_campaign=yelp_api_v3&utm_medium=api_v3_business_search&utm_source=-uBzzloii2ivvF3N0jkhKQ,GPqMUF0iz5moo6-dpHnpXQ
102,Thai Garden,Thai,3.0,£,58 Battersea Rise,51.461014,-0.165811,https://www.yelp.com/biz/thai-garden-london-4?adjust_creative=-uBzzloii2ivvF3N0jkhKQ&utm_campaign=yelp_api_v3&utm_medium=api_v3_business_search&utm_source=-uBzzloii2ivvF3N0jkhKQ,X-rMzgehKuKp8p4_vdBzwA
103,Thai Garden,Thai,3.5,££,562 Commercial Road,51.5126476,-0.0406604,https://www.yelp.com/biz/thai-garden-london-3?adjust_creative=-uBzzloii2ivvF3N0jkhKQ&utm_campaign=yelp_api_v3&utm_medium=api_v3_business_search&utm_source=-uBzzloii2ivvF3N0jkhKQ,u5Ro4tnMubre72vYW6EamQ
104,Hi Bangkok Thai Cuisine,Thai,4.5,££,132 Kingston Road,51.4148865,-0.2001259,https://www.yelp.com/biz/hi-bangkok-thai-cuisine-london?adjust_creative=-uBzzloii2ivvF3N0jkhKQ&utm_campaign=yelp_api_v3&utm_medium=api_v3_business_search&utm_source=-uBzzloii2ivvF3N0jkhKQ,uxKy1uQ8-XRRlxToTgPcZA
105,Greyhound Cafe,Thai,,,37 Berners street,51.518435722489,-0.137752593021858,,
106,Busaba Soho,Thai,4.0,££,106-110 Wardour Street,51.5137892,-0.134057824536853,https://www.yelp.com/biz/busaba-soho-soho?adjust_creative=-uBzzloii2ivvF3N0jkhKQ&utm_campaign=yelp_api_v3&utm_medium=api_v3_business_search&utm_source=-uBzzloii2ivvF3N0jkhKQ,meL2itEXPTDVyscFrsc7Uw
107,Kaosarn,Thai,4.0,££,110 St John's Hill,51.4605446,-0.1765833,https://www.yelp.com/biz/kaosarn-london-2?adjust_creative=-uBzzloii2ivvF3N0jkhKQ&utm_campaign=yelp_api_v3&utm_medium=api_v3_business_search&utm_source=-uBzzloii2ivvF3N0jkhKQ,MSotW3dawDoYicJRwGTYWg
108,Mama Thai,Thai,4.5,£,10 Toynbee Street,51.51812,-0.0746449,https://www.yelp.com/biz/mama-thai-london?adjust_creative=-uBzzloii2ivvF3N0jkhKQ&utm_campaign=yelp_api_v3&utm_medium=api_v3_business_search&utm_source=-uBzzloii2ivvF3N0jkhKQ,v51bKBDROHR2J_IaVCXzag
109,Thailand,Thai,4.5,££,15 Lewisham Way,51.475312,-0.03532,https://www.yelp.com/biz/thailand-london?adjust_creative=-uBzzloii2ivvF3N0jkhKQ&utm_campaign=yelp_api_v3&utm_medium=api_v3_business_search&utm_source=-uBzzloii2ivvF3N0jkhKQ,wKx-gz0Ypb5IbsLG2jgU_w
110,Thai Metro,Thai,4.0,££,38 Charlotte Street,51.5192248913707,-0.135347451122129,https://www.yelp.com/biz/thai-metro-london?adjust_creative=-uBzzloii2ivvF3N0jkhKQ&utm_campaign=yelp_api_v3&utm_medium=api_v3_business_search&utm_source=-uBzzloii2ivvF3N0jkhKQ,o915KHn52rJx0LhTncBkWQ
111,Chayada Thai Cuisine,Thai,4.0,££,103 Boundary Road,51.5370827,-0.1852794,https://www.yelp.com/biz/chayada-thai-cuisine-london?adjust_creative=-uBzzloii2ivvF3N0jkhKQ&utm_campaign=yelp_api_v3&utm_medium=api_v3_business_search&utm_source=-uBzzloii2ivvF3N0jkhKQ,bjNSZolWOjTtvazupzr3iw
112,bangkok room,Thai,,,,51.581228,-0.19843,,
113,Nipa,Thai,4.0,£££,Lancaster Terrace,51.512204,-0.175343,https://www.yelp.com/biz/nipa-london?adjust_creative=-uBzzloii2ivvF3N0jkhKQ&utm_campaign=yelp_api_v3&utm_medium=api_v3_business_search&utm_source=-uBzzloii2ivvF3N0jkhKQ,qrMbotEx3TzFSFllp_Tktw
114,Thai Cafe,Thai,4.5,£,3 Northwold Road,51.563318,-0.0724938,https://www.yelp.com/biz/thai-cafe-london-2?adjust_creative=-uBzzloii2ivvF3N0jkhKQ&utm_campaign=yelp_api_v3&utm_medium=api_v3_business_search&utm_source=-uBzzloii2ivvF3N0jkhKQ,UxEEDfBcBzcNM1p6A1iwoA
115,Thai West,Thai,4.5,£,87 Brewer St,51.5107031,-0.1369454,https://www.yelp.com/biz/thai-west-london?adjust_creative=-uBzzloii2ivvF3N0jkhKQ&utm_campaign=yelp_api_v3&utm_medium=api_v3_business_search&utm_source=-uBzzloii2ivvF3N0jkhKQ,unRsVUI3Pe-9289i_u4Cmg
116,Tip Top Thai Restaurant,Thai,4.0,££,77 Heath Street,51.5573582,-0.1784825,https://www.yelp.com/biz/tip-top-thai-restaurant-london?adjust_creative=-uBzzloii2ivvF3N0jkhKQ&utm_campaign=yelp_api_v3&utm_medium=api_v3_business_search&utm_source=-uBzzloii2ivvF3N0jkhKQ,gBE6RfAwgYmXGd69Qd_E6A
117,Supawan,Thai,,,38 Caledonian Road,51.5320040870293,-0.120509205646773,,
118,Spicy Basil,Thai,4.0,£,165 Kilburn High Road,51.540921872618,-0.19696724848117,https://www.yelp.com/biz/spicy-basil-london?adjust_creative=-uBzzloii2ivvF3N0jkhKQ&utm_campaign=yelp_api_v3&utm_medium=api_v3_business_search&utm_source=-uBzzloii2ivvF3N0jkhKQ,zShSPD8lE2Kr_TGe5hOQFQ
119,Addie's Thai Cafe,Thai,4.0,££,121 Earl's Court Road,51.493824,-0.194675,https://www.yelp.com/biz/addies-thai-cafe-london?adjust_creative=-uBzzloii2ivvF3N0jkhKQ&utm_campaign=yelp_api_v3&utm_medium=api_v3_business_search&utm_source=-uBzzloii2ivvF3N0jkhKQ,l_Y75MzPOr1-PxuJw0JdWg
120,Thai Kitchen Restaurant,Thai,5.0,£,108 Chepstow Road,51.5189,-0.196278,https://www.yelp.com/biz/thai-kitchen-restaurant-london-2?adjust_creative=-uBzzloii2ivvF3N0jkhKQ&utm_campaign=yelp_api_v3&utm_medium=api_v3_business_search&utm_source=-uBzzloii2ivvF3N0jkhKQ,AYIJ76awaZddVDw_yTzeQQ
121,Somboon Thai Food,Thai,,,Unit 01-02,51.4963471915971,-0.127716064453125,,
122,Patara Restaurant,Thai,5.0,£££,82 Hampstead High Street,51.555481,-0.176266,https://www.yelp.com/biz/patara-restaurant-london-2?adjust_creative=-uBzzloii2ivvF3N0jkhKQ&utm_campaign=yelp_api_v3&utm_medium=api_v3_business_search&utm_source=-uBzzloii2ivvF3N0jkhKQ,OA6AmZttd8F-R2ZzDn_SQQ
123,Thai House,Thai,4.0,£,36 Strutton Ground,51.4966945374309,-0.133833153963212,https://www.yelp.com/biz/thai-house-westminster-2?adjust_creative=-uBzzloii2ivvF3N0jkhKQ&utm_campaign=yelp_api_v3&utm_medium=api_v3_business_search&utm_source=-uBzzloii2ivvF3N0jkhKQ,3Pg3xayQEDcxVFuHnL2B7w
124,Patara,Thai,4.0,£££,7 Maddox Street,51.5133650874508,-0.141590774592026,https://www.yelp.com/biz/patara-london-7?adjust_creative=-uBzzloii2ivvF3N0jkhKQ&utm_campaign=yelp_api_v3&utm_medium=api_v3_business_search&utm_source=-uBzzloii2ivvF3N0jkhKQ,cCT_Bvdq1YfC09WFuSVu4w
125,Patara,Thai,4.0,£££,9 Beauchamp Place,51.4979443,-0.1651785,https://www.yelp.com/biz/patara-london-4?adjust_creative=-uBzzloii2ivvF3N0jkhKQ&utm_campaign=yelp_api_v3&utm_medium=api_v3_business_search&utm_source=-uBzzloii2ivvF3N0jkhKQ,fsS_ub6C01p1PJSr7ie1_w
126,Baan Thai,Thai,5.0,£,18 Fortess Road,51.5522678661211,-0.140918908789764,https://www.yelp.com/biz/baan-thai-london-2?adjust_creative=-uBzzloii2ivvF3N0jkhKQ&utm_campaign=yelp_api_v3&utm_medium=api_v3_business_search&utm_source=-uBzzloii2ivvF3N0jkhKQ,JTvo77-gYl9odBPyR6r-eA
127,Rosa's Carnaby,Thai,4.0,££,23a Ganton Street,51.5128868006771,-0.139143206082167,https://www.yelp.com/biz/rosas-carnaby-london-4?adjust_creative=-uBzzloii2ivvF3N0jkhKQ&utm_campaign=yelp_api_v3&utm_medium=api_v3_business_search&utm_source=-uBzzloii2ivvF3N0jkhKQ,xTxsDcb6MSPgQL0Qbs4FeA
128,Nha-Mor,Thai,,,45 Crispin Street,51.5189303,-0.0764962,,
129,Rosa's Thai Cafe,Thai,,,26 Earlham St,51.5136433,-0.1273792,,
130,Khanom Krok,Thai,4.5,£,The Borough Market Kitchen,51.505345,-0.090572,https://www.yelp.com/biz/khanom-krok-london?adjust_creative=-uBzzloii2ivvF3N0jkhKQ&utm_campaign=yelp_api_v3&utm_medium=api_v3_business_search&utm_source=-uBzzloii2ivvF3N0jkhKQ,z4og4KQJste5p8kLkAxvog
131,Thai Square,Thai,,,27-28 St Annes Court,51.51458821922,-0.133502061371243,,
132,Sri Suwoon,Thai,4.5,££,44 Hugh Street,51.4916568,-0.1464784,https://www.yelp.com/biz/sri-suwoon-london?adjust_creative=-uBzzloii2ivvF3N0jkhKQ&utm_campaign=yelp_api_v3&utm_medium=api_v3_business_search&utm_source=-uBzzloii2ivvF3N0jkhKQ,T6UcxA31EvNbbwfx1YIC1A
133,Patara,Thai,4.0,£££,15 Greek Street,51.5141961,-0.1307571,https://www.yelp.com/biz/patara-london?adjust_creative=-uBzzloii2ivvF3N0jkhKQ&utm_campaign=yelp_api_v3&utm_medium=api_v3_business_search&utm_source=-uBzzloii2ivvF3N0jkhKQ,36rz4hKUsK3DvXEy69k-Gg
134,Thai Cottage,Thai,4.0,£,34 D'Arblay Street,51.51475,-0.135333,https://www.yelp.com/biz/thai-cottage-london?adjust_creative=-uBzzloii2ivvF3N0jkhKQ&utm_campaign=yelp_api_v3&utm_medium=api_v3_business_search&utm_source=-uBzzloii2ivvF3N0jkhKQ,Ff_NPeVQrM9NAWkROYRA6w
135,Kin + Deum,Thai,,,2 Crucifix Ln,51.502272,-0.0822258,,
136,Taste Of Siam,Thai,4.0,££,45 Camden High Street,51.5356196,-0.1397889,https://www.yelp.com/biz/taste-of-siam-london?adjust_creative=-uBzzloii2ivvF3N0jkhKQ&utm_campaign=yelp_api_v3&utm_medium=api_v3_business_search&utm_source=-uBzzloii2ivvF3N0jkhKQ,O4ctkL-NSlNSD-m3ikDllQ
137,Monkey & Me,Thai,4.0,££,114 Crawford Street,51.519706,-0.159375,https://www.yelp.com/biz/monkey-and-me-london?adjust_creative=-uBzzloii2ivvF3N0jkhKQ&utm_campaign=yelp_api_v3&utm_medium=api_v3_business_search&utm_source=-uBzzloii2ivvF3N0jkhKQ,BZGJNmq90Y9WVnWjDkQEdw
138,Smoking Goat,Thai,4.0,££,64 Shoreditch High Street,51.5244388,-0.0770751,https://www.yelp.com/biz/smoking-goat-london-3?adjust_creative=-uBzzloii2ivvF3N0jkhKQ&utm_campaign=yelp_api_v3&utm_medium=api_v3_business_search&utm_source=-uBzzloii2ivvF3N0jkhKQ,FARHtLxnUltgm0huJi2Y8A
139,Eat Aroi Thai,Thai,4.5,££,100 N End Road,51.4894524,-0.2063062,https://www.yelp.com/biz/eat-aroi-thai-london?adjust_creative=-uBzzloii2ivvF3N0jkhKQ&utm_campaign=yelp_api_v3&utm_medium=api_v3_business_search&utm_source=-uBzzloii2ivvF3N0jkhKQ,XKbRX9a6ta_t8rB94-CaxQ
140,Siam Eatery,Thai,4.5,£,24 Wellington Street,51.5120216603011,-0.120094796436367,https://www.yelp.com/biz/siam-eatery-london?adjust_creative=-uBzzloii2ivvF3N0jkhKQ&utm_campaign=yelp_api_v3&utm_medium=api_v3_business_search&utm_source=-uBzzloii2ivvF3N0jkhKQ,Ut6Yq9cPOzfoCY_Dho10zQ
141,Som Saa,Thai,4.5,££,43A Commercial Street,51.517315,-0.073734,https://www.yelp.com/biz/som-saa-london-2?adjust_creative=-uBzzloii2ivvF3N0jkhKQ&utm_campaign=yelp_api_v3&utm_medium=api_v3_business_search&utm_source=-uBzzloii2ivvF3N0jkhKQ,RkIyyfxVVf9lNhUPO9NI2A
142,Thai Taste,Thai,4.0,££,130 Cromwell Road,51.4948249,-0.1869975,https://www.yelp.com/biz/thai-taste-london-2?adjust_creative=-uBzzloii2ivvF3N0jkhKQ&utm_campaign=yelp_api_v3&utm_medium=api_v3_business_search&utm_source=-uBzzloii2ivvF3N0jkhKQ,zAwhjWMSCLzuy11-3s0q-g
143,Busaba Leicester Square,Thai,4.0,££,35 Panton Street,51.5097116,-0.1314335,https://www.yelp.com/biz/busaba-leicester-square-london?adjust_creative=-uBzzloii2ivvF3N0jkhKQ&utm_campaign=yelp_api_v3&utm_medium=api_v3_business_search&utm_source=-uBzzloii2ivvF3N0jkhKQ,oqgJsKvcR4MblbIMxw_zYw
144,Ekachai King's Cross,Thai,,,Unit 2,51.5342531298525,-0.122200213372707,,
145,Siam Central,Thai,4.0,££,14 Charlotte Street,51.518488287029,-0.134537023404278,https://www.yelp.com/biz/siam-central-london?adjust_creative=-uBzzloii2ivvF3N0jkhKQ&utm_campaign=yelp_api_v3&utm_medium=api_v3_business_search&utm_source=-uBzzloii2ivvF3N0jkhKQ,cIUNqKiLAVaz6-Nsd6aLpA
146,Jasmine,Thai,4.5,££,16 Goldhawk Road,51.503077,-0.22448,https://www.yelp.com/biz/jasmine-london?adjust_creative=-uBzzloii2ivvF3N0jkhKQ&utm_campaign=yelp_api_v3&utm_medium=api_v3_business_search&utm_source=-uBzzloii2ivvF3N0jkhKQ,Z2EfoHwuXPW0ku-ZEVceXg
147,Rosa's Thai Cafe,Thai,4.0,££,25 Gillingham Street,51.4936975642565,-0.141516400361775,https://www.yelp.com/biz/rosas-thai-cafe-london-6?adjust_creative=-uBzzloii2ivvF3N0jkhKQ&utm_campaign=yelp_api_v3&utm_medium=api_v3_business_search&utm_source=-uBzzloii2ivvF3N0jkhKQ,iRGargcTLAdpZwwYv0D90A
148,Papaya,Thai,4.0,£,14 St Anne's Court,51.514231,-0.134374,https://www.yelp.com/biz/papaya-london?adjust_creative=-uBzzloii2ivvF3N0jkhKQ&utm_campaign=yelp_api_v3&utm_medium=api_v3_business_search&utm_source=-uBzzloii2ivvF3N0jkhKQ,l3philMY16I4nIxegEd8xw
149,The Little Thai,Thai,4.5,££,85b Fleet Road,51.5539892,-0.1648302,https://www.yelp.com/biz/the-little-thai-london?adjust_creative=-uBzzloii2ivvF3N0jkhKQ&utm_campaign=yelp_api_v3&utm_medium=api_v3_business_search&utm_source=-uBzzloii2ivvF3N0jkhKQ,Roz9k_86YXofoXlb8UkxOg
150,Tong Kanom Thai,Thai,4.0,£,833 Harrow Road,51.5325367,-0.2346581,https://www.yelp.com/biz/tong-kanom-thai-london?adjust_creative=-uBzzloii2ivvF3N0jkhKQ&utm_campaign=yelp_api_v3&utm_medium=api_v3_business_search&utm_source=-uBzzloii2ivvF3N0jkhKQ,bqb6GYwI-Wa1GK9_nIEr3A
151,Two Point,Thai,4.0,££,26 Crawford Street,51.519670258743,-0.16076945876885,https://www.yelp.com/biz/two-point-london?adjust_creative=-uBzzloii2ivvF3N0jkhKQ&utm_campaign=yelp_api_v3&utm_medium=api_v3_business_search&utm_source=-uBzzloii2ivvF3N0jkhKQ,rbOlPHMUVrXP0kPsfK_nKQ
152,Thai Silk,Thai,3.5,££,94-95 Joan Street,51.504178,-0.105565,https://www.yelp.com/biz/thai-silk-southwark-3?adjust_creative=-uBzzloii2ivvF3N0jkhKQ&utm_campaign=yelp_api_v3&utm_medium=api_v3_business_search&utm_source=-uBzzloii2ivvF3N0jkhKQ,7b3V8OARr702l2YzZ4oU1A
153,Somtam,Thai,5.0,£,131 Askew Road,51.5025012,-0.2427074,https://www.yelp.com/biz/somtam-london?adjust_creative=-uBzzloii2ivvF3N0jkhKQ&utm_campaign=yelp_api_v3&utm_medium=api_v3_business_search&utm_source=-uBzzloii2ivvF3N0jkhKQ,7p3R4RgwZiznR_Cp4wngKQ
154,Thai Street,Thai,,,17 Electric Parade George Lane,51.5949838,0.0231048,,
155,The King & I,Thai,4.5,££,41 Upper Elmers End Road,51.3980173,-0.0433026,https://www.yelp.com/biz/the-king-and-i-london?adjust_creative=-uBzzloii2ivvF3N0jkhKQ&utm_campaign=yelp_api_v3&utm_medium=api_v3_business_search&utm_source=-uBzzloii2ivvF3N0jkhKQ,4EkpJPZ-6_xS97nwSMmjPw
156,Baan Kati,Thai,,,155 Holloway Road,51.549583,-0.108682,,
157,Lemongrass London,Thai,,,53 Camberwell Road,51.4834494,-0.0941056,,
158,Rosa's Spitalfields,Thai,3.5,££,12 Hanbury Street,51.5202552,-0.0738213,https://www.yelp.com/biz/rosas-spitalfields-london-2?adjust_creative=-uBzzloii2ivvF3N0jkhKQ&utm_campaign=yelp_api_v3&utm_medium=api_v3_business_search&utm_source=-uBzzloii2ivvF3N0jkhKQ,Pz0Ib03hPHgTxWa7ynh9Iw
159,Thai Tho,Thai,3.0,££,42 Rupert Street,51.511446,-0.132846,https://www.yelp.com/biz/thai-tho-london-3?adjust_creative=-uBzzloii2ivvF3N0jkhKQ&utm_campaign=yelp_api_v3&utm_medium=api_v3_business_search&utm_source=-uBzzloii2ivvF3N0jkhKQ,wGN5ehOt41PC6XFzCk2wvg
160,Rusty Bike,Thai,4.5,££,142 Balls Pound Road,51.546692,-0.084641,https://www.yelp.com/biz/rusty-bike-london?adjust_creative=-uBzzloii2ivvF3N0jkhKQ&utm_campaign=yelp_api_v3&utm_medium=api_v3_business_search&utm_source=-uBzzloii2ivvF3N0jkhKQ,kipN5087ZfehXgddq9nfJA
161,Mortar + Pestle,Thai,4.5,££,59 Park Road,51.5258932,-0.1620451,https://www.yelp.com/biz/mortar-pestle-london?adjust_creative=-uBzzloii2ivvF3N0jkhKQ&utm_campaign=yelp_api_v3&utm_medium=api_v3_business_search&utm_source=-uBzzloii2ivvF3N0jkhKQ,X-JK7qTChGBmxNwb8NycxQ
162,Thai Cafe,Thai,4.0,££,22 Charlwood Street,51.4908488,-0.1375721,https://www.yelp.com/biz/thai-cafe-london?adjust_creative=-uBzzloii2ivvF3N0jkhKQ&utm_campaign=yelp_api_v3&utm_medium=api_v3_business_search&utm_source=-uBzzloii2ivvF3N0jkhKQ,XwlBftB44b0jAOo6rISHlA
163,Busaba St Christopher's Place,Thai,3.5,££,8-13 Bird Street,51.514649,-0.151059,https://www.yelp.com/biz/busaba-st-christophers-place-marylebone?adjust_creative=-uBzzloii2ivvF3N0jkhKQ&utm_campaign=yelp_api_v3&utm_medium=api_v3_business_search&utm_source=-uBzzloii2ivvF3N0jkhKQ,5stYjHDxiLkO1Hjq4gvLng
164,FAB thai street food,Thai,,,7 Paul Street,51.522602,-0.084658,,
165,Muang Thai,Thai,3.5,££,71 Chalk Farm Road,51.5434633,-0.150945,https://www.yelp.com/biz/muang-thai-london?adjust_creative=-uBzzloii2ivvF3N0jkhKQ&utm_campaign=yelp_api_v3&utm_medium=api_v3_business_search&utm_source=-uBzzloii2ivvF3N0jkhKQ,J2URRsPHCa4yPGcFmSUYUA
166,Talay Thai Restaurant,Thai,4.0,££,64 Streatham High Road,51.436627,-0.128093,https://www.yelp.com/biz/talay-thai-restaurant-london?adjust_creative=-uBzzloii2ivvF3N0jkhKQ&utm_campaign=yelp_api_v3&utm_medium=api_v3_business_search&utm_source=-uBzzloii2ivvF3N0jkhKQ,D2LDA_5rLRz_PSwR_VDzKg
167,Pantong Siam Restaurant,Thai,,,273 Upper Richmond Road,51.462804078838,-0.2261224829786,,
168,Poppy's,Thai,,,78 Glenthorne Road,51.4945157571821,-0.232052973099948,,
169,Thai Corner Cafe,Thai,4.5,££,44 N Cross Road,51.4577449,-0.073232,https://www.yelp.com/biz/thai-corner-cafe-london?adjust_creative=-uBzzloii2ivvF3N0jkhKQ&utm_campaign=yelp_api_v3&utm_medium=api_v3_business_search&utm_source=-uBzzloii2ivvF3N0jkhKQ,YTmRNPifkCp-Ls8Wy1OVvQ
170,Thai Room Restaurant,Thai,4.0,££,221 Grove Road,51.531962,-0.042124,https://www.yelp.com/biz/thai-room-restaurant-london?adjust_creative=-uBzzloii2ivvF3N0jkhKQ&utm_campaign=yelp_api_v3&utm_medium=api_v3_business_search&utm_source=-uBzzloii2ivvF3N0jkhKQ,rVp-5FNUHkfv7mWNPlWYtg
171,Krua by Nathong,Thai,4.0,££,56 Carter Lane,51.5132928,-0.101836,https://www.yelp.com/biz/krua-by-nathong-london?adjust_creative=-uBzzloii2ivvF3N0jkhKQ&utm_campaign=yelp_api_v3&utm_medium=api_v3_business_search&utm_source=-uBzzloii2ivvF3N0jkhKQ,pMlY16OUVJsbKVk9ybqqwg
172,Busaba Bloomsbury,Thai,3.5,££,22 Store Street,51.519587,-0.132778,https://www.yelp.com/biz/busaba-bloomsbury-bloomsbury?adjust_creative=-uBzzloii2ivvF3N0jkhKQ&utm_campaign=yelp_api_v3&utm_medium=api_v3_business_search&utm_source=-uBzzloii2ivvF3N0jkhKQ,Pc8BHyFWDBRoC2Vb-EAFhA
173,The Market Thai Restaurant,Thai,3.5,££,1st Floor 240 Portobello Road,51.5177381,-0.2062303,https://www.yelp.com/biz/the-market-thai-restaurant-london?adjust_creative=-uBzzloii2ivvF3N0jkhKQ&utm_campaign=yelp_api_v3&utm_medium=api_v3_business_search&utm_source=-uBzzloii2ivvF3N0jkhKQ,qW9JHT9IGFaG0F60HFe2Tw
174,Chaopraya Eat Thai,Thai,4.0,£££,22 St Christopher's Place,51.5155782,-0.1505427,https://www.yelp.com/biz/chaopraya-eat-thai-london?adjust_creative=-uBzzloii2ivvF3N0jkhKQ&utm_campaign=yelp_api_v3&utm_medium=api_v3_business_search&utm_source=-uBzzloii2ivvF3N0jkhKQ,wm5eJzD3qnY0ObXU_z4Bqg
175,Thai River Cafe & Restaurant,Thai,5.0,££,308 Latimer Road,51.518979,-0.225093,https://www.yelp.com/biz/thai-river-cafe-and-restaurant-london?adjust_creative=-uBzzloii2ivvF3N0jkhKQ&utm_campaign=yelp_api_v3&utm_medium=api_v3_business_search&utm_source=-uBzzloii2ivvF3N0jkhKQ,hOhOvzXvlY3PNsyszUVT8g
176,Pandan Leaf,Thai,4.5,££,66-68 Crouch End Hill,51.5771681,-0.1253051,https://www.yelp.com/biz/pandan-leaf-london-2?adjust_creative=-uBzzloii2ivvF3N0jkhKQ&utm_campaign=yelp_api_v3&utm_medium=api_v3_business_search&utm_source=-uBzzloii2ivvF3N0jkhKQ,B9wo7zdQq5hafuwBc2THkQ
177,Duke Thai,Thai,3.5,£,133-135 Westminster Bridge Road,51.4993768,-0.113762,https://www.yelp.com/biz/duke-thai-london?adjust_creative=-uBzzloii2ivvF3N0jkhKQ&utm_campaign=yelp_api_v3&utm_medium=api_v3_business_search&utm_source=-uBzzloii2ivvF3N0jkhKQ,LxEyS3NztNO_vVW8Gsp4yQ
178,Wok to Walk - Oxford St,Thai,4.5,£,15 Argyll Street,51.5151319864592,-0.141034647080711,https://www.yelp.com/biz/wok-to-walk-oxford-st-london?adjust_creative=-uBzzloii2ivvF3N0jkhKQ&utm_campaign=yelp_api_v3&utm_medium=api_v3_business_search&utm_source=-uBzzloii2ivvF3N0jkhKQ,ccQoTNlwneWz7mC4uy7lhg
179,Sukho Thai Cuisine,Thai,4.5,£££,855 Fulham Road,51.4744885,-0.2065325,https://www.yelp.com/biz/sukho-thai-cuisine-london-2?adjust_creative=-uBzzloii2ivvF3N0jkhKQ&utm_campaign=yelp_api_v3&utm_medium=api_v3_business_search&utm_source=-uBzzloii2ivvF3N0jkhKQ,S6NciUVQbAGuNygzYOHrmA
180,Kinkao,Thai,,,8-42 St Davids Square,51.4861296,-0.0139718,,
181,KaoSarn,Thai,4.0,££,Brixton Village Market,51.4621602551844,-0.111476624300519,https://www.yelp.com/biz/kaosarn-london-5?adjust_creative=-uBzzloii2ivvF3N0jkhKQ&utm_campaign=yelp_api_v3&utm_medium=api_v3_business_search&utm_source=-uBzzloii2ivvF3N0jkhKQ,rQU-7DLhDISNDDGTUDcLyQ
182,Chada Thai,Thai,5.0,£,208-210 Battersea Park Road,51.4733206804288,-0.161456422956121,https://www.yelp.com/biz/chada-thai-london-2?adjust_creative=-uBzzloii2ivvF3N0jkhKQ&utm_campaign=yelp_api_v3&utm_medium=api_v3_business_search&utm_source=-uBzzloii2ivvF3N0jkhKQ,PHZikMShM0AjnciNf_Gztw
183,The Great THAI,Thai,4.0,££,14 Riding House Street,51.518284341889,-0.141633711755276,https://www.yelp.com/biz/the-great-thai-london?adjust_creative=-uBzzloii2ivvF3N0jkhKQ&utm_campaign=yelp_api_v3&utm_medium=api_v3_business_search&utm_source=-uBzzloii2ivvF3N0jkhKQ,pmuJoOzeRcDG1wop03UOUQ
184,Fitous Thai Restaurant,Thai,4.0,£,1 Dalgarno Gardens,51.522057168085,-0.22659874816331,https://www.yelp.com/biz/fitous-thai-restaurant-london?adjust_creative=-uBzzloii2ivvF3N0jkhKQ&utm_campaign=yelp_api_v3&utm_medium=api_v3_business_search&utm_source=-uBzzloii2ivvF3N0jkhKQ,MhTjD-ikP48Uqe9LascWPg
185,Rabieng,Thai,4.0,££,143 Upper Street,51.539829,-0.102785,https://www.yelp.com/biz/rabieng-london?adjust_creative=-uBzzloii2ivvF3N0jkhKQ&utm_campaign=yelp_api_v3&utm_medium=api_v3_business_search&utm_source=-uBzzloii2ivvF3N0jkhKQ,3Y12LoljTigvwgjDSGjcRQ
186,Awesome Thai,Thai,4.5,££,68 Church Road,51.4748496803877,-0.24084468556145,https://www.yelp.com/biz/awesome-thai-london?adjust_creative=-uBzzloii2ivvF3N0jkhKQ&utm_campaign=yelp_api_v3&utm_medium=api_v3_business_search&utm_source=-uBzzloii2ivvF3N0jkhKQ,subKT47cda6tlMfUyS-OUw
187,101 Thai Kitchen,Thai,4.0,££,352 King Street,51.4936071,-0.2440391,https://www.yelp.com/biz/101-thai-kitchen-london?adjust_creative=-uBzzloii2ivvF3N0jkhKQ&utm_campaign=yelp_api_v3&utm_medium=api_v3_business_search&utm_source=-uBzzloii2ivvF3N0jkhKQ,4vNnh5EEXwrSvdeB89WGTg
188,Thai Square,Thai,4.0,££,1-7 Great St Thomas Apostle,51.5117941,-0.0935371,https://www.yelp.com/biz/thai-square-london-35?adjust_creative=-uBzzloii2ivvF3N0jkhKQ&utm_campaign=yelp_api_v3&utm_medium=api_v3_business_search&utm_source=-uBzzloii2ivvF3N0jkhKQ,3pF1ZkTVDBtSzmaLtWyAeg
189,Thai Square,Thai,3.5,££,21-24 Cockspur Street,51.5073252,-0.1299934,https://www.yelp.com/biz/thai-square-london-34?adjust_creative=-uBzzloii2ivvF3N0jkhKQ&utm_campaign=yelp_api_v3&utm_medium=api_v3_business_search&utm_source=-uBzzloii2ivvF3N0jkhKQ,TCeIS0w53YEA32uOaWz7cg
190,Thai Box,Thai,4.5,£,138 Lower Road,51.4928692714531,-0.0467839024618444,https://www.yelp.com/biz/thai-box-london?adjust_creative=-uBzzloii2ivvF3N0jkhKQ&utm_campaign=yelp_api_v3&utm_medium=api_v3_business_search&utm_source=-uBzzloii2ivvF3N0jkhKQ,jEyb6aVG2haG1eOtcxJIQQ
191,Isarn,Thai,4.0,££,119 Upper Street,51.5385356912623,-0.102698460113175,https://www.yelp.com/biz/isarn-london?adjust_creative=-uBzzloii2ivvF3N0jkhKQ&utm_campaign=yelp_api_v3&utm_medium=api_v3_business_search&utm_source=-uBzzloii2ivvF3N0jkhKQ,RumgtRTi78u1q79CjDU6gw
192,Cook Daily,Vegan,4.5,£,Arch 358,51.5378951454733,-0.0584027543663979,https://www.yelp.com/biz/cook-daily-london-2?adjust_creative=-uBzzloii2ivvF3N0jkhKQ&utm_campaign=yelp_api_v3&utm_medium=api_v3_business_search&utm_source=-uBzzloii2ivvF3N0jkhKQ,LqF2CjyQu0__v1ySNWJG8Q
193,Wok to Walk - Baker St,Vegetarian,4.0,£,129 Baker Street,51.5217592,-0.1576092,https://www.yelp.com/biz/wok-to-walk-baker-st-london-5?adjust_creative=-uBzzloii2ivvF3N0jkhKQ&utm_campaign=yelp_api_v3&utm_medium=api_v3_business_search&utm_source=-uBzzloii2ivvF3N0jkhKQ,HDGA2ANlmk8fA0OQJUqb0Q
194,The Little Viet Kitchen,Vietnamese,4.0,££,2 Chapel Market,51.533536,-0.110812,https://www.yelp.com/biz/the-little-viet-kitchen-angel-islington?adjust_creative=-uBzzloii2ivvF3N0jkhKQ&utm_campaign=yelp_api_v3&utm_medium=api_v3_business_search&utm_source=-uBzzloii2ivvF3N0jkhKQ,lfplA6C0xrJjgKpy5GZi2w
195,Bang Bang Canteen,Vietnamese,3.5,££,53 Warren Street,51.5241397,-0.1401607,https://www.yelp.com/biz/bang-bang-canteen-london-2?adjust_creative=-uBzzloii2ivvF3N0jkhKQ&utm_campaign=yelp_api_v3&utm_medium=api_v3_business_search&utm_source=-uBzzloii2ivvF3N0jkhKQ,bZ_trmVEHKmf3twdlCAJlQ
196,Phat Phuc Noodle Bar,Vietnamese,4.0,£,151 Sydney Street,51.48762124782,-0.16910415667953,https://www.yelp.com/biz/phat-phuc-noodle-bar-london?adjust_creative=-uBzzloii2ivvF3N0jkhKQ&utm_campaign=yelp_api_v3&utm_medium=api_v3_business_search&utm_source=-uBzzloii2ivvF3N0jkhKQ,zD3z55rsfr2c4bxYpjFVig
197,Ngon Ngon,Vietnamese,4.5,££,144 Clerkenwell Road,51.5221634,-0.1097323,https://www.yelp.com/biz/ngon-ngon-london?adjust_creative=-uBzzloii2ivvF3N0jkhKQ&utm_campaign=yelp_api_v3&utm_medium=api_v3_business_search&utm_source=-uBzzloii2ivvF3N0jkhKQ,E2GbtvuTVKo23qJeyqc82w
198,Mien Tay,Vietnamese,4.0,£,122 Kingsland Road,51.53052,-0.07708,https://www.yelp.com/biz/mien-tay-london?adjust_creative=-uBzzloii2ivvF3N0jkhKQ&utm_campaign=yelp_api_v3&utm_medium=api_v3_business_search&utm_source=-uBzzloii2ivvF3N0jkhKQ,bhJZrHMOqtDudM7thok72Q
199,Sen Viet,Vietnamese,4.0,££,119 King's Cross Road,51.529089,-0.1159522,https://www.yelp.com/biz/sen-viet-london?adjust_creative=-uBzzloii2ivvF3N0jkhKQ&utm_campaign=yelp_api_v3&utm_medium=api_v3_business_search&utm_source=-uBzzloii2ivvF3N0jkhKQ,5ctdM8Aiw1K9M6vZ2jUTeA
