,Restaurant,Type,Rating,Price,Address,Lat,Lng,url,ID
0,Hart's Restaurant,American (New),4.0,$$$,506 Franklin Ave,40.68146,-73.95589,https://www.yelp.com/biz/harts-restaurant-brooklyn-2?adjust_creative=-uBzzloii2ivvF3N0jkhKQ&utm_campaign=yelp_api_v3&utm_medium=api_v3_business_search&utm_source=-uBzzloii2ivvF3N0jkhKQ,zXCGF0XtqjOv1s4DUHOtqg
1,While We Were Young,American (New),4.0,$$,183 W 10th St,40.73437,-74.00272,https://www.yelp.com/biz/while-we-were-young-new-york?adjust_creative=-uBzzloii2ivvF3N0jkhKQ&utm_campaign=yelp_api_v3&utm_medium=api_v3_business_search&utm_source=-uBzzloii2ivvF3N0jkhKQ,YSflX6shqcP3zYno0Zz75Q
2,Electric Lemon,American (New),4.0,$$$,33 Hudson Yards,40.754553,-74.002057,https://www.yelp.com/biz/electric-lemon-new-york?adjust_creative=-uBzzloii2ivvF3N0jkhKQ&utm_campaign=yelp_api_v3&utm_medium=api_v3_business_search&utm_source=-uBzzloii2ivvF3N0jkhKQ,OBRYVNn2FRhVCCadoFepBQ
3,David Burke TImeout Market,American (New),,,55 Water St,40.7034191,-73.992147,,
4,Electric Lemon,American (New),4.0,$$$,33 Hudson Yards,40.754553,-74.002057,https://www.yelp.com/biz/electric-lemon-new-york?adjust_creative=-uBzzloii2ivvF3N0jkhKQ&utm_campaign=yelp_api_v3&utm_medium=api_v3_business_search&utm_source=-uBzzloii2ivvF3N0jkhKQ,OBRYVNn2FRhVCCadoFepBQ
5,Merchants River House,American (New),4.0,$$,375 S End Ave,40.7112882252543,-74.0176175854584,https://www.yelp.com/biz/merchants-river-house-new-york?adjust_creative=-uBzzloii2ivvF3N0jkhKQ&utm_campaign=yelp_api_v3&utm_medium=api_v3_business_search&utm_source=-uBzzloii2ivvF3N0jkhKQ,XAeGAF5MGr7P6A13SnXbjQ
6,Beauty & Essex,American (New),4.0,$$$,146 Essex St,40.720434786101286,-73.98686057623863,https://www.yelp.com/biz/beauty-and-essex-new-york-2?adjust_creative=-uBzzloii2ivvF3N0jkhKQ&utm_campaign=yelp_api_v3&utm_medium=api_v3_business_search&utm_source=-uBzzloii2ivvF3N0jkhKQ,pfmAcS-g6SiNG0KlLvrqnA
7,Madre,American (New),4.5,$$$,214 Franklin St,40.73311,-73.95798,https://www.yelp.com/biz/madre-brooklyn-2?adjust_creative=-uBzzloii2ivvF3N0jkhKQ&utm_campaign=yelp_api_v3&utm_medium=api_v3_business_search&utm_source=-uBzzloii2ivvF3N0jkhKQ,utM-5navObsVA5sCRHobzA
8,Malibu Farm,American (New),4.0,$$,89 S St,40.705925,-74.001749,https://www.yelp.com/biz/malibu-farm-new-york-2?adjust_creative=-uBzzloii2ivvF3N0jkhKQ&utm_campaign=yelp_api_v3&utm_medium=api_v3_business_search&utm_source=-uBzzloii2ivvF3N0jkhKQ,SWK0AQ5KTDDCt8AtOhhasg
9,The Wild Son,American (New),4.5,$$,132 First Ave,40.727424,-73.985201,https://www.yelp.com/biz/the-wild-son-new-york?adjust_creative=-uBzzloii2ivvF3N0jkhKQ&utm_campaign=yelp_api_v3&utm_medium=api_v3_business_search&utm_source=-uBzzloii2ivvF3N0jkhKQ,N5UY113nNpeKdLPv0cbMjQ
10,Atrium Dumbo,American (New),4.0,$$,15 Main St,40.7033899,-73.9904923,https://www.yelp.com/biz/atrium-dumbo-brooklyn?adjust_creative=-uBzzloii2ivvF3N0jkhKQ&utm_campaign=yelp_api_v3&utm_medium=api_v3_business_search&utm_source=-uBzzloii2ivvF3N0jkhKQ,hmdm-dO72hLsMQwQRcGEUQ
11,Sweetwater Restaurant,American (New),4.0,$$,105 N 6th St,40.7184736,-73.9600178,https://www.yelp.com/biz/sweetwater-restaurant-brooklyn-2?adjust_creative=-uBzzloii2ivvF3N0jkhKQ&utm_campaign=yelp_api_v3&utm_medium=api_v3_business_search&utm_source=-uBzzloii2ivvF3N0jkhKQ,8wMJdpw2R_4VfS55itB_gQ
12,Westville Dumbo,American (New),4.0,$$,81 Washington St,40.70208865020039,-73.9894541379247,https://www.yelp.com/biz/westville-dumbo-brooklyn?adjust_creative=-uBzzloii2ivvF3N0jkhKQ&utm_campaign=yelp_api_v3&utm_medium=api_v3_business_search&utm_source=-uBzzloii2ivvF3N0jkhKQ,56qlj1cYlqNzmG0xllGg-w
13,Traif,American (New),4.5,$$$$,229 S 4th St,40.710658,-73.958872,https://www.yelp.com/biz/traif-brooklyn?adjust_creative=-uBzzloii2ivvF3N0jkhKQ&utm_campaign=yelp_api_v3&utm_medium=api_v3_business_search&utm_source=-uBzzloii2ivvF3N0jkhKQ,qLLxS7RwNEjP_jq_KQrPfA
14,Esme,American (New),4.5,$$,999 Manhattan Ave,40.73322607409529,-73.95492695812946,https://www.yelp.com/biz/esme-brooklyn-2?adjust_creative=-uBzzloii2ivvF3N0jkhKQ&utm_campaign=yelp_api_v3&utm_medium=api_v3_business_search&utm_source=-uBzzloii2ivvF3N0jkhKQ,6gzQLjzJk25ePm_JS7ZAug
15,Momofuku Noodle Bar - Uptown,American (New),4.0,$$,10 Columbus Cir,40.76847,-73.983092,https://www.yelp.com/biz/momofuku-noodle-bar-uptown-new-york?adjust_creative=-uBzzloii2ivvF3N0jkhKQ&utm_campaign=yelp_api_v3&utm_medium=api_v3_business_search&utm_source=-uBzzloii2ivvF3N0jkhKQ,Pr-q47vsmM4aoc2t_Sfk8w
16,The Spaniard,American (New),4.0,$$,190 W 4th St,40.7327497,-74.0021829,https://www.yelp.com/biz/the-spaniard-new-york?adjust_creative=-uBzzloii2ivvF3N0jkhKQ&utm_campaign=yelp_api_v3&utm_medium=api_v3_business_search&utm_source=-uBzzloii2ivvF3N0jkhKQ,XO3yD87rTPz9o6Dy9qRaJg
17,The Leroy House,American (New),4.5,$$$,430 Hudson St,40.73063,-74.00661,https://www.yelp.com/biz/the-leroy-house-new-york-5?adjust_creative=-uBzzloii2ivvF3N0jkhKQ&utm_campaign=yelp_api_v3&utm_medium=api_v3_business_search&utm_source=-uBzzloii2ivvF3N0jkhKQ,AA9wpuJRhkSHUePAiv3otA
18,Otis,American (New),5.0,$$,18 Harrison Pl,40.706011,-73.932598,https://www.yelp.com/biz/otis-brooklyn-2?adjust_creative=-uBzzloii2ivvF3N0jkhKQ&utm_campaign=yelp_api_v3&utm_medium=api_v3_business_search&utm_source=-uBzzloii2ivvF3N0jkhKQ,RfxOtJ4SQmEeVX_XjFLWUQ
19,Boutros,American (New),4.5,$$$,185 Atlantic Ave,40.6901481293837,-73.9935445412993,https://www.yelp.com/biz/boutros-brooklyn?adjust_creative=-uBzzloii2ivvF3N0jkhKQ&utm_campaign=yelp_api_v3&utm_medium=api_v3_business_search&utm_source=-uBzzloii2ivvF3N0jkhKQ,6G0urbBDz_CnYnGXApgUcw
20,DumboLuv,American (New),,,54 Jay St,40.7032593,-73.9866501,,
21,The Osprey,American (New),4.0,$$,60 Furman St,40.702241,-73.995539,https://www.yelp.com/biz/the-osprey-brooklyn?adjust_creative=-uBzzloii2ivvF3N0jkhKQ&utm_campaign=yelp_api_v3&utm_medium=api_v3_business_search&utm_source=-uBzzloii2ivvF3N0jkhKQ,q11TljTQd33XCWlVoPyRqg
22,Olmsted,American (New),4.0,$$$,659 Vanderbilt Ave,40.67713,-73.96869,https://www.yelp.com/biz/olmsted-brooklyn?adjust_creative=-uBzzloii2ivvF3N0jkhKQ&utm_campaign=yelp_api_v3&utm_medium=api_v3_business_search&utm_source=-uBzzloii2ivvF3N0jkhKQ,Ulr_Nyp2nvt82EPH_BiftA
23,The River Café,American (New),4.0,$$$$,1 Water St,40.70318,-73.9946499,https://www.yelp.com/biz/the-river-caf%C3%A9-brooklyn-3?adjust_creative=-uBzzloii2ivvF3N0jkhKQ&utm_campaign=yelp_api_v3&utm_medium=api_v3_business_search&utm_source=-uBzzloii2ivvF3N0jkhKQ,4XX-zF8h5Lvrr22_tqU6-Q
24,The Cabin NYC,American (New),4.0,$$,205 E 4th St,40.72393,-73.98383,https://www.yelp.com/biz/the-cabin-nyc-new-york-2?adjust_creative=-uBzzloii2ivvF3N0jkhKQ&utm_campaign=yelp_api_v3&utm_medium=api_v3_business_search&utm_source=-uBzzloii2ivvF3N0jkhKQ,J3NT61-AH5d5Gu5tFJhYSw
25,Sunday in Brooklyn,American (New),4.0,$$,348 Wythe Ave,40.714145,-73.965322,https://www.yelp.com/biz/sunday-in-brooklyn-brooklyn-3?adjust_creative=-uBzzloii2ivvF3N0jkhKQ&utm_campaign=yelp_api_v3&utm_medium=api_v3_business_search&utm_source=-uBzzloii2ivvF3N0jkhKQ,9AXTJkwXdWaJaQkCjpj6mA
26,OTB,American (New),4.5,$$,141 Broadway,40.710484,-73.963408,https://www.yelp.com/biz/otb-brooklyn?adjust_creative=-uBzzloii2ivvF3N0jkhKQ&utm_campaign=yelp_api_v3&utm_medium=api_v3_business_search&utm_source=-uBzzloii2ivvF3N0jkhKQ,GpWXEpVyehmKP2WQsD_Y8g
27,Emily,American (Traditional),4.0,$$$,919 Fulton St,40.68351,-73.96643,https://www.yelp.com/biz/emily-brooklyn-2?adjust_creative=-uBzzloii2ivvF3N0jkhKQ&utm_campaign=yelp_api_v3&utm_medium=api_v3_business_search&utm_source=-uBzzloii2ivvF3N0jkhKQ,NDIrifAl6K-RrnZ2D3ZGbw
28,Red Hook Tavern,American (Traditional),,,329 Van Brunt St,40.67788,-74.01209,,
29,RH Rooftop Restaurant New York,American (Traditional),4.0,$$$,9 9th Ave,40.73985,-74.00639,https://www.yelp.com/biz/rh-rooftop-restaurant-new-york-new-york-2?adjust_creative=-uBzzloii2ivvF3N0jkhKQ&utm_campaign=yelp_api_v3&utm_medium=api_v3_business_search&utm_source=-uBzzloii2ivvF3N0jkhKQ,8SehQovJOuQDLbtzLLYLyw
30,Momofuku Ssam Bar,Asian Fusion,,,89 South St,40.705712,-74.001772,,
31,Wild Ink,Asian Fusion,4.0,$$$,500 W 33rd St,40.753754,-74.001388,https://www.yelp.com/biz/wild-ink-new-york?adjust_creative=-uBzzloii2ivvF3N0jkhKQ&utm_campaign=yelp_api_v3&utm_medium=api_v3_business_search&utm_source=-uBzzloii2ivvF3N0jkhKQ,ptWTdgSzSpH-0LD24QIH-w
32,Hole In The Wall - Williamsburg,Australian,4.5,$$,292 Bedford Ave,40.714391,-73.961513,https://www.yelp.com/biz/hole-in-the-wall-williamsburg-brooklyn?adjust_creative=-uBzzloii2ivvF3N0jkhKQ&utm_campaign=yelp_api_v3&utm_medium=api_v3_business_search&utm_source=-uBzzloii2ivvF3N0jkhKQ,v9bbNVQUA0OJzJKAcn_r4w
33,Ruby's Cafe – East Village,Australian,4.5,$$,198 E 11th St,40.730932,-73.988061,https://www.yelp.com/biz/rubys-cafe-east-village-new-york?adjust_creative=-uBzzloii2ivvF3N0jkhKQ&utm_campaign=yelp_api_v3&utm_medium=api_v3_business_search&utm_source=-uBzzloii2ivvF3N0jkhKQ,8bIXIStb1SVu1sXYfcMH5g
34,Butler,Bakeries,,,40 Water St,40.7032670673495,-73.9922419276899,,
35,Clinton Street Baking Company,Bakeries,4.0,$$,4 Clinton St,40.721128,-73.983933,https://www.yelp.com/biz/clinton-street-baking-company-new-york-5?adjust_creative=-uBzzloii2ivvF3N0jkhKQ&utm_campaign=yelp_api_v3&utm_medium=api_v3_business_search&utm_source=-uBzzloii2ivvF3N0jkhKQ,nU4XBdvxDABXqZ6CnB8Dig
36,FERNS,Bars,4.5,$$,166 1st Ave,40.72881,-73.98403,https://www.yelp.com/biz/ferns-new-york-7?adjust_creative=-uBzzloii2ivvF3N0jkhKQ&utm_campaign=yelp_api_v3&utm_medium=api_v3_business_search&utm_source=-uBzzloii2ivvF3N0jkhKQ,zX8IF7oCbw1HrNaPmOBy-g
37,The Hideaway Seaport,Bars,4.0,$$,22 Peck Slip,40.7080634,-74.002083,https://www.yelp.com/biz/the-hideaway-seaport-new-york?adjust_creative=-uBzzloii2ivvF3N0jkhKQ&utm_campaign=yelp_api_v3&utm_medium=api_v3_business_search&utm_source=-uBzzloii2ivvF3N0jkhKQ,7szsAtxOkGJ2ady3Qx7v4w
38,Fresh Salt,Bars,4.0,$$,146 Beekman St,40.70707,-74.00244,https://www.yelp.com/biz/fresh-salt-new-york?adjust_creative=-uBzzloii2ivvF3N0jkhKQ&utm_campaign=yelp_api_v3&utm_medium=api_v3_business_search&utm_source=-uBzzloii2ivvF3N0jkhKQ,kDJbzzmCEjFbyDQ-lSygvw
39,Excuse My French,Bars,4.5,$$,96 Orchard St,40.71844,-73.98981,https://www.yelp.com/biz/excuse-my-french-new-york?adjust_creative=-uBzzloii2ivvF3N0jkhKQ&utm_campaign=yelp_api_v3&utm_medium=api_v3_business_search&utm_source=-uBzzloii2ivvF3N0jkhKQ,iexl39DYyy_76Xq3ExaJkQ
40,Sky 55 Bar & Grill,Bars,4.5,$$,55 Water St,40.703234,-74.008687,https://www.yelp.com/biz/sky-55-bar-and-grill-new-york?adjust_creative=-uBzzloii2ivvF3N0jkhKQ&utm_campaign=yelp_api_v3&utm_medium=api_v3_business_search&utm_source=-uBzzloii2ivvF3N0jkhKQ,9Ke2V1SJVOPyr4z3Bj4_IQ
41,Ernesto’s,Basque,,,259 E Broadway,40.71429,-73.9854371,,
42,Ipanema Restaurant,Brazilian,4.0,$$,3 West 36th St,40.75005,-73.98416,https://www.yelp.com/biz/ipanema-restaurant-new-york-2?adjust_creative=-uBzzloii2ivvF3N0jkhKQ&utm_campaign=yelp_api_v3&utm_medium=api_v3_business_search&utm_source=-uBzzloii2ivvF3N0jkhKQ,-udRA8VRsQJoIaT-kxCrGg
43,Hole In The Wall,Breakfast & Brunch,4.5,$$,15 Cliff St,40.70837,-74.00563,https://www.yelp.com/biz/hole-in-the-wall-new-york-12?adjust_creative=-uBzzloii2ivvF3N0jkhKQ&utm_campaign=yelp_api_v3&utm_medium=api_v3_business_search&utm_source=-uBzzloii2ivvF3N0jkhKQ,rQpO1Eie_zmeAOQ9s-T0sQ
44,Freemans,Breakfast & Brunch,4.0,$$,Freeman Alley,40.721988,-73.992466,https://www.yelp.com/biz/freemans-new-york-3?adjust_creative=-uBzzloii2ivvF3N0jkhKQ&utm_campaign=yelp_api_v3&utm_medium=api_v3_business_search&utm_source=-uBzzloii2ivvF3N0jkhKQ,w4cFJhUpjGXqqWBd3BbY4w
45,Jack's Wife Freda,Breakfast & Brunch,4.0,$$,224 Lafayette St,40.72213,-73.99756,https://www.yelp.com/biz/jacks-wife-freda-new-york?adjust_creative=-uBzzloii2ivvF3N0jkhKQ&utm_campaign=yelp_api_v3&utm_medium=api_v3_business_search&utm_source=-uBzzloii2ivvF3N0jkhKQ,Me4TxTbPPQZQopW1wOGx5g
46,Jane,Breakfast & Brunch,4.0,$$,100 W Houston St,40.7273779,-74.00025,https://www.yelp.com/biz/jane-new-york-2?adjust_creative=-uBzzloii2ivvF3N0jkhKQ&utm_campaign=yelp_api_v3&utm_medium=api_v3_business_search&utm_source=-uBzzloii2ivvF3N0jkhKQ,uoT2_Wrt1noD6kZOID7tUg
47,Crab House All You Can Eat Seafood,Buffets,4.5,$$$$,135 E 55th St,40.759664,-73.969776,https://www.yelp.com/biz/crab-house-all-you-can-eat-seafood-new-york?adjust_creative=-uBzzloii2ivvF3N0jkhKQ&utm_campaign=yelp_api_v3&utm_medium=api_v3_business_search&utm_source=-uBzzloii2ivvF3N0jkhKQ,YvWQMlMjtYmVmheH97tTlQ
48,Ruby's Cafe,Burgers,4.0,$$,219 Mulberry St,40.7223288,-73.996326,https://www.yelp.com/biz/rubys-cafe-new-york-4?adjust_creative=-uBzzloii2ivvF3N0jkhKQ&utm_campaign=yelp_api_v3&utm_medium=api_v3_business_search&utm_source=-uBzzloii2ivvF3N0jkhKQ,hGo9KArKThuOKxNbwmNpoA
49,Breakroom,Burgers,4.5,$$,83 Baxter St,40.7166907225542,-73.9999440120647,https://www.yelp.com/biz/breakroom-new-york?adjust_creative=-uBzzloii2ivvF3N0jkhKQ&utm_campaign=yelp_api_v3&utm_medium=api_v3_business_search&utm_source=-uBzzloii2ivvF3N0jkhKQ,MfbVI5reXLIIs8Cc2HwgQw
50,Lillo Cucina Italiana,Cafes,5.0,$$,331 Henry St,40.69023,-73.99634,https://www.yelp.com/biz/lillo-cucina-italiana-brooklyn?adjust_creative=-uBzzloii2ivvF3N0jkhKQ&utm_campaign=yelp_api_v3&utm_medium=api_v3_business_search&utm_source=-uBzzloii2ivvF3N0jkhKQ,qgY41g_eg0eNzewCXmKcaA
51,1803,Cajun/Creole,4.5,$$,82 Reade St,40.715498,-74.007178,https://www.yelp.com/biz/1803-new-york?adjust_creative=-uBzzloii2ivvF3N0jkhKQ&utm_campaign=yelp_api_v3&utm_medium=api_v3_business_search&utm_source=-uBzzloii2ivvF3N0jkhKQ,3xTQT7qjZJIxc-eBiFMerQ
52,Shu Jiao Fu Zhou Cuisine Restaurant,Chinese,4.5,$,295 Grand St,40.7174109,-73.9920876,https://www.yelp.com/biz/shu-jiao-fu-zhou-cuisine-restaurant-new-york?adjust_creative=-uBzzloii2ivvF3N0jkhKQ&utm_campaign=yelp_api_v3&utm_medium=api_v3_business_search&utm_source=-uBzzloii2ivvF3N0jkhKQ,lynQoI3w_pzYfHGeuUU-Qg
53,Tasty Hand-Pulled Noodles,Chinese,4.0,$$,1 Doyers St,40.7142,-73.99787,https://www.yelp.com/biz/tasty-hand-pulled-noodles-new-york?adjust_creative=-uBzzloii2ivvF3N0jkhKQ&utm_campaign=yelp_api_v3&utm_medium=api_v3_business_search&utm_source=-uBzzloii2ivvF3N0jkhKQ,97q5nUQTuBo_h00XCxna2A
54,Fong On,Chinese,4.5,$,81 Division St,40.71417,-73.9937,https://www.yelp.com/biz/fong-on-new-york?adjust_creative=-uBzzloii2ivvF3N0jkhKQ&utm_campaign=yelp_api_v3&utm_medium=api_v3_business_search&utm_source=-uBzzloii2ivvF3N0jkhKQ,iKW9zBGWfE9CM6MfK0UtjA
55,Clay Pot - West Village,Chinese,4.5,$$,270 Bleeker St,40.73138,-74.00319,https://www.yelp.com/biz/clay-pot-west-village-new-york-2?adjust_creative=-uBzzloii2ivvF3N0jkhKQ&utm_campaign=yelp_api_v3&utm_medium=api_v3_business_search&utm_source=-uBzzloii2ivvF3N0jkhKQ,sQw7aEos_0FmO0UFtrJokg
56,Kong Sihk Tong 港食堂,Chinese,4.0,$,65 Bayard St,40.71542,-73.99813,https://www.yelp.com/biz/kong-sihk-tong-%E6%B8%AF%E9%A3%9F%E5%A0%82-new-york?adjust_creative=-uBzzloii2ivvF3N0jkhKQ&utm_campaign=yelp_api_v3&utm_medium=api_v3_business_search&utm_source=-uBzzloii2ivvF3N0jkhKQ,hNFe8WhCibrqT4sFcZmAgw
57,Noodle Village,Chinese,4.0,$$,13 Mott St,40.714167,-73.998803,https://www.yelp.com/biz/noodle-village-new-york-7?adjust_creative=-uBzzloii2ivvF3N0jkhKQ&utm_campaign=yelp_api_v3&utm_medium=api_v3_business_search&utm_source=-uBzzloii2ivvF3N0jkhKQ,bnDfFdiCcPzhuNWUJORvLQ
58,Dante,Cocktail Bars,4.0,$$,79-81 Macdougal St,40.72879,-74.00165,https://www.yelp.com/biz/dante-new-york?adjust_creative=-uBzzloii2ivvF3N0jkhKQ&utm_campaign=yelp_api_v3&utm_medium=api_v3_business_search&utm_source=-uBzzloii2ivvF3N0jkhKQ,bW3mY-voyav37nU0uaLmNQ
59,The Tyger,Cocktail Bars,,,1 Howard St,40.71888,-73.99951,,
60,Pineapple Club,Cocktail Bars,4.5,$$,509 E 6th St,40.72529189450972,-73.98324323292351,https://www.yelp.com/biz/pineapple-club-new-york?adjust_creative=-uBzzloii2ivvF3N0jkhKQ&utm_campaign=yelp_api_v3&utm_medium=api_v3_business_search&utm_source=-uBzzloii2ivvF3N0jkhKQ,wTQYOTh9_JPI2I8s6Xc-Cw
61,Ampersand,Cocktail Bars,4.5,$$,294 3rd Ave,40.7386178790617,-73.9834206895483,https://www.yelp.com/biz/ampersand-new-york-2?adjust_creative=-uBzzloii2ivvF3N0jkhKQ&utm_campaign=yelp_api_v3&utm_medium=api_v3_business_search&utm_source=-uBzzloii2ivvF3N0jkhKQ,ePqKbqXFBCbwBaWiN2Jo9w
62,Bohemien Bar,Cocktail Bars,4.5,$$,97 Atlantic Ave,40.691171,-73.99704,https://www.yelp.com/biz/bohemien-bar-brooklyn?adjust_creative=-uBzzloii2ivvF3N0jkhKQ&utm_campaign=yelp_api_v3&utm_medium=api_v3_business_search&utm_source=-uBzzloii2ivvF3N0jkhKQ,KenUip4W38fN4Ua9WxsohA
63,Jacob's Pickles Time Out Market,Comfort Food,4.5,$$,55 Water St,40.7034,-73.991402,https://www.yelp.com/biz/jacobs-pickles-time-out-market-brooklyn-2?adjust_creative=-uBzzloii2ivvF3N0jkhKQ&utm_campaign=yelp_api_v3&utm_medium=api_v3_business_search&utm_source=-uBzzloii2ivvF3N0jkhKQ,3UdlrH-tuVM0vy3ySh7bUw
64,Cafe Habana,Cuban,4.0,$$,17 Prince St,40.722998,-73.994171,https://www.yelp.com/biz/cafe-habana-new-york-4?adjust_creative=-uBzzloii2ivvF3N0jkhKQ&utm_campaign=yelp_api_v3&utm_medium=api_v3_business_search&utm_source=-uBzzloii2ivvF3N0jkhKQ,NOh24SMS6k4pzNv8Ds7KDg
65,Katz's Delicatessen,Delis,4.0,$$,205 E Houston St,40.722237,-73.9875259,https://www.yelp.com/biz/katzs-delicatessen-new-york?adjust_creative=-uBzzloii2ivvF3N0jkhKQ&utm_campaign=yelp_api_v3&utm_medium=api_v3_business_search&utm_source=-uBzzloii2ivvF3N0jkhKQ,V7lXZKBDzScDeGB8JmnzSA
66,3 Times,Dim Sum,4.5,$$,90 Clinton St,40.718271,-73.985209,https://www.yelp.com/biz/3-times-new-york-5?adjust_creative=-uBzzloii2ivvF3N0jkhKQ&utm_campaign=yelp_api_v3&utm_medium=api_v3_business_search&utm_source=-uBzzloii2ivvF3N0jkhKQ,xLJnT-pB4VECJzmUf1Whpg
67,Diner,Diners,4.0,$$,85 Broadway,40.71069,-73.96559,https://www.yelp.com/biz/diner-brooklyn?adjust_creative=-uBzzloii2ivvF3N0jkhKQ&utm_campaign=yelp_api_v3&utm_medium=api_v3_business_search&utm_source=-uBzzloii2ivvF3N0jkhKQ,l2u-IHL-rNz0uvn6-UC-Rw
68,Wah Fung No 1,Fast Food,4.5,$,79 Chrystie St,40.71735,-73.99457,https://www.yelp.com/biz/wah-fung-no-1-new-york-2?adjust_creative=-uBzzloii2ivvF3N0jkhKQ&utm_campaign=yelp_api_v3&utm_medium=api_v3_business_search&utm_source=-uBzzloii2ivvF3N0jkhKQ,X8ZS-dgiMIJvhwf9SaDnjw
69,Pig and Khao,Filipino,4.0,$$$,68 Clinton St,40.71926,-73.98475,https://www.yelp.com/biz/pig-and-khao-new-york?adjust_creative=-uBzzloii2ivvF3N0jkhKQ&utm_campaign=yelp_api_v3&utm_medium=api_v3_business_search&utm_source=-uBzzloii2ivvF3N0jkhKQ,nxTEuWKzkK1tCF4LrhFSUQ
70,Time Out Market New York,Food Court,3.5,$$,55 Water St,40.7037211399782,-73.9918105285751,https://www.yelp.com/biz/time-out-market-new-york-brooklyn?adjust_creative=-uBzzloii2ivvF3N0jkhKQ&utm_campaign=yelp_api_v3&utm_medium=api_v3_business_search&utm_source=-uBzzloii2ivvF3N0jkhKQ,MGd6HFEq1ALD58XWNviSXw
71,La Sirène-Soho,French,4.5,$$$,558 Broome St,40.7243642217227,-74.005708694458,https://www.yelp.com/biz/la-sir%C3%A8ne-soho-new-york?adjust_creative=-uBzzloii2ivvF3N0jkhKQ&utm_campaign=yelp_api_v3&utm_medium=api_v3_business_search&utm_source=-uBzzloii2ivvF3N0jkhKQ,FiRB9Ek3Xo9JHwXgBYITYg
72,Amélie,French,4.5,$$$,22 W 8th St,40.7327,-73.99766,https://www.yelp.com/biz/am%C3%A9lie-new-york?adjust_creative=-uBzzloii2ivvF3N0jkhKQ&utm_campaign=yelp_api_v3&utm_medium=api_v3_business_search&utm_source=-uBzzloii2ivvF3N0jkhKQ,ETgJqJHV7BW6pIr9Ox74sA
73,Balthazar,French,4.0,$$$,80 Spring St,40.7226892950401,-73.9982149184027,https://www.yelp.com/biz/balthazar-new-york-2?adjust_creative=-uBzzloii2ivvF3N0jkhKQ&utm_campaign=yelp_api_v3&utm_medium=api_v3_business_search&utm_source=-uBzzloii2ivvF3N0jkhKQ,KgpOYAG-r_eDsQXFXt0nnQ
74,Les Enfants de Boheme,French,4.5,$$,177 Henry St,40.7136187,-73.9888503,https://www.yelp.com/biz/les-enfants-de-boheme-new-york?adjust_creative=-uBzzloii2ivvF3N0jkhKQ&utm_campaign=yelp_api_v3&utm_medium=api_v3_business_search&utm_source=-uBzzloii2ivvF3N0jkhKQ,qOomR3AwClOGpV1HdqOTFg
75,Pastis,French,4.0,$$$,52 Gansevoort St,40.73928,-74.00695,https://www.yelp.com/biz/pastis-new-york-3?adjust_creative=-uBzzloii2ivvF3N0jkhKQ&utm_campaign=yelp_api_v3&utm_medium=api_v3_business_search&utm_source=-uBzzloii2ivvF3N0jkhKQ,gtXP0CmOnBbgfnff7VXa7A
76,Coco Bistro,French,4.5,$$,233-235 Front St,40.70757,-74.00184,https://www.yelp.com/biz/coco-bistro-peck-slip?adjust_creative=-uBzzloii2ivvF3N0jkhKQ&utm_campaign=yelp_api_v3&utm_medium=api_v3_business_search&utm_source=-uBzzloii2ivvF3N0jkhKQ,a8D87UlkkR3HixryrAay9w
77,Buvette,French,4.0,$$,42 Grove St,40.732704,-74.004317,https://www.yelp.com/biz/buvette-new-york?adjust_creative=-uBzzloii2ivvF3N0jkhKQ&utm_campaign=yelp_api_v3&utm_medium=api_v3_business_search&utm_source=-uBzzloii2ivvF3N0jkhKQ,xQ445GaWVN5Aa3sFX9OoIg
78,LĒNA,French,4.5,$$,137 Eldridge St,40.719135,-73.991758,https://www.yelp.com/biz/l%C4%93na-new-york-8?adjust_creative=-uBzzloii2ivvF3N0jkhKQ&utm_campaign=yelp_api_v3&utm_medium=api_v3_business_search&utm_source=-uBzzloii2ivvF3N0jkhKQ,flcy6dNr4s12PTv6VtBK9Q
79,Kiki's,Greek,4.0,$$,130 Division St,40.7144971858255,-73.9918553931336,https://www.yelp.com/biz/kikis-new-york?adjust_creative=-uBzzloii2ivvF3N0jkhKQ&utm_campaign=yelp_api_v3&utm_medium=api_v3_business_search&utm_source=-uBzzloii2ivvF3N0jkhKQ,_4Grm99JEHnDWskCHAJfUg
80,Eleni's,Greek,,,226 3rd Ave,40.736601,-73.985085,,
81,Mint Heights,Indian,,,46 Henry St,40.69963,-73.99209879815116,,
82,Wayan,Indonesian,4.0,$$$,20 Spring St,40.7213813139202,-73.9950757664721,https://www.yelp.com/biz/wayan-new-york-4?adjust_creative=-uBzzloii2ivvF3N0jkhKQ&utm_campaign=yelp_api_v3&utm_medium=api_v3_business_search&utm_source=-uBzzloii2ivvF3N0jkhKQ,npiIhpcWePbVT3JYEcy3zg
83,Paesano of Mulberry Street,Italian,4.0,$$,136 Mulberry St,40.718554,-73.997447,https://www.yelp.com/biz/paesano-of-mulberry-street-new-york?adjust_creative=-uBzzloii2ivvF3N0jkhKQ&utm_campaign=yelp_api_v3&utm_medium=api_v3_business_search&utm_source=-uBzzloii2ivvF3N0jkhKQ,OCTiJwvjoK81WoDwsTkFvA
84,A Pasta Bar,Italian,4.0,$$,330 W Broadway,40.72229,-74.00403,https://www.yelp.com/biz/a-pasta-bar-new-york?adjust_creative=-uBzzloii2ivvF3N0jkhKQ&utm_campaign=yelp_api_v3&utm_medium=api_v3_business_search&utm_source=-uBzzloii2ivvF3N0jkhKQ,2Nwmd7-1d1rI6lb9QSSYYA
85,Misi,Italian,4.0,$$$,329 Kent Ave,40.71341,-73.96662,https://www.yelp.com/biz/misi-brooklyn?adjust_creative=-uBzzloii2ivvF3N0jkhKQ&utm_campaign=yelp_api_v3&utm_medium=api_v3_business_search&utm_source=-uBzzloii2ivvF3N0jkhKQ,5k_jwjhdFMPUNWhouGNzuA
86,Aita,Italian,4.0,$$,132 Greene Ave,40.686412,-73.966629,https://www.yelp.com/biz/aita-brooklyn?adjust_creative=-uBzzloii2ivvF3N0jkhKQ&utm_campaign=yelp_api_v3&utm_medium=api_v3_business_search&utm_source=-uBzzloii2ivvF3N0jkhKQ,4j_n7nPaZrp6_lEInZaA8Q
87,Pomp & Circumstance Dining,Italian,5.0,$$,577 Lorimer St,40.714166,-73.949612,https://www.yelp.com/biz/pomp-and-circumstance-dining-williamsburg?adjust_creative=-uBzzloii2ivvF3N0jkhKQ&utm_campaign=yelp_api_v3&utm_medium=api_v3_business_search&utm_source=-uBzzloii2ivvF3N0jkhKQ,QQpQujXQGbZBK6BeAokzDA
88,Aunt Jake's,Italian,4.0,$$,133 Mulberry St,40.7186467,-73.9979241,https://www.yelp.com/biz/aunt-jakes-new-york?adjust_creative=-uBzzloii2ivvF3N0jkhKQ&utm_campaign=yelp_api_v3&utm_medium=api_v3_business_search&utm_source=-uBzzloii2ivvF3N0jkhKQ,I2lgw_7DUnwD92ND4PN-Ow
89,Aurora,Italian,4.0,$$,70 Grand St,40.715621,-73.964757,https://www.yelp.com/biz/aurora-brooklyn?adjust_creative=-uBzzloii2ivvF3N0jkhKQ&utm_campaign=yelp_api_v3&utm_medium=api_v3_business_search&utm_source=-uBzzloii2ivvF3N0jkhKQ,a4WZUTKn90dOkeY38JHNjQ
90,Evelina,Italian,4.5,$$$,211 Dekalb Ave,40.689722,-73.971003,https://www.yelp.com/biz/evelina-brooklyn-2?adjust_creative=-uBzzloii2ivvF3N0jkhKQ&utm_campaign=yelp_api_v3&utm_medium=api_v3_business_search&utm_source=-uBzzloii2ivvF3N0jkhKQ,mPHPVJ2-8mOR-lFHafrc6w
91,Osteria Del Porto,Italian,,,212 Front St,40.70737443140159,-74.00270427364536,,
92,Supper,Italian,4.0,$$,156 E 2nd St,40.7229,-73.98527,https://www.yelp.com/biz/supper-new-york?adjust_creative=-uBzzloii2ivvF3N0jkhKQ&utm_campaign=yelp_api_v3&utm_medium=api_v3_business_search&utm_source=-uBzzloii2ivvF3N0jkhKQ,Vs8kQ4R381y27AH018gLpg
93,Rosemary’s,Italian,,,350 1st Ave,40.73512,-73.97965,,
94,San Marzano Pasta Fresca,Italian,4.0,$$,117 Second Ave,40.727966,-73.988382,https://www.yelp.com/biz/san-marzano-pasta-fresca-new-york?adjust_creative=-uBzzloii2ivvF3N0jkhKQ&utm_campaign=yelp_api_v3&utm_medium=api_v3_business_search&utm_source=-uBzzloii2ivvF3N0jkhKQ,k5fd-RSdG4IuXnnGSQ5oOw
95,Lilia,Italian,4.0,$$$,567 Union Ave,40.71757,-73.95236,https://www.yelp.com/biz/lilia-brooklyn?adjust_creative=-uBzzloii2ivvF3N0jkhKQ&utm_campaign=yelp_api_v3&utm_medium=api_v3_business_search&utm_source=-uBzzloii2ivvF3N0jkhKQ,zwOAiVT4pAmpNGXzj-t5MA
96,L'Artusi,Italian,4.5,$$$,228 W 10th St,40.73372,-74.00513,https://www.yelp.com/biz/l-artusi-new-york?adjust_creative=-uBzzloii2ivvF3N0jkhKQ&utm_campaign=yelp_api_v3&utm_medium=api_v3_business_search&utm_source=-uBzzloii2ivvF3N0jkhKQ,rp8S7scxOkVVeG7dNneMGQ
97,Don Angie,Italian,4.5,$$$,103 Greenwich Ave,40.73778,-74.00197,https://www.yelp.com/biz/don-angie-new-york?adjust_creative=-uBzzloii2ivvF3N0jkhKQ&utm_campaign=yelp_api_v3&utm_medium=api_v3_business_search&utm_source=-uBzzloii2ivvF3N0jkhKQ,h37t9rA06Sr4EetJjKrfzw
98,Forsythia,Italian,,,9 Stanton St,40.7225353,-73.992492,,
99,Cecconi's Dumbo,Italian,3.5,$$$,55 Water St,40.7033063330116,-73.9916549604523,https://www.yelp.com/biz/cecconis-dumbo-brooklyn?adjust_creative=-uBzzloii2ivvF3N0jkhKQ&utm_campaign=yelp_api_v3&utm_medium=api_v3_business_search&utm_source=-uBzzloii2ivvF3N0jkhKQ,-Gc5sTFxoXM3Tiv_dkSJZg
100,Piccola Cucina Osteria,Italian,4.5,$$,196 Spring St,40.72506,-74.00322,https://www.yelp.com/biz/piccola-cucina-osteria-new-york-city?adjust_creative=-uBzzloii2ivvF3N0jkhKQ&utm_campaign=yelp_api_v3&utm_medium=api_v3_business_search&utm_source=-uBzzloii2ivvF3N0jkhKQ,qBGKigOGn_flCx1apxPzlA
101,AlMar,Italian,4.0,$$,111 Front St,40.702662,-73.989177,https://www.yelp.com/biz/almar-brooklyn-2?adjust_creative=-uBzzloii2ivvF3N0jkhKQ&utm_campaign=yelp_api_v3&utm_medium=api_v3_business_search&utm_source=-uBzzloii2ivvF3N0jkhKQ,nHMDOIX32dGbfpuNUwsLNQ
102,Gelso & Grand,Italian,4.5,$$,186 Grand St,40.7194089547259,-73.9973777877722,https://www.yelp.com/biz/gelso-and-grand-new-york?adjust_creative=-uBzzloii2ivvF3N0jkhKQ&utm_campaign=yelp_api_v3&utm_medium=api_v3_business_search&utm_source=-uBzzloii2ivvF3N0jkhKQ,MphfKkYFEe0BDQ6hZ0A5fA
103,Rubirosa,Italian,4.5,$$,235 Mulberry St,40.722766,-73.996233,https://www.yelp.com/biz/rubirosa-new-york-2?adjust_creative=-uBzzloii2ivvF3N0jkhKQ&utm_campaign=yelp_api_v3&utm_medium=api_v3_business_search&utm_source=-uBzzloii2ivvF3N0jkhKQ,WG639VkTjmK5dzydd1BBJA
104,Sushi Lab Rooftop NYC,Japanese,,,132 West 47th St,40.758417,-73.983301,,
105,Evil Katsu,Japanese,,,435 East 9th,40.72768479788727,-73.98324300000446,,
106,Kimika,Japanese,,,40 Kenmare St,40.720572,-73.995206,,
107,Tsukimi,Japanese,,,228 East 10th St,40.72908,-73.98541,,
108,Kaikagetsu NYC,Japanese,4.5,$$$$,162 Orchard St,40.72104,-73.98848,https://www.yelp.com/biz/kaikagetsu-nyc-new-york-2?adjust_creative=-uBzzloii2ivvF3N0jkhKQ&utm_campaign=yelp_api_v3&utm_medium=api_v3_business_search&utm_source=-uBzzloii2ivvF3N0jkhKQ,ax4INkzwL__-d_kGJfcA-w
109,Cocoron,Japanese,4.0,$$,37 Kenmare St,40.7207236,-73.9953191,https://www.yelp.com/biz/cocoron-new-york-2?adjust_creative=-uBzzloii2ivvF3N0jkhKQ&utm_campaign=yelp_api_v3&utm_medium=api_v3_business_search&utm_source=-uBzzloii2ivvF3N0jkhKQ,nrxSzq-VxLqD7aFkE4SH3Q
110,Kimura,Japanese,4.5,$$,31 St Marks Pl,40.728995,-73.988279,https://www.yelp.com/biz/kimura-new-york?adjust_creative=-uBzzloii2ivvF3N0jkhKQ&utm_campaign=yelp_api_v3&utm_medium=api_v3_business_search&utm_source=-uBzzloii2ivvF3N0jkhKQ,eQ4QUGvuHGBzsOrphsVc6A
111,Ichibantei,Japanese,4.0,$$,401 E 13th St,40.73063,-73.98275,https://www.yelp.com/biz/ichibantei-new-york?adjust_creative=-uBzzloii2ivvF3N0jkhKQ&utm_campaign=yelp_api_v3&utm_medium=api_v3_business_search&utm_source=-uBzzloii2ivvF3N0jkhKQ,kesYSgOJW5krU6L8n9qQ4Q
112,Salt + Charcoal,Japanese,4.0,$$,171 Grand St,40.71453,-73.9613511,https://www.yelp.com/biz/salt-charcoal-brooklyn?adjust_creative=-uBzzloii2ivvF3N0jkhKQ&utm_campaign=yelp_api_v3&utm_medium=api_v3_business_search&utm_source=-uBzzloii2ivvF3N0jkhKQ,m1cJLpDN4B-_0hGgPfe5OA
113,hanon,Japanese,4.5,$$,436 Union Ave,40.7134488,-73.9513445,https://www.yelp.com/biz/hanon-brooklyn?adjust_creative=-uBzzloii2ivvF3N0jkhKQ&utm_campaign=yelp_api_v3&utm_medium=api_v3_business_search&utm_source=-uBzzloii2ivvF3N0jkhKQ,FYWwW5lcxKzaA98Xgw8bqA
114,Tsurutontan Udon Noodle Brasserie,Japanese,4.0,$$,21 E 16th St,40.73678,-73.9910699,https://www.yelp.com/biz/tsurutontan-udon-noodle-brasserie-new-york?adjust_creative=-uBzzloii2ivvF3N0jkhKQ&utm_campaign=yelp_api_v3&utm_medium=api_v3_business_search&utm_source=-uBzzloii2ivvF3N0jkhKQ,J9UA6rzI5WW_cDGjwDnF5g
115,Benemon,Japanese,4.5,$$,108 E 4th St,40.72551,-73.98838,https://www.yelp.com/biz/benemon-new-york?adjust_creative=-uBzzloii2ivvF3N0jkhKQ&utm_campaign=yelp_api_v3&utm_medium=api_v3_business_search&utm_source=-uBzzloii2ivvF3N0jkhKQ,axqp3pGJXnTLgq2QrPyDyQ
116,Raku,Japanese,4.5,$$,342 E 6th St,40.7264988089246,-73.9866526052356,https://www.yelp.com/biz/raku-new-york-7?adjust_creative=-uBzzloii2ivvF3N0jkhKQ&utm_campaign=yelp_api_v3&utm_medium=api_v3_business_search&utm_source=-uBzzloii2ivvF3N0jkhKQ,FlZ1zdVEKWv7dwqm8Uw8-w
117,Soba-ya,Japanese,4.0,$$,229 E 9th St,40.72965,-73.9878899,https://www.yelp.com/biz/soba-ya-new-york?adjust_creative=-uBzzloii2ivvF3N0jkhKQ&utm_campaign=yelp_api_v3&utm_medium=api_v3_business_search&utm_source=-uBzzloii2ivvF3N0jkhKQ,i8ejDDR4COtukAAA1Ls5fw
118,Raku,Japanese,4.5,$$,48 Macdougal St,40.72728,-74.00252,https://www.yelp.com/biz/raku-new-york-6?adjust_creative=-uBzzloii2ivvF3N0jkhKQ&utm_campaign=yelp_api_v3&utm_medium=api_v3_business_search&utm_source=-uBzzloii2ivvF3N0jkhKQ,qEe7nIhPfEL6L0-VYhWRrA
119,shabushabu Mayumon,Japanese,,,115 Division St,40.71434,-73.99205,,
120,JeJu Noodle Bar,Korean,4.5,$$,679 Greenwich St,40.73304,-74.00734,https://www.yelp.com/biz/jeju-noodle-bar-new-york?adjust_creative=-uBzzloii2ivvF3N0jkhKQ&utm_campaign=yelp_api_v3&utm_medium=api_v3_business_search&utm_source=-uBzzloii2ivvF3N0jkhKQ,xtxcAUvrD4dWHJd0cwvW1A
121,Boka,Korean,4.5,$$,23 Pell St,40.714809,-73.998272,https://www.yelp.com/biz/boka-new-york-2?adjust_creative=-uBzzloii2ivvF3N0jkhKQ&utm_campaign=yelp_api_v3&utm_medium=api_v3_business_search&utm_source=-uBzzloii2ivvF3N0jkhKQ,TTGFxOebpxfLVVFqfZemKA
122,MOKYO,Korean,,,109 St Marks Pl,40.727223,-73.983878,,
123,Doma,Korean,4.5,$$,120 1st Ave,40.72703,-73.985392,https://www.yelp.com/biz/doma-new-york-4?adjust_creative=-uBzzloii2ivvF3N0jkhKQ&utm_campaign=yelp_api_v3&utm_medium=api_v3_business_search&utm_source=-uBzzloii2ivvF3N0jkhKQ,PAQDvkvVselqlhOc0Mh92g
124,Kuun,Korean,,,290 Livingston St,40.6884292,-73.9831506,,
125,Barn Joo,Korean,4.0,$$,35 Union Sq W,40.73684,-73.99069,https://www.yelp.com/biz/barn-joo-new-york-3?adjust_creative=-uBzzloii2ivvF3N0jkhKQ&utm_campaign=yelp_api_v3&utm_medium=api_v3_business_search&utm_source=-uBzzloii2ivvF3N0jkhKQ,FizBsTIAJwNrImIG1mPDcg
126,Silver Factory,Korean,4.5,$$,270 South 5th St,40.709227,-73.958598,https://www.yelp.com/biz/silver-factory-brooklyn?adjust_creative=-uBzzloii2ivvF3N0jkhKQ&utm_campaign=yelp_api_v3&utm_medium=api_v3_business_search&utm_source=-uBzzloii2ivvF3N0jkhKQ,L7_siqDfU4-ZA17YtA-SBg
127,MONO+MONO,Korean,4.0,$$,116 E 4th St,40.72549,-73.98803,https://www.yelp.com/biz/mono-mono-new-york-9?adjust_creative=-uBzzloii2ivvF3N0jkhKQ&utm_campaign=yelp_api_v3&utm_medium=api_v3_business_search&utm_source=-uBzzloii2ivvF3N0jkhKQ,c_Kellz-oODKoNpcRbV24w
128,Thursday Kitchen,Korean,4.5,$$,424 E 9th St,40.7275,-73.9838,https://www.yelp.com/biz/thursday-kitchen-new-york?adjust_creative=-uBzzloii2ivvF3N0jkhKQ&utm_campaign=yelp_api_v3&utm_medium=api_v3_business_search&utm_source=-uBzzloii2ivvF3N0jkhKQ,fVbUVAiLiGgLA_nxBFxyww
129,Her Name Is Han,Korean,4.5,$$,17 E 31st St,40.7462615966797,-73.984733581543,https://www.yelp.com/biz/her-name-is-han-new-york-3?adjust_creative=-uBzzloii2ivvF3N0jkhKQ&utm_campaign=yelp_api_v3&utm_medium=api_v3_business_search&utm_source=-uBzzloii2ivvF3N0jkhKQ,qY1o1MhoRyN84RRhUJtvpQ
130,Rice kitchen,Korean,5.0,$$,204 Spring St,40.725166,-74.003712,https://www.yelp.com/biz/rice-kitchen-new-york?adjust_creative=-uBzzloii2ivvF3N0jkhKQ&utm_campaign=yelp_api_v3&utm_medium=api_v3_business_search&utm_source=-uBzzloii2ivvF3N0jkhKQ,HUKn7SlSjYtemmPiGLnD2w
131,Nowon,Korean,,,507 East 6th St,40.72532,-73.98334,,
132,YUBU,Korean,4.5,$,86 E 7th St,40.72702,-73.98608,https://www.yelp.com/biz/yubu-new-york?adjust_creative=-uBzzloii2ivvF3N0jkhKQ&utm_campaign=yelp_api_v3&utm_medium=api_v3_business_search&utm_source=-uBzzloii2ivvF3N0jkhKQ,aZ_a78wVWnQnV6BdMwcFVA
133,Kopitiam,Malaysian,4.0,$$,151 E Broadway,40.71387,-73.99091,https://www.yelp.com/biz/kopitiam-new-york?adjust_creative=-uBzzloii2ivvF3N0jkhKQ&utm_campaign=yelp_api_v3&utm_medium=api_v3_business_search&utm_source=-uBzzloii2ivvF3N0jkhKQ,r2JVKalbucGf2nryywuL2w
134,Nyonya,Malaysian,4.0,$$,199 Grand St,40.7190148,-73.9968228,https://www.yelp.com/biz/nyonya-new-york?adjust_creative=-uBzzloii2ivvF3N0jkhKQ&utm_campaign=yelp_api_v3&utm_medium=api_v3_business_search&utm_source=-uBzzloii2ivvF3N0jkhKQ,M-odQWSEfsR2mVEw7nKG-g
135,Glasserie,Mediterranean,4.0,$$$,95 Commercial St,40.7376154,-73.9560697,https://www.yelp.com/biz/glasserie-brooklyn-2?adjust_creative=-uBzzloii2ivvF3N0jkhKQ&utm_campaign=yelp_api_v3&utm_medium=api_v3_business_search&utm_source=-uBzzloii2ivvF3N0jkhKQ,wA_KKu3X36JcaUPgFjyIHg
136,Celestine,Mediterranean,4.0,$$$,1 John St,40.704676,-73.987975,https://www.yelp.com/biz/celestine-brooklyn?adjust_creative=-uBzzloii2ivvF3N0jkhKQ&utm_campaign=yelp_api_v3&utm_medium=api_v3_business_search&utm_source=-uBzzloii2ivvF3N0jkhKQ,4aF0F8w7yXX9o5_QFky_ig
137,Miss Ada,Mediterranean,4.5,$$$,184 Dekalb Ave,40.689436,-73.9723809,https://www.yelp.com/biz/miss-ada-brooklyn-2?adjust_creative=-uBzzloii2ivvF3N0jkhKQ&utm_campaign=yelp_api_v3&utm_medium=api_v3_business_search&utm_source=-uBzzloii2ivvF3N0jkhKQ,cg7IxNN5wyrXVP5tkCaZRg
138,Taboonette,Mediterranean,4.5,$$,30 E 13th St,40.7346038818359,-73.9928283691406,https://www.yelp.com/biz/taboonette-new-york?adjust_creative=-uBzzloii2ivvF3N0jkhKQ&utm_campaign=yelp_api_v3&utm_medium=api_v3_business_search&utm_source=-uBzzloii2ivvF3N0jkhKQ,owYYuyLvlsdjLz68c3SSfg
139,Las Santas,Mexican,4.5,$$,572 Fulton St,40.6882,-73.97953,https://www.yelp.com/biz/las-santas-brooklyn-2?adjust_creative=-uBzzloii2ivvF3N0jkhKQ&utm_campaign=yelp_api_v3&utm_medium=api_v3_business_search&utm_source=-uBzzloii2ivvF3N0jkhKQ,4pj4ol7lXiytDD-BTKe3kg
140,Rosie's,Mexican,4.0,$$,29 E 2nd St,40.72492,-73.99079,https://www.yelp.com/biz/rosies-new-york-2?adjust_creative=-uBzzloii2ivvF3N0jkhKQ&utm_campaign=yelp_api_v3&utm_medium=api_v3_business_search&utm_source=-uBzzloii2ivvF3N0jkhKQ,9aJ1MVTthZw3QjqoG7mPjg
141,La Contenta,Mexican,4.5,$$,102 Norfolk St,40.71873,-73.98691,https://www.yelp.com/biz/la-contenta-new-york?adjust_creative=-uBzzloii2ivvF3N0jkhKQ&utm_campaign=yelp_api_v3&utm_medium=api_v3_business_search&utm_source=-uBzzloii2ivvF3N0jkhKQ,6Ct7OeTRn4caY9g0swFBsw
142,Claro,Mexican,4.0,$$,284 3rd Ave,40.6773587963142,-73.9861984489446,https://www.yelp.com/biz/claro-brooklyn?adjust_creative=-uBzzloii2ivvF3N0jkhKQ&utm_campaign=yelp_api_v3&utm_medium=api_v3_business_search&utm_source=-uBzzloii2ivvF3N0jkhKQ,FXgSgiLg6xgOO8zrG51mzg
143,The Migrant Kitchen,Middle Eastern,,,55 Water St,40.70362,-73.99165,,
144,Cafe Mogador,Moroccan,4.5,$$,133 Wythe Ave,40.719747,-73.959993,https://www.yelp.com/biz/cafe-mogador-brooklyn?adjust_creative=-uBzzloii2ivvF3N0jkhKQ&utm_campaign=yelp_api_v3&utm_medium=api_v3_business_search&utm_source=-uBzzloii2ivvF3N0jkhKQ,jAaVnUKLITkuhzwXIe0vLQ
145,Cafe Gitane,Moroccan,,,70 Hudson Ave,40.7028272982236,-73.9812811999999,,
146,Sofreh,Persian/Iranian,4.0,$$,75 St Marks Ave,40.6798617,-73.973984,https://www.yelp.com/biz/sofreh-brooklyn?adjust_creative=-uBzzloii2ivvF3N0jkhKQ&utm_campaign=yelp_api_v3&utm_medium=api_v3_business_search&utm_source=-uBzzloii2ivvF3N0jkhKQ,m4CFfE1_u5rwVgb45ZqRpA
147,Juliana's,Pizza,4.5,$$,19 Old Fulton St,40.70274718768062,-73.99343490196397,https://www.yelp.com/biz/julianas-brooklyn-3?adjust_creative=-uBzzloii2ivvF3N0jkhKQ&utm_campaign=yelp_api_v3&utm_medium=api_v3_business_search&utm_source=-uBzzloii2ivvF3N0jkhKQ,ysqgdbSrezXgVwER2kQWKA
148,Lucali,Pizza,4.0,$$,575 Henry St,40.6818,-74.00024,https://www.yelp.com/biz/lucali-brooklyn-3?adjust_creative=-uBzzloii2ivvF3N0jkhKQ&utm_campaign=yelp_api_v3&utm_medium=api_v3_business_search&utm_source=-uBzzloii2ivvF3N0jkhKQ,Q9F2ocrmYuGt1yn3M7MOBw
149,Olio e Piú,Pizza,4.5,$$,3 Greenwich Ave,40.733798036104304,-73.99977392649927,https://www.yelp.com/biz/olio-e-pi%C3%BA-new-york-city?adjust_creative=-uBzzloii2ivvF3N0jkhKQ&utm_campaign=yelp_api_v3&utm_medium=api_v3_business_search&utm_source=-uBzzloii2ivvF3N0jkhKQ,16ZnHpuaaBt92XWeJHCC5A
150,Ippudo NY,Ramen,4.0,$$,65 4th Ave,40.73092,-73.99015,https://www.yelp.com/biz/ippudo-ny-new-york-7?adjust_creative=-uBzzloii2ivvF3N0jkhKQ&utm_campaign=yelp_api_v3&utm_medium=api_v3_business_search&utm_source=-uBzzloii2ivvF3N0jkhKQ,44SY464xDHbvOcjDzRbKkQ
151,Cheeky Sandwiches,Sandwiches,4.5,$,35 Orchard St,40.7158,-73.99169,https://www.yelp.com/biz/cheeky-sandwiches-new-york?adjust_creative=-uBzzloii2ivvF3N0jkhKQ&utm_campaign=yelp_api_v3&utm_medium=api_v3_business_search&utm_source=-uBzzloii2ivvF3N0jkhKQ,gHdejB1Mx2P5UjAgZ6BT2w
152,Seamore’s Dumbo,Seafood,3.5,$$,66 Water St,40.7032,-73.99145,https://www.yelp.com/biz/seamore-s-dumbo-brooklyn-3?adjust_creative=-uBzzloii2ivvF3N0jkhKQ&utm_campaign=yelp_api_v3&utm_medium=api_v3_business_search&utm_source=-uBzzloii2ivvF3N0jkhKQ,CqtT8rPaSmrRClUBbqsCFA
153,Luke's Lobster Brooklyn Bridge Park,Seafood,4.0,$$,11 Water St,40.70359,-73.99411,https://www.yelp.com/biz/lukes-lobster-brooklyn-bridge-park-brooklyn-2?adjust_creative=-uBzzloii2ivvF3N0jkhKQ&utm_campaign=yelp_api_v3&utm_medium=api_v3_business_search&utm_source=-uBzzloii2ivvF3N0jkhKQ,RrNe_0PReWHXAnjTEXBikQ
154,Seaport House,Seafood,4.0,$$,229 Front St,40.707503,-74.001945,https://www.yelp.com/biz/seaport-house-new-york?adjust_creative=-uBzzloii2ivvF3N0jkhKQ&utm_campaign=yelp_api_v3&utm_medium=api_v3_business_search&utm_source=-uBzzloii2ivvF3N0jkhKQ,Roj5hZ0Tq22ruarnGnLiVQ
155,Upstate Craft Beer & Oyster Bar,Seafood,4.5,$$,95 1st Ave,40.726373,-73.986557,https://www.yelp.com/biz/upstate-craft-beer-and-oyster-bar-new-york-4?adjust_creative=-uBzzloii2ivvF3N0jkhKQ&utm_campaign=yelp_api_v3&utm_medium=api_v3_business_search&utm_source=-uBzzloii2ivvF3N0jkhKQ,ehUuSk5gPTCQmwS_ubgKRA
156,Fish Cheeks,Seafood,4.5,$$,55 Bond St,40.7258,-73.9927,https://www.yelp.com/biz/fish-cheeks-new-york?adjust_creative=-uBzzloii2ivvF3N0jkhKQ&utm_campaign=yelp_api_v3&utm_medium=api_v3_business_search&utm_source=-uBzzloii2ivvF3N0jkhKQ,WJS06XxRdc6DD1s4LWE9HA
157,The Fulton,Seafood,3.5,$$$,89 S St,40.7053694327276,-74.00123,https://www.yelp.com/biz/the-fulton-new-york-2?adjust_creative=-uBzzloii2ivvF3N0jkhKQ&utm_campaign=yelp_api_v3&utm_medium=api_v3_business_search&utm_source=-uBzzloii2ivvF3N0jkhKQ,LOeDR4X-YRToeo3hy_plew
158,Fishmarket Restaurant,Seafood,4.5,$$,111 South St,40.70717,-74.00192,https://www.yelp.com/biz/fishmarket-restaurant-new-york?adjust_creative=-uBzzloii2ivvF3N0jkhKQ&utm_campaign=yelp_api_v3&utm_medium=api_v3_business_search&utm_source=-uBzzloii2ivvF3N0jkhKQ,LpVbI-E9C-CSp7WhU5h2Iw
159,Luke's Lobster FiDi,Seafood,4.5,$$,26 S William St,40.7046213003984,-74.0107793876969,https://www.yelp.com/biz/lukes-lobster-fidi-new-york?adjust_creative=-uBzzloii2ivvF3N0jkhKQ&utm_campaign=yelp_api_v3&utm_medium=api_v3_business_search&utm_source=-uBzzloii2ivvF3N0jkhKQ,kxykwx5qTWBhlMh18MQ82Q
160,Luke's Lobster FiDi,Seafood,4.5,$$,26 S William St,40.7046213003984,-74.0107793876969,https://www.yelp.com/biz/lukes-lobster-fidi-new-york?adjust_creative=-uBzzloii2ivvF3N0jkhKQ&utm_campaign=yelp_api_v3&utm_medium=api_v3_business_search&utm_source=-uBzzloii2ivvF3N0jkhKQ,kxykwx5qTWBhlMh18MQ82Q
161,Shanghai 21,Shanghainese,4.0,$$,21 Mott St,40.71441,-73.99902,https://www.yelp.com/biz/shanghai-21-new-york-2?adjust_creative=-uBzzloii2ivvF3N0jkhKQ&utm_campaign=yelp_api_v3&utm_medium=api_v3_business_search&utm_source=-uBzzloii2ivvF3N0jkhKQ,R26zweQ8-xoZS7iHkXQOvw
162,Joe's Shanghai,Shanghainese,4.0,$$,46 Bowery St,40.7156608,-73.9967012,https://www.yelp.com/biz/joes-shanghai-new-york-2?adjust_creative=-uBzzloii2ivvF3N0jkhKQ&utm_campaign=yelp_api_v3&utm_medium=api_v3_business_search&utm_source=-uBzzloii2ivvF3N0jkhKQ,0CjK3esfpFcxIopebzjFxA
163,Root & Bone,Southern,4.0,$$,200 E 3rd St,40.7228079872831,-73.9833535829059,https://www.yelp.com/biz/root-and-bone-new-york?adjust_creative=-uBzzloii2ivvF3N0jkhKQ&utm_campaign=yelp_api_v3&utm_medium=api_v3_business_search&utm_source=-uBzzloii2ivvF3N0jkhKQ,ULt3kmA0_hbZ3j6cMORCaA
164,Sweet Chick,Southern,4.0,$$,178 Ludlow St,40.7217399,-73.98739,https://www.yelp.com/biz/sweet-chick-new-york?adjust_creative=-uBzzloii2ivvF3N0jkhKQ&utm_campaign=yelp_api_v3&utm_medium=api_v3_business_search&utm_source=-uBzzloii2ivvF3N0jkhKQ,8F81LrdFm6P5kkFpsw0n0w
165,Popina,Southern,4.5,$$,127 Columbia St,40.687361962701,-74.0014251909241,https://www.yelp.com/biz/popina-brooklyn?adjust_creative=-uBzzloii2ivvF3N0jkhKQ&utm_campaign=yelp_api_v3&utm_medium=api_v3_business_search&utm_source=-uBzzloii2ivvF3N0jkhKQ,yIFI6afTRP-tBhY6WsUOPg
166,Boqueria Soho,Spanish,4.0,$$,171 Spring St,40.724912,-74.0021299,https://www.yelp.com/biz/boqueria-soho-new-york-2?adjust_creative=-uBzzloii2ivvF3N0jkhKQ&utm_campaign=yelp_api_v3&utm_medium=api_v3_business_search&utm_source=-uBzzloii2ivvF3N0jkhKQ,AIKjw2QLvVNdha3TciJYzg
167,Peter Luger,Steakhouses,4.0,$$$$,178 Broadway,40.709945,-73.962478,https://www.yelp.com/biz/peter-luger-brooklyn-2?adjust_creative=-uBzzloii2ivvF3N0jkhKQ&utm_campaign=yelp_api_v3&utm_medium=api_v3_business_search&utm_source=-uBzzloii2ivvF3N0jkhKQ,4yPqqJDJOQX69gC66YUDkA
168,Carne Mare,Steakhouses,,,89 South St,40.70634,-74.00383,,
169,Douska,Sushi Bars,,,63 Delancey St,40.7191369,-73.9908998,,
170,Nami Nori,Sushi Bars,4.5,$$$,33 Carmine St,40.730284,-74.003212,https://www.yelp.com/biz/nami-nori-new-york?adjust_creative=-uBzzloii2ivvF3N0jkhKQ&utm_campaign=yelp_api_v3&utm_medium=api_v3_business_search&utm_source=-uBzzloii2ivvF3N0jkhKQ,lY_gb_hNbit6GHBiOn3VeQ
171,Douska,Sushi Bars,,,63 Delancey St,40.7191369,-73.9908998,,
172,Szechuan Mountain House,Szechuan,4.5,$$,23 St Marks Pl,40.72911,-73.98858,https://www.yelp.com/biz/szechuan-mountain-house-new-york-2?adjust_creative=-uBzzloii2ivvF3N0jkhKQ&utm_campaign=yelp_api_v3&utm_medium=api_v3_business_search&utm_source=-uBzzloii2ivvF3N0jkhKQ,jc7lVTvmYMIK5RNpENtS6w
173,Chow House,Szechuan,4.5,$$,181 Bleecker St,40.72915,-74.00072,https://www.yelp.com/biz/chow-house-new-york?adjust_creative=-uBzzloii2ivvF3N0jkhKQ&utm_campaign=yelp_api_v3&utm_medium=api_v3_business_search&utm_source=-uBzzloii2ivvF3N0jkhKQ,0dDCDQz7DrKkSvu9h2hcQw
174,886,Taiwanese,4.0,$$,26 Saint Marks Pl,40.72877,-73.98873,https://www.yelp.com/biz/886-new-york?adjust_creative=-uBzzloii2ivvF3N0jkhKQ&utm_campaign=yelp_api_v3&utm_medium=api_v3_business_search&utm_source=-uBzzloii2ivvF3N0jkhKQ,8Oo2AtQEPDfxIOnA8wfXoQ
175,Taiwan Pork Chop House,Taiwanese,4.0,$,3 Doyers St,40.71424,-73.99799,https://www.yelp.com/biz/taiwan-pork-chop-house-new-york?adjust_creative=-uBzzloii2ivvF3N0jkhKQ&utm_campaign=yelp_api_v3&utm_medium=api_v3_business_search&utm_source=-uBzzloii2ivvF3N0jkhKQ,kNOr6_g6QfBHdhf89j3g5w
176,Win Son,Taiwanese,4.0,$$,159 Graham Ave,40.70747,-73.94339,https://www.yelp.com/biz/win-son-brooklyn-4?adjust_creative=-uBzzloii2ivvF3N0jkhKQ&utm_campaign=yelp_api_v3&utm_medium=api_v3_business_search&utm_source=-uBzzloii2ivvF3N0jkhKQ,3gqKLANaXNsHZnPDjKrcTg
177,Alta,Tapas Bars,4.0,$$$,64 W 10th St,40.7345163811398,-73.9983369619683,https://www.yelp.com/biz/alta-new-york?adjust_creative=-uBzzloii2ivvF3N0jkhKQ&utm_campaign=yelp_api_v3&utm_medium=api_v3_business_search&utm_source=-uBzzloii2ivvF3N0jkhKQ,XEugUtbw4rRmGr9S1XA-aQ
178,nonono,Tapas/Small Plates,4.0,$$$,118 Madison Ave,40.74545,-73.98499,https://www.yelp.com/biz/nonono-new-york-6?adjust_creative=-uBzzloii2ivvF3N0jkhKQ&utm_campaign=yelp_api_v3&utm_medium=api_v3_business_search&utm_source=-uBzzloii2ivvF3N0jkhKQ,qm1J_dPA5IHij1oAnoZwHw
179,Uluh,Tea Rooms,4.5,$$$,152 2nd Ave,40.7293403,-73.9866071,https://www.yelp.com/biz/uluh-new-york?adjust_creative=-uBzzloii2ivvF3N0jkhKQ&utm_campaign=yelp_api_v3&utm_medium=api_v3_business_search&utm_source=-uBzzloii2ivvF3N0jkhKQ,4FD0TAxe70nb3ngk3sXF9Q
180,Ugly Baby,Thai,4.5,$$,407 Smith St,40.67795,-73.9961,https://www.yelp.com/biz/ugly-baby-brooklyn-3?adjust_creative=-uBzzloii2ivvF3N0jkhKQ&utm_campaign=yelp_api_v3&utm_medium=api_v3_business_search&utm_source=-uBzzloii2ivvF3N0jkhKQ,e64Y17DJgjotSz8B9gEI7Q
181,Top Thai Greenwich,Thai,4.5,$$,235 Sullivan St,40.729771,-73.999392,https://www.yelp.com/biz/top-thai-greenwich-new-york?adjust_creative=-uBzzloii2ivvF3N0jkhKQ&utm_campaign=yelp_api_v3&utm_medium=api_v3_business_search&utm_source=-uBzzloii2ivvF3N0jkhKQ,wGFSTTB6b4MHJJUzBnVJeg
182,Soothr,Thai,4.5,$$,204 E 13th St,40.732259,-73.987363,https://www.yelp.com/biz/soothr-new-york-2?adjust_creative=-uBzzloii2ivvF3N0jkhKQ&utm_campaign=yelp_api_v3&utm_medium=api_v3_business_search&utm_source=-uBzzloii2ivvF3N0jkhKQ,-XYp6w50XbZfS90YddS5ew
183,Thai Diner,Thai,4.0,$$,186 Mott St,40.72071042964739,-73.9956057,https://www.yelp.com/biz/thai-diner-new-york?adjust_creative=-uBzzloii2ivvF3N0jkhKQ&utm_campaign=yelp_api_v3&utm_medium=api_v3_business_search&utm_source=-uBzzloii2ivvF3N0jkhKQ,XgiG7K7ubHsj2JJ-c2sXnw
184,Thai Villa,Thai,4.5,$$,5 E 19th St,40.73902,-73.99065,https://www.yelp.com/biz/thai-villa-new-york-2?adjust_creative=-uBzzloii2ivvF3N0jkhKQ&utm_campaign=yelp_api_v3&utm_medium=api_v3_business_search&utm_source=-uBzzloii2ivvF3N0jkhKQ,B3_K2kUVbYOU0VaLcj_LTw
185,LoveMama,Thai,4.5,$$,174 2nd Ave,40.730408722512074,-73.98612673033213,https://www.yelp.com/biz/lovemama-new-york?adjust_creative=-uBzzloii2ivvF3N0jkhKQ&utm_campaign=yelp_api_v3&utm_medium=api_v3_business_search&utm_source=-uBzzloii2ivvF3N0jkhKQ,jjJc_CrkB2HodEinB6cWww
186,Wayla,Thai,4.5,$$,100 Forsyth St,40.7183,-73.9926038,https://www.yelp.com/biz/wayla-new-york?adjust_creative=-uBzzloii2ivvF3N0jkhKQ&utm_campaign=yelp_api_v3&utm_medium=api_v3_business_search&utm_source=-uBzzloii2ivvF3N0jkhKQ,liZmIO0FqZwslLJfLDkfgw
187,Da Andrea,Tuscan,4.0,$$,35 W 13th St,40.736218,-73.99597,https://www.yelp.com/biz/da-andrea-new-york?adjust_creative=-uBzzloii2ivvF3N0jkhKQ&utm_campaign=yelp_api_v3&utm_medium=api_v3_business_search&utm_source=-uBzzloii2ivvF3N0jkhKQ,hdiuRS9sVZSMReZm4oV5SA
188,Threes Brewing,Venues & Event Spaces,4.0,$$,333 Douglass St,40.6797218322754,-73.9821624755859,https://www.yelp.com/biz/threes-brewing-brooklyn?adjust_creative=-uBzzloii2ivvF3N0jkhKQ&utm_campaign=yelp_api_v3&utm_medium=api_v3_business_search&utm_source=-uBzzloii2ivvF3N0jkhKQ,hKChLzaG8tyrSrg3U_wRNw
189,5ive Spice,Vietnamese,4.5,$$,227 Mulberry St,40.722598,-73.996272,https://www.yelp.com/biz/5ive-spice-new-york-2?adjust_creative=-uBzzloii2ivvF3N0jkhKQ&utm_campaign=yelp_api_v3&utm_medium=api_v3_business_search&utm_source=-uBzzloii2ivvF3N0jkhKQ,9fG8-RRh1rzuCKN2TmF-QQ
190,Saigon Social,Vietnamese,,,172 Orchard St,40.721476,-73.988248,,
191,5ive Spice,Vietnamese,4.5,$$,52 5th Ave,40.681442,-73.977241,https://www.yelp.com/biz/5ive-spice-brooklyn-3?adjust_creative=-uBzzloii2ivvF3N0jkhKQ&utm_campaign=yelp_api_v3&utm_medium=api_v3_business_search&utm_source=-uBzzloii2ivvF3N0jkhKQ,SSDOkx5enfRH3nsniS_2jA
192,Em Vietnamese Bistro,Vietnamese,4.5,$$,57 Front St,40.702670064808366,-73.99118578021728,https://www.yelp.com/biz/em-vietnamese-bistro-brooklyn?adjust_creative=-uBzzloii2ivvF3N0jkhKQ&utm_campaign=yelp_api_v3&utm_medium=api_v3_business_search&utm_source=-uBzzloii2ivvF3N0jkhKQ,9I8mZXCkGZBmFh5fYOYorw
193,High Lúa Vietnamese Kitchen,Vietnamese,4.5,$$,182 S 2nd St,40.71258,-73.96045,https://www.yelp.com/biz/high-l%C3%BAa-vietnamese-kitchen-brooklyn?adjust_creative=-uBzzloii2ivvF3N0jkhKQ&utm_campaign=yelp_api_v3&utm_medium=api_v3_business_search&utm_source=-uBzzloii2ivvF3N0jkhKQ,gl9UKHI6G-JhIBjjLFOhYA
194,Saigon Shack,Vietnamese,4.0,$$,114 Macdougal St,40.72969,-74.000629,https://www.yelp.com/biz/saigon-shack-new-york?adjust_creative=-uBzzloii2ivvF3N0jkhKQ&utm_campaign=yelp_api_v3&utm_medium=api_v3_business_search&utm_source=-uBzzloii2ivvF3N0jkhKQ,7Qvh0oFRsoqrO9qNlcMKXQ
195,Nón Lá,Vietnamese,4.5,$$,128 E 4th St,40.725287,-73.987563,https://www.yelp.com/biz/n%C3%B3n-l%C3%A1-new-york-10?adjust_creative=-uBzzloii2ivvF3N0jkhKQ&utm_campaign=yelp_api_v3&utm_medium=api_v3_business_search&utm_source=-uBzzloii2ivvF3N0jkhKQ,8zTyhMq0ki83WoWrq4D0qw
196,Leland Eating and Drinking House ,Wine Bars,,,755 Dean St,40.679822105618534,-73.96511882543564,,
197,Ruffian,Wine Bars,4.5,$$,125 E 7th St,40.7264,-73.98411,https://www.yelp.com/biz/ruffian-new-york-4?adjust_creative=-uBzzloii2ivvF3N0jkhKQ&utm_campaign=yelp_api_v3&utm_medium=api_v3_business_search&utm_source=-uBzzloii2ivvF3N0jkhKQ,fFkqEyupjc5x2iJQIPcpLw
198,The Four Horsemen,Wine Bars,4.5,$$,295 Grand St,40.71305,-73.95732,https://www.yelp.com/biz/the-four-horsemen-brooklyn?adjust_creative=-uBzzloii2ivvF3N0jkhKQ&utm_campaign=yelp_api_v3&utm_medium=api_v3_business_search&utm_source=-uBzzloii2ivvF3N0jkhKQ,Orbsfc3nI21mQ8cwSPahhg
199,City Vineyard,Wine Bars,4.0,$$,233 West St,40.7205582,-74.0118093,https://www.yelp.com/biz/city-vineyard-new-york?adjust_creative=-uBzzloii2ivvF3N0jkhKQ&utm_campaign=yelp_api_v3&utm_medium=api_v3_business_search&utm_source=-uBzzloii2ivvF3N0jkhKQ,ooYUO3Pq_qypc1NXFzeLYQ
