,Restaurant,Type,Rating,Price,Address,Lat,Lng,url,ID
0,Hearth,American (New),4.0,$$$,403 East 12th St,40.730006,-73.983225,https://www.yelp.com/biz/hearth-new-york?adjust_creative=-uBzzloii2ivvF3N0jkhKQ&utm_campaign=yelp_api_v3&utm_medium=api_v3_business_search&utm_source=-uBzzloii2ivvF3N0jkhKQ,7Oq1UdUHUGZGH_QI6N-0LQ
1,The Wheelhouse,American (New),4.0,$$,165 Wilson Ave,40.700122,-73.924188,https://www.yelp.com/biz/the-wheelhouse-brooklyn-2?adjust_creative=-uBzzloii2ivvF3N0jkhKQ&utm_campaign=yelp_api_v3&utm_medium=api_v3_business_search&utm_source=-uBzzloii2ivvF3N0jkhKQ,oXnJEg_AScyrR1lO4dnAfw
2,The Bluebell Cafe,American (New),4.0,$$,293 3rd Ave,40.73845,-73.98321,https://www.yelp.com/biz/the-bluebell-cafe-new-york?adjust_creative=-uBzzloii2ivvF3N0jkhKQ&utm_campaign=yelp_api_v3&utm_medium=api_v3_business_search&utm_source=-uBzzloii2ivvF3N0jkhKQ,63nYipWuA42RZmESBMUNkQ
3,Upland,American (New),4.0,$$$,345 Park Ave S,40.7418912,-73.9846396,https://www.yelp.com/biz/upland-new-york?adjust_creative=-uBzzloii2ivvF3N0jkhKQ&utm_campaign=yelp_api_v3&utm_medium=api_v3_business_search&utm_source=-uBzzloii2ivvF3N0jkhKQ,xkvv0n7jbl4Ra3Vm_jfxaA
4,BLACKBARN,American (New),4.0,$$$,19 E 26th St,40.7431036278527,-73.9870538457459,https://www.yelp.com/biz/blackbarn-new-york?adjust_creative=-uBzzloii2ivvF3N0jkhKQ&utm_campaign=yelp_api_v3&utm_medium=api_v3_business_search&utm_source=-uBzzloii2ivvF3N0jkhKQ,Lw044EfH1h3XhUhri3ExfA
5,Robert,American (New),4.0,$$$,2 Columbus Cir,40.767394,-73.982036,https://www.yelp.com/biz/robert-new-york-25?adjust_creative=-uBzzloii2ivvF3N0jkhKQ&utm_campaign=yelp_api_v3&utm_medium=api_v3_business_search&utm_source=-uBzzloii2ivvF3N0jkhKQ,h8XLhVVPoYPYodZqQOjRMw
6,Purbird,American (New),4.0,$$,82 Sixth Ave,40.67985,-73.97518,https://www.yelp.com/biz/purbird-brooklyn?adjust_creative=-uBzzloii2ivvF3N0jkhKQ&utm_campaign=yelp_api_v3&utm_medium=api_v3_business_search&utm_source=-uBzzloii2ivvF3N0jkhKQ,shTLI1GCcZ9rosFdt8d2Xg
7,Harvest Kitchen,American (New),4.0,$$,269 Columbus Ave,40.777697,-73.978357,https://www.yelp.com/biz/harvest-kitchen-new-york?adjust_creative=-uBzzloii2ivvF3N0jkhKQ&utm_campaign=yelp_api_v3&utm_medium=api_v3_business_search&utm_source=-uBzzloii2ivvF3N0jkhKQ,PYmjoid5P-Mw8dkkKxZy6w
8,Union Square Cafe,American (New),4.0,$$$,101 E 19th St,40.737772,-73.987876,https://www.yelp.com/biz/union-square-cafe-new-york-8?adjust_creative=-uBzzloii2ivvF3N0jkhKQ&utm_campaign=yelp_api_v3&utm_medium=api_v3_business_search&utm_source=-uBzzloii2ivvF3N0jkhKQ,lXGCo-K7eftxRT_6E59-Iw
9,Tribeca's Kitchen,American (New),4.0,$$,200 Church St,40.7162705535921,-74.0072225927912,https://www.yelp.com/biz/tribecas-kitchen-new-york?adjust_creative=-uBzzloii2ivvF3N0jkhKQ&utm_campaign=yelp_api_v3&utm_medium=api_v3_business_search&utm_source=-uBzzloii2ivvF3N0jkhKQ,MHtbBc2np3sR7jiV9GphNg
10,Tribeca's Kitchen,American (New),4.0,$$,200 Church St,40.7162705535921,-74.0072225927912,https://www.yelp.com/biz/tribecas-kitchen-new-york?adjust_creative=-uBzzloii2ivvF3N0jkhKQ&utm_campaign=yelp_api_v3&utm_medium=api_v3_business_search&utm_source=-uBzzloii2ivvF3N0jkhKQ,MHtbBc2np3sR7jiV9GphNg
11,L'ADRESSE,American (New),4.0,$$$,1065 Ave Of The Americas,40.75403,-73.98539,https://www.yelp.com/biz/l-adresse-new-york?adjust_creative=-uBzzloii2ivvF3N0jkhKQ&utm_campaign=yelp_api_v3&utm_medium=api_v3_business_search&utm_source=-uBzzloii2ivvF3N0jkhKQ,scjoZtbTQHi35xhAlUm2iQ
12,Tavern on Jane,American (New),4.0,$$,31 8th Ave,40.73822,-74.00426,https://www.yelp.com/biz/tavern-on-jane-new-york?adjust_creative=-uBzzloii2ivvF3N0jkhKQ&utm_campaign=yelp_api_v3&utm_medium=api_v3_business_search&utm_source=-uBzzloii2ivvF3N0jkhKQ,38YuedP0ItlKbC-ncJ1XCQ
13,Brooklyn Blend,American (New),4.5,$$,194 Tompkins Ave,40.6923575699329,-73.9457686990499,https://www.yelp.com/biz/brooklyn-blend-brooklyn?adjust_creative=-uBzzloii2ivvF3N0jkhKQ&utm_campaign=yelp_api_v3&utm_medium=api_v3_business_search&utm_source=-uBzzloii2ivvF3N0jkhKQ,X3ToKHjzofO8EzfiHYewWg
14,Marlow & Sons,American (New),4.0,$$$,81 Broadway,40.7106126934043,-73.9658814005443,https://www.yelp.com/biz/marlow-and-sons-brooklyn-2?adjust_creative=-uBzzloii2ivvF3N0jkhKQ&utm_campaign=yelp_api_v3&utm_medium=api_v3_business_search&utm_source=-uBzzloii2ivvF3N0jkhKQ,G18cPTEjuxXx957dGYBDAQ
15,The Smith,American (New),4.0,$$,956 2nd Ave,40.755165,-73.967868,https://www.yelp.com/biz/the-smith-new-york-2?adjust_creative=-uBzzloii2ivvF3N0jkhKQ&utm_campaign=yelp_api_v3&utm_medium=api_v3_business_search&utm_source=-uBzzloii2ivvF3N0jkhKQ,C-8mGN7lt5rIraO5n-15ug
16,Dimes,American (New),3.5,$$,49 Canal St,40.714973,-73.991539,https://www.yelp.com/biz/dimes-new-york-3?adjust_creative=-uBzzloii2ivvF3N0jkhKQ&utm_campaign=yelp_api_v3&utm_medium=api_v3_business_search&utm_source=-uBzzloii2ivvF3N0jkhKQ,8UwRTdW4OtSEI2rJ_p1zGg
17,Westville Dumbo,American (New),4.0,$$,81 Washington St,40.70208865020039,-73.9894541379247,https://www.yelp.com/biz/westville-dumbo-brooklyn?adjust_creative=-uBzzloii2ivvF3N0jkhKQ&utm_campaign=yelp_api_v3&utm_medium=api_v3_business_search&utm_source=-uBzzloii2ivvF3N0jkhKQ,56qlj1cYlqNzmG0xllGg-w
18,Cafeteria,American (New),3.5,$$,119 7th Ave,40.740567590122,-73.9980747946,https://www.yelp.com/biz/cafeteria-new-york?adjust_creative=-uBzzloii2ivvF3N0jkhKQ&utm_campaign=yelp_api_v3&utm_medium=api_v3_business_search&utm_source=-uBzzloii2ivvF3N0jkhKQ,UXVDyIzmO5kmJnlv-HDXLg
19,High Street On Hudson,American (New),4.0,$$,637 Hudson St,40.73888,-74.00574,https://www.yelp.com/biz/high-street-on-hudson-new-york?adjust_creative=-uBzzloii2ivvF3N0jkhKQ&utm_campaign=yelp_api_v3&utm_medium=api_v3_business_search&utm_source=-uBzzloii2ivvF3N0jkhKQ,Oq1mej1BYfjcdPKkM_5o8g
20,Bar Bruno,American (New),4.0,$$,520 Henry St,40.6833674,-73.9997959,https://www.yelp.com/biz/bar-bruno-brooklyn-2?adjust_creative=-uBzzloii2ivvF3N0jkhKQ&utm_campaign=yelp_api_v3&utm_medium=api_v3_business_search&utm_source=-uBzzloii2ivvF3N0jkhKQ,zupIzmhdcH0U6vJQQxDBiQ
21,Westville Hell's Kitchen,American (New),4.5,$$,809 9th Ave,40.76577,-73.9875,https://www.yelp.com/biz/westville-hells-kitchen-new-york?adjust_creative=-uBzzloii2ivvF3N0jkhKQ&utm_campaign=yelp_api_v3&utm_medium=api_v3_business_search&utm_source=-uBzzloii2ivvF3N0jkhKQ,0moBSyrTezcT3uePV74nug
22,Bus Stop Cafe,American (New),4.0,$$,597 Hudson St,40.73702,-74.00595,https://www.yelp.com/biz/bus-stop-cafe-new-york?adjust_creative=-uBzzloii2ivvF3N0jkhKQ&utm_campaign=yelp_api_v3&utm_medium=api_v3_business_search&utm_source=-uBzzloii2ivvF3N0jkhKQ,hgQxxv1WlmI7lMjLjp-2zA
23,Westville Chelsea,American (New),4.0,$$,246 W 18th St,40.74175,-74.00007,https://www.yelp.com/biz/westville-chelsea-new-york-2?adjust_creative=-uBzzloii2ivvF3N0jkhKQ&utm_campaign=yelp_api_v3&utm_medium=api_v3_business_search&utm_source=-uBzzloii2ivvF3N0jkhKQ,MctQwL9Mp5X7DJk13VoERg
24,Natureworks,American (New),4.0,$$,113 E 31st St,40.745068,-73.981859,https://www.yelp.com/biz/natureworks-new-york-2?adjust_creative=-uBzzloii2ivvF3N0jkhKQ&utm_campaign=yelp_api_v3&utm_medium=api_v3_business_search&utm_source=-uBzzloii2ivvF3N0jkhKQ,Y39SdfmS0Z_GepcFnFqlMA
25,The Richmond,American (New),,,695 Bay St,40.62508,-74.07463,,
26,Montagu's Gusto,American (New),4.5,$,645 2nd Ave,40.74571,-73.97553,https://www.yelp.com/biz/montagus-gusto-new-york?adjust_creative=-uBzzloii2ivvF3N0jkhKQ&utm_campaign=yelp_api_v3&utm_medium=api_v3_business_search&utm_source=-uBzzloii2ivvF3N0jkhKQ,or0Op4EDk95L0vhLwSATcQ
27,Simple Cafe & Restaurant,American (New),4.0,$$,346 Bedford Ave,40.71244,-73.96275,https://www.yelp.com/biz/simple-cafe-and-restaurant-brooklyn?adjust_creative=-uBzzloii2ivvF3N0jkhKQ&utm_campaign=yelp_api_v3&utm_medium=api_v3_business_search&utm_source=-uBzzloii2ivvF3N0jkhKQ,ArfL-sU2FaB73WV1qQ4c6Q
28,Sweetwater Restaurant,American (New),4.0,$$,105 N 6th St,40.7184736,-73.9600178,https://www.yelp.com/biz/sweetwater-restaurant-brooklyn-2?adjust_creative=-uBzzloii2ivvF3N0jkhKQ&utm_campaign=yelp_api_v3&utm_medium=api_v3_business_search&utm_source=-uBzzloii2ivvF3N0jkhKQ,8wMJdpw2R_4VfS55itB_gQ
29,Fort Defiance,American (New),4.0,$$,347 Van Brunt St,40.67719,-74.01291,https://www.yelp.com/biz/fort-defiance-brooklyn?adjust_creative=-uBzzloii2ivvF3N0jkhKQ&utm_campaign=yelp_api_v3&utm_medium=api_v3_business_search&utm_source=-uBzzloii2ivvF3N0jkhKQ,lQKKBtdp7No9HJ_tW6PuAQ
30,Kitchen at Cobble Hill,American (New),3.5,$$,254 Court St,40.68528,-73.99466,https://www.yelp.com/biz/kitchen-at-cobble-hill-brooklyn?adjust_creative=-uBzzloii2ivvF3N0jkhKQ&utm_campaign=yelp_api_v3&utm_medium=api_v3_business_search&utm_source=-uBzzloii2ivvF3N0jkhKQ,vYHT1mRQMOGgSYyPGmMo2w
31,Lincoln Station,American (Traditional),4.0,$$,409 Lincoln Pl,40.6726102,-73.9627163,https://www.yelp.com/biz/lincoln-station-brooklyn?adjust_creative=-uBzzloii2ivvF3N0jkhKQ&utm_campaign=yelp_api_v3&utm_medium=api_v3_business_search&utm_source=-uBzzloii2ivvF3N0jkhKQ,szM1B9tHQixNsmTZTfKoWA
32,Westville East,American (Traditional),4.0,$$,173 Ave A,40.72847,-73.98213,https://www.yelp.com/biz/westville-east-new-york-3?adjust_creative=-uBzzloii2ivvF3N0jkhKQ&utm_campaign=yelp_api_v3&utm_medium=api_v3_business_search&utm_source=-uBzzloii2ivvF3N0jkhKQ,3idAtiEXe_XfTcPoZC_DcQ
33,Red Hook Tavern,American (Traditional),,,329 Van Brunt St,40.67788,-74.01209,,
34,Westville - Wall St,American (Traditional),4.0,$$,110 Wall St,40.70478,-74.00652,https://www.yelp.com/biz/westville-wall-st-new-york-5?adjust_creative=-uBzzloii2ivvF3N0jkhKQ&utm_campaign=yelp_api_v3&utm_medium=api_v3_business_search&utm_source=-uBzzloii2ivvF3N0jkhKQ,xefmiLAsKURFc6FDGSRgfQ
35,Heights Deli & Grill,American (Traditional),,,557 Palisade Ave,40.74768,-74.04227,,
36,The Brooklyn Tree,American (Traditional),4.5,$$,188 Montrose Ave,40.70734,-73.94186,https://www.yelp.com/biz/the-brooklyn-tree-brooklyn-2?adjust_creative=-uBzzloii2ivvF3N0jkhKQ&utm_campaign=yelp_api_v3&utm_medium=api_v3_business_search&utm_source=-uBzzloii2ivvF3N0jkhKQ,8JDwcklaawqYprHg0c9aIA
37,Cafe Panino Mucho Giusto,Bagels,4.0,$,551 Hudson St,40.735256,-74.006309,https://www.yelp.com/biz/cafe-panino-mucho-giusto-new-york?adjust_creative=-uBzzloii2ivvF3N0jkhKQ&utm_campaign=yelp_api_v3&utm_medium=api_v3_business_search&utm_source=-uBzzloii2ivvF3N0jkhKQ,jewdjZyGcAXIepOeTBae6g
38,Ess-a-Bagel,Bakeries,4.0,$,831 3rd Ave,40.756300559255,-73.9703701025162,https://www.yelp.com/biz/ess-a-bagel-new-york?adjust_creative=-uBzzloii2ivvF3N0jkhKQ&utm_campaign=yelp_api_v3&utm_medium=api_v3_business_search&utm_source=-uBzzloii2ivvF3N0jkhKQ,c3eMI4_o4dPDDhPV_ibBYQ
39,Breads Bakery,Bakeries,4.5,$$,18 E 16th St,40.73661,-73.99181,https://www.yelp.com/biz/breads-bakery-new-york?adjust_creative=-uBzzloii2ivvF3N0jkhKQ&utm_campaign=yelp_api_v3&utm_medium=api_v3_business_search&utm_source=-uBzzloii2ivvF3N0jkhKQ,mU23NlQfn1R9OhA6WMe_xg
40,Amy's Bread,Bakeries,4.0,$,672 9th Ave,40.76121,-73.99024,https://www.yelp.com/biz/amys-bread-new-york?adjust_creative=-uBzzloii2ivvF3N0jkhKQ&utm_campaign=yelp_api_v3&utm_medium=api_v3_business_search&utm_source=-uBzzloii2ivvF3N0jkhKQ,n-hBKsnFFUpe-y00EZrOqg
41,Junior's Restaurant & Bakery - 45th St,Bakeries,4.0,$$,1515 Broadway,40.75754564001459,-73.98608001118411,https://www.yelp.com/biz/juniors-restaurant-and-bakery-45th-st-new-york?adjust_creative=-uBzzloii2ivvF3N0jkhKQ&utm_campaign=yelp_api_v3&utm_medium=api_v3_business_search&utm_source=-uBzzloii2ivvF3N0jkhKQ,U5hCNNyJmb7f3dmC1HTzSQ
42,Le Pain Quotidien,Bakeries,3.5,$$,100 Grand St,40.7215006,-74.001552,https://www.yelp.com/biz/le-pain-quotidien-new-york-158?adjust_creative=-uBzzloii2ivvF3N0jkhKQ&utm_campaign=yelp_api_v3&utm_medium=api_v3_business_search&utm_source=-uBzzloii2ivvF3N0jkhKQ,JQI9jo2g_OIxkMIumpMtXQ
43,Juliette,Bars,3.5,$$,135C N 5th St,40.71702,-73.959077,https://www.yelp.com/biz/juliette-brooklyn?adjust_creative=-uBzzloii2ivvF3N0jkhKQ&utm_campaign=yelp_api_v3&utm_medium=api_v3_business_search&utm_source=-uBzzloii2ivvF3N0jkhKQ,emTmnLlesIwxRofQ34ntdA
44,Belle Reve,Bars,4.0,$$,305 Church St,40.7194897,-74.0041143883606,https://www.yelp.com/biz/belle-reve-new-york?adjust_creative=-uBzzloii2ivvF3N0jkhKQ&utm_campaign=yelp_api_v3&utm_medium=api_v3_business_search&utm_source=-uBzzloii2ivvF3N0jkhKQ,qcMpRNrnS6gggYv28dgm_A
45,The Rag Trader & Bo Peep Cocktail and Highball Store,Bars,4.5,$$,70 W 36th St,40.75059,-73.98628,https://www.yelp.com/biz/the-rag-trader-and-bo-peep-cocktail-and-highball-store-new-york?adjust_creative=-uBzzloii2ivvF3N0jkhKQ&utm_campaign=yelp_api_v3&utm_medium=api_v3_business_search&utm_source=-uBzzloii2ivvF3N0jkhKQ,qCf1QN11Qdncpqb7PhuyVw
46,Tiny's & The Bar Upstairs,Bars,4.0,$$,135 W Broadway,40.716698,-74.00816,https://www.yelp.com/biz/tinys-and-the-bar-upstairs-new-york-2?adjust_creative=-uBzzloii2ivvF3N0jkhKQ&utm_campaign=yelp_api_v3&utm_medium=api_v3_business_search&utm_source=-uBzzloii2ivvF3N0jkhKQ,BSv3awhABROYjjwlQaQ-Qw
47,Colonie,Breakfast & Brunch,4.0,$$$,127 Atlantic Ave,40.6909,-73.9958,https://www.yelp.com/biz/colonie-brooklyn?adjust_creative=-uBzzloii2ivvF3N0jkhKQ&utm_campaign=yelp_api_v3&utm_medium=api_v3_business_search&utm_source=-uBzzloii2ivvF3N0jkhKQ,wouDDTacUIBaRp8YGCFTsA
48,Sunflower - Gramercy,Breakfast & Brunch,4.5,$$,335 3rd Ave,40.7399,-73.98219,https://www.yelp.com/biz/sunflower-gramercy-new-york-3?adjust_creative=-uBzzloii2ivvF3N0jkhKQ&utm_campaign=yelp_api_v3&utm_medium=api_v3_business_search&utm_source=-uBzzloii2ivvF3N0jkhKQ,zV1_EFMN4VY7Rxpv7P-ajg
49,Toasties,Breakfast & Brunch,3.5,$,23 E 51st St,40.758511,-73.9748188,https://www.yelp.com/biz/toasties-new-york-9?adjust_creative=-uBzzloii2ivvF3N0jkhKQ&utm_campaign=yelp_api_v3&utm_medium=api_v3_business_search&utm_source=-uBzzloii2ivvF3N0jkhKQ,F2TE6sQpywj3bkVi8L_nLw
50,Ruby's - Murray Hill,Breakfast & Brunch,4.0,$$,442 3rd Ave,40.74364,-73.97985,https://www.yelp.com/biz/rubys-murray-hill-new-york-2?adjust_creative=-uBzzloii2ivvF3N0jkhKQ&utm_campaign=yelp_api_v3&utm_medium=api_v3_business_search&utm_source=-uBzzloii2ivvF3N0jkhKQ,DW5SL9RM-kJnmRyYo4oEqg
51,Jane,Breakfast & Brunch,4.0,$$,100 W Houston St,40.7273779,-74.00025,https://www.yelp.com/biz/jane-new-york-2?adjust_creative=-uBzzloii2ivvF3N0jkhKQ&utm_campaign=yelp_api_v3&utm_medium=api_v3_business_search&utm_source=-uBzzloii2ivvF3N0jkhKQ,uoT2_Wrt1noD6kZOID7tUg
52,Alice's Tea Cup Chapter I,Breakfast & Brunch,4.0,$$,102 W 73rd St,40.77802,-73.9787,https://www.yelp.com/biz/alices-tea-cup-chapter-i-new-york?adjust_creative=-uBzzloii2ivvF3N0jkhKQ&utm_campaign=yelp_api_v3&utm_medium=api_v3_business_search&utm_source=-uBzzloii2ivvF3N0jkhKQ,kaSd6qzlsxn__ILDtGf3iA
53,Honeybrains,Breakfast & Brunch,4.0,$$,372 Lafayette St,40.727156,-73.993962,https://www.yelp.com/biz/honeybrains-new-york-2?adjust_creative=-uBzzloii2ivvF3N0jkhKQ&utm_campaign=yelp_api_v3&utm_medium=api_v3_business_search&utm_source=-uBzzloii2ivvF3N0jkhKQ,ElngKkPciE61tzzPgoYFhQ
54,Cebu Bar & Bistro,Breakfast & Brunch,4.0,$$,8801 3rd Ave,40.62186,-74.031383,https://www.yelp.com/biz/cebu-bar-and-bistro-brooklyn-2?adjust_creative=-uBzzloii2ivvF3N0jkhKQ&utm_campaign=yelp_api_v3&utm_medium=api_v3_business_search&utm_source=-uBzzloii2ivvF3N0jkhKQ,uuHujhrkVQdS8XVSGWW2mA
55,Cebu Bar & Bistro,Breakfast & Brunch,4.0,$$,8801 3rd Ave,40.62186,-74.031383,https://www.yelp.com/biz/cebu-bar-and-bistro-brooklyn-2?adjust_creative=-uBzzloii2ivvF3N0jkhKQ&utm_campaign=yelp_api_v3&utm_medium=api_v3_business_search&utm_source=-uBzzloii2ivvF3N0jkhKQ,uuHujhrkVQdS8XVSGWW2mA
56,Jack's Wife Freda,Breakfast & Brunch,4.0,$$,224 Lafayette St,40.72213,-73.99756,https://www.yelp.com/biz/jacks-wife-freda-new-york?adjust_creative=-uBzzloii2ivvF3N0jkhKQ&utm_campaign=yelp_api_v3&utm_medium=api_v3_business_search&utm_source=-uBzzloii2ivvF3N0jkhKQ,Me4TxTbPPQZQopW1wOGx5g
57,Cafe Cluny,Breakfast & Brunch,4.0,$$$,284 W 12th St,40.737385,-74.003966,https://www.yelp.com/biz/cafe-cluny-new-york-3?adjust_creative=-uBzzloii2ivvF3N0jkhKQ&utm_campaign=yelp_api_v3&utm_medium=api_v3_business_search&utm_source=-uBzzloii2ivvF3N0jkhKQ,kMljfja7weqfl_lzspjzHA
58,Lenwich,Breakfast & Brunch,3.0,$$,120 University Pl,40.734715,-73.99235,https://www.yelp.com/biz/lenwich-new-york-26?adjust_creative=-uBzzloii2ivvF3N0jkhKQ&utm_campaign=yelp_api_v3&utm_medium=api_v3_business_search&utm_source=-uBzzloii2ivvF3N0jkhKQ,nsIHA99ryl_1xDjRtyVJDA
59,The Blue Dog Cookhouse & Bar,Breakfast & Brunch,4.0,$$,308 W 50th St,40.76244,-73.98674,https://www.yelp.com/biz/the-blue-dog-cookhouse-and-bar-new-york?adjust_creative=-uBzzloii2ivvF3N0jkhKQ&utm_campaign=yelp_api_v3&utm_medium=api_v3_business_search&utm_source=-uBzzloii2ivvF3N0jkhKQ,I6optu9x0JAf8oT5lqJ8qw
60,Good Enough to Eat,Breakfast & Brunch,3.5,$$,520 Columbus Ave,40.7859436042416,-73.9727859590175,https://www.yelp.com/biz/good-enough-to-eat-new-york?adjust_creative=-uBzzloii2ivvF3N0jkhKQ&utm_campaign=yelp_api_v3&utm_medium=api_v3_business_search&utm_source=-uBzzloii2ivvF3N0jkhKQ,cQxtisUT6TgEGSN7gpnTDg
61,Maman Soho,Cafes,4.0,$$,239 Centre St,40.72028,-73.9984,https://www.yelp.com/biz/maman-soho-new-york?adjust_creative=-uBzzloii2ivvF3N0jkhKQ&utm_campaign=yelp_api_v3&utm_medium=api_v3_business_search&utm_source=-uBzzloii2ivvF3N0jkhKQ,DE0ROwygh-86i4s-WLp8wQ
62,Blank Slate Coffee + Kitchen Midtown,Cafes,4.5,$$,941 2nd Ave,40.75485,-73.96878,https://www.yelp.com/biz/blank-slate-coffee-kitchen-midtown-new-york-2?adjust_creative=-uBzzloii2ivvF3N0jkhKQ&utm_campaign=yelp_api_v3&utm_medium=api_v3_business_search&utm_source=-uBzzloii2ivvF3N0jkhKQ,6uPzZapAHWEalyJdkjBqKw
63,CC's Cafe,Cafes,4.5,$$,41 Monroe St,40.71166,-73.99452,https://www.yelp.com/biz/ccs-cafe-new-york-2?adjust_creative=-uBzzloii2ivvF3N0jkhKQ&utm_campaign=yelp_api_v3&utm_medium=api_v3_business_search&utm_source=-uBzzloii2ivvF3N0jkhKQ,RKAK9AuzKR7K36ABcXPjTA
64,The Picnic Basket,Cafes,4.0,$$,65 W 37th St,40.7516246,-73.9858858,https://www.yelp.com/biz/the-picnic-basket-new-york?adjust_creative=-uBzzloii2ivvF3N0jkhKQ&utm_campaign=yelp_api_v3&utm_medium=api_v3_business_search&utm_source=-uBzzloii2ivvF3N0jkhKQ,qYqe-kArMUebiEvxUPUlVg
65,Citizens of Bleecker,Cafes,4.0,$$,155 Bleecker St,40.728603,-73.999672,https://www.yelp.com/biz/citizens-of-bleecker-new-york?adjust_creative=-uBzzloii2ivvF3N0jkhKQ&utm_campaign=yelp_api_v3&utm_medium=api_v3_business_search&utm_source=-uBzzloii2ivvF3N0jkhKQ,ggxuLGEkOM_yGhMvPjCteA
66,La Parisienne,Cafes,4.5,$$,9 Maiden Ln,40.70961,-74.0093799,https://www.yelp.com/biz/la-parisienne-new-york-5?adjust_creative=-uBzzloii2ivvF3N0jkhKQ&utm_campaign=yelp_api_v3&utm_medium=api_v3_business_search&utm_source=-uBzzloii2ivvF3N0jkhKQ,xTnivXEdEtXrnhp-z4JGvg
67,Secret Garden,Cafes,,,347 Lewis Ave,40.683746,-73.935023,,
68,Banc Cafe,Cafes,4.0,$$,431 3rd Ave,40.7432632446289,-73.9795150756836,https://www.yelp.com/biz/banc-cafe-new-york-2?adjust_creative=-uBzzloii2ivvF3N0jkhKQ&utm_campaign=yelp_api_v3&utm_medium=api_v3_business_search&utm_source=-uBzzloii2ivvF3N0jkhKQ,xxE4sKeYJAuHdNm7WZlVOg
69,Porcelain,Cafes,,,880 Woodward Ave,40.702315,-73.901679,,
70,Dudley's,Cafes,4.0,$$,85 Orchard St,40.71798,-73.99042,https://www.yelp.com/biz/dudleys-new-york?adjust_creative=-uBzzloii2ivvF3N0jkhKQ&utm_campaign=yelp_api_v3&utm_medium=api_v3_business_search&utm_source=-uBzzloii2ivvF3N0jkhKQ,L7_MTRZyYp_i-cnH2CU4zQ
71,Outro,Cafes,4.0,$$,816 Broadway,40.7327799573693,-73.9910601451993,https://www.yelp.com/biz/outro-new-york?adjust_creative=-uBzzloii2ivvF3N0jkhKQ&utm_campaign=yelp_api_v3&utm_medium=api_v3_business_search&utm_source=-uBzzloii2ivvF3N0jkhKQ,IiLLntICUim7YREkIBU7lA
72,Gotan - Tribeca,Cafes,4.0,$$,130 Franklin St,40.719255,-74.006607,https://www.yelp.com/biz/gotan-tribeca-new-york-2?adjust_creative=-uBzzloii2ivvF3N0jkhKQ&utm_campaign=yelp_api_v3&utm_medium=api_v3_business_search&utm_source=-uBzzloii2ivvF3N0jkhKQ,nKpHJSu7xbGyerOjfLRzfA
73,1803,Cajun/Creole,4.5,$$,82 Reade St,40.715498,-74.007178,https://www.yelp.com/biz/1803-new-york?adjust_creative=-uBzzloii2ivvF3N0jkhKQ&utm_campaign=yelp_api_v3&utm_medium=api_v3_business_search&utm_source=-uBzzloii2ivvF3N0jkhKQ,3xTQT7qjZJIxc-eBiFMerQ
74,Bayou,Cajun/Creole,4.0,$$,1072 Bay St,40.616771,-74.068443,https://www.yelp.com/biz/bayou-staten-island?adjust_creative=-uBzzloii2ivvF3N0jkhKQ&utm_campaign=yelp_api_v3&utm_medium=api_v3_business_search&utm_source=-uBzzloii2ivvF3N0jkhKQ,hmndKMvCwTzXSAPp4KmGYg
75,DunHuang Miss Noodles,Chinese,,,531 Myrtle Ave,40.693868137768895,-73.9634565145772,,
76,B Cup Café,Coffee & Tea,4.0,$,212 Ave B,40.728708,-73.978827,https://www.yelp.com/biz/b-cup-caf%C3%A9-new-york-5?adjust_creative=-uBzzloii2ivvF3N0jkhKQ&utm_campaign=yelp_api_v3&utm_medium=api_v3_business_search&utm_source=-uBzzloii2ivvF3N0jkhKQ,ml5hBBDsEILy9WsTQyyV-Q
77,Little Collins,Coffee & Tea,4.5,$$,708 3rd Ave,40.75233,-73.97353,https://www.yelp.com/biz/little-collins-new-york-3?adjust_creative=-uBzzloii2ivvF3N0jkhKQ&utm_campaign=yelp_api_v3&utm_medium=api_v3_business_search&utm_source=-uBzzloii2ivvF3N0jkhKQ,1aD88qNRb08LGBkl84GQTA
78,The Grey Dog - Union Square,Coffee & Tea,4.0,$$,90 University Pl,40.733828,-73.993052,https://www.yelp.com/biz/the-grey-dog-union-square-new-york?adjust_creative=-uBzzloii2ivvF3N0jkhKQ&utm_campaign=yelp_api_v3&utm_medium=api_v3_business_search&utm_source=-uBzzloii2ivvF3N0jkhKQ,VCqNjupCWZ5INzOcyBMJSg
79,Ix Restaurant,Coffee & Tea,4.5,$$,43 Lincoln Rd,40.6609148441096,-73.9613892462263,https://www.yelp.com/biz/ix-restaurant-brooklyn-3?adjust_creative=-uBzzloii2ivvF3N0jkhKQ&utm_campaign=yelp_api_v3&utm_medium=api_v3_business_search&utm_source=-uBzzloii2ivvF3N0jkhKQ,mv4A3Yl90ZLONO03ksqRrg
80,Brookside Market,Coffee & Tea,4.5,$,43-15 Queens Blvd,40.7437641,-73.9208344,https://www.yelp.com/biz/brookside-market-sunnyside?adjust_creative=-uBzzloii2ivvF3N0jkhKQ&utm_campaign=yelp_api_v3&utm_medium=api_v3_business_search&utm_source=-uBzzloii2ivvF3N0jkhKQ,c8_1XxMgFLnYBLkBEL-PdA
81,C&B,Coffee & Tea,4.5,$$,178 E 7th St,40.7252271901335,-73.9816302970189,https://www.yelp.com/biz/c-and-b-new-york?adjust_creative=-uBzzloii2ivvF3N0jkhKQ&utm_campaign=yelp_api_v3&utm_medium=api_v3_business_search&utm_source=-uBzzloii2ivvF3N0jkhKQ,gjJiJ5yHqiEe3sFn_v-5JA
82,Telegraphe Cafe,Coffee & Tea,4.0,$,107 W 18th St,40.7401399,-73.99543,https://www.yelp.com/biz/telegraphe-cafe-new-york-3?adjust_creative=-uBzzloii2ivvF3N0jkhKQ&utm_campaign=yelp_api_v3&utm_medium=api_v3_business_search&utm_source=-uBzzloii2ivvF3N0jkhKQ,N6_qSesaVVrnZ5VDGFpCrg
83,The Grey Dog,Coffee & Tea,4.0,$$,242 W 16th St,40.740624,-74.000648,https://www.yelp.com/biz/the-grey-dog-new-york-5?adjust_creative=-uBzzloii2ivvF3N0jkhKQ&utm_campaign=yelp_api_v3&utm_medium=api_v3_business_search&utm_source=-uBzzloii2ivvF3N0jkhKQ,QpkKEFHK5dz8XT-osEXgJw
84,The Grey Dog - Nolita,Coffee & Tea,4.0,$$,244 Mulberry St,40.7229699,-73.99576,https://www.yelp.com/biz/the-grey-dog-nolita-new-york-3?adjust_creative=-uBzzloii2ivvF3N0jkhKQ&utm_campaign=yelp_api_v3&utm_medium=api_v3_business_search&utm_source=-uBzzloii2ivvF3N0jkhKQ,jzQNE09rRKz8Ou-bEdEY1Q
85,The Grey Dog,Coffee & Tea,4.0,$$,49 Carmine St,40.729998660113,-74.0038951001712,https://www.yelp.com/biz/the-grey-dog-new-york-6?adjust_creative=-uBzzloii2ivvF3N0jkhKQ&utm_campaign=yelp_api_v3&utm_medium=api_v3_business_search&utm_source=-uBzzloii2ivvF3N0jkhKQ,5WdsgeCz2WwN57B-eYZi7w
86,Frankel's Delicatessen,Delis,4.0,$$,631 Manhattan Ave,40.723826,-73.9509979,https://www.yelp.com/biz/frankels-delicatessen-brooklyn?adjust_creative=-uBzzloii2ivvF3N0jkhKQ&utm_campaign=yelp_api_v3&utm_medium=api_v3_business_search&utm_source=-uBzzloii2ivvF3N0jkhKQ,P91q647NhgyIf7nLc4wYsQ
87,Orchard Grocer,Delis,4.5,$$,78 Orchard St,40.717744,-73.990187,https://www.yelp.com/biz/orchard-grocer-new-york?adjust_creative=-uBzzloii2ivvF3N0jkhKQ&utm_campaign=yelp_api_v3&utm_medium=api_v3_business_search&utm_source=-uBzzloii2ivvF3N0jkhKQ,YnDs59_dEQ61TdCD4fdyEw
88,A Novel Kitchen,Desserts,,,151 Atlantic Ave,40.6905865531983,-73.99502954823993,,
89,Waverly Diner,Diners,3.5,$$,385 6th Ave,40.733152,-74.000269,https://www.yelp.com/biz/waverly-diner-new-york-2?adjust_creative=-uBzzloii2ivvF3N0jkhKQ&utm_campaign=yelp_api_v3&utm_medium=api_v3_business_search&utm_source=-uBzzloii2ivvF3N0jkhKQ,0c2L2SZVIesxaYodGMkGgA
90,Taim West Village,Falafel,4.5,$$,222 Waverly Pl,40.736002376347,-74.0019588366439,https://www.yelp.com/biz/taim-west-village-new-york?adjust_creative=-uBzzloii2ivvF3N0jkhKQ&utm_campaign=yelp_api_v3&utm_medium=api_v3_business_search&utm_source=-uBzzloii2ivvF3N0jkhKQ,j0n_poMVZnODYOFviLbh0Q
91,Petite Boucherie,French,4.5,$$$,14 Christopher St,40.73382,-74.00042,https://www.yelp.com/biz/petite-boucherie-new-york?adjust_creative=-uBzzloii2ivvF3N0jkhKQ&utm_campaign=yelp_api_v3&utm_medium=api_v3_business_search&utm_source=-uBzzloii2ivvF3N0jkhKQ,g5f6p9jfzB30Mhcu6d5OWA
92,CAFÉ LULUc,French,4.0,$$,214 Smith St,40.68451,-73.99225,https://www.yelp.com/biz/caf%C3%A9-luluc-brooklyn-2?adjust_creative=-uBzzloii2ivvF3N0jkhKQ&utm_campaign=yelp_api_v3&utm_medium=api_v3_business_search&utm_source=-uBzzloii2ivvF3N0jkhKQ,mv8dMMzzrzalso3sYCP_QA
93,Bistro Les Amis,French,4.0,$$,180 Spring St,40.724678,-74.002624,https://www.yelp.com/biz/bistro-les-amis-new-york?adjust_creative=-uBzzloii2ivvF3N0jkhKQ&utm_campaign=yelp_api_v3&utm_medium=api_v3_business_search&utm_source=-uBzzloii2ivvF3N0jkhKQ,LF2_slTY37P0Ua8vI4Hr5g
94,Les Enfants de Boheme,French,4.5,$$,177 Henry St,40.7136187,-73.9888503,https://www.yelp.com/biz/les-enfants-de-boheme-new-york?adjust_creative=-uBzzloii2ivvF3N0jkhKQ&utm_campaign=yelp_api_v3&utm_medium=api_v3_business_search&utm_source=-uBzzloii2ivvF3N0jkhKQ,qOomR3AwClOGpV1HdqOTFg
95,Boutique Bistro Bar,French,4.5,$$,33-01 Ditmars Blvd,40.775414,-73.9093017,https://www.yelp.com/biz/boutique-bistro-bar-astoria?adjust_creative=-uBzzloii2ivvF3N0jkhKQ&utm_campaign=yelp_api_v3&utm_medium=api_v3_business_search&utm_source=-uBzzloii2ivvF3N0jkhKQ,_F-GTYP0Cfc6LGamqRhXgQ
96,Petrossian Boutique & Cafe,French,4.0,$$,911 7th Ave,40.7658521957585,-73.979433064085,https://www.yelp.com/biz/petrossian-boutique-and-cafe-new-york?adjust_creative=-uBzzloii2ivvF3N0jkhKQ&utm_campaign=yelp_api_v3&utm_medium=api_v3_business_search&utm_source=-uBzzloii2ivvF3N0jkhKQ,Bx9ufqCtxxdl2l6pT3J45g
97,Le Fond,French,4.5,$$,105 Norman Ave,40.7258415222168,-73.9511032104492,https://www.yelp.com/biz/le-fond-brooklyn?adjust_creative=-uBzzloii2ivvF3N0jkhKQ&utm_campaign=yelp_api_v3&utm_medium=api_v3_business_search&utm_source=-uBzzloii2ivvF3N0jkhKQ,IVjpsmmsgc42k9K2RZR3Qg
98,La Bonne Soupe,French,3.5,$$,48 W 55th St,40.7624,-73.97694,https://www.yelp.com/biz/la-bonne-soupe-new-york-8?adjust_creative=-uBzzloii2ivvF3N0jkhKQ&utm_campaign=yelp_api_v3&utm_medium=api_v3_business_search&utm_source=-uBzzloii2ivvF3N0jkhKQ,ZxfXy-odIz_Xi1i9Uu00pg
99,La Cigogne ,French,4.0,$$,215 Union St,40.683501,-73.999304,https://www.yelp.com/biz/la-cigogne-brooklyn?adjust_creative=-uBzzloii2ivvF3N0jkhKQ&utm_campaign=yelp_api_v3&utm_medium=api_v3_business_search&utm_source=-uBzzloii2ivvF3N0jkhKQ,DU_DMCalguwdsnmLOJX3mg
100,Pastis,French,4.0,$$$,52 Gansevoort St,40.73928,-74.00695,https://www.yelp.com/biz/pastis-new-york-3?adjust_creative=-uBzzloii2ivvF3N0jkhKQ&utm_campaign=yelp_api_v3&utm_medium=api_v3_business_search&utm_source=-uBzzloii2ivvF3N0jkhKQ,gtXP0CmOnBbgfnff7VXa7A
101,LĒNA,French,4.5,$$,137 Eldridge St,40.719135,-73.991758,https://www.yelp.com/biz/l%C4%93na-new-york-8?adjust_creative=-uBzzloii2ivvF3N0jkhKQ&utm_campaign=yelp_api_v3&utm_medium=api_v3_business_search&utm_source=-uBzzloii2ivvF3N0jkhKQ,flcy6dNr4s12PTv6VtBK9Q
102,Bistro Vendome,French,4.0,$$$,405 East 58th St,40.7588875,-73.961963,https://www.yelp.com/biz/bistro-vendome-new-york?adjust_creative=-uBzzloii2ivvF3N0jkhKQ&utm_campaign=yelp_api_v3&utm_medium=api_v3_business_search&utm_source=-uBzzloii2ivvF3N0jkhKQ,HUEj_yVB1E2mNNxW5PqUtQ
103,The District,Gastropubs,3.0,$$,1679 3rd Ave,40.783851,-73.949892,https://www.yelp.com/biz/the-district-new-york?adjust_creative=-uBzzloii2ivvF3N0jkhKQ&utm_campaign=yelp_api_v3&utm_medium=api_v3_business_search&utm_source=-uBzzloii2ivvF3N0jkhKQ,R9XDds0a1_jip3glIdlQsg
104,Kiki's,Greek,4.0,$$,130 Division St,40.7144971858255,-73.9918553931336,https://www.yelp.com/biz/kikis-new-york?adjust_creative=-uBzzloii2ivvF3N0jkhKQ&utm_campaign=yelp_api_v3&utm_medium=api_v3_business_search&utm_source=-uBzzloii2ivvF3N0jkhKQ,_4Grm99JEHnDWskCHAJfUg
105,Pylos,Greek,4.5,$$$,128 E 7th St,40.72608,-73.98415,https://www.yelp.com/biz/pylos-new-york?adjust_creative=-uBzzloii2ivvF3N0jkhKQ&utm_campaign=yelp_api_v3&utm_medium=api_v3_business_search&utm_source=-uBzzloii2ivvF3N0jkhKQ,7xV4gzrgaOgQYtPC3FBZig
106,Taverna Kyclades - East Village,Greek,4.0,$$,228 1st Ave,40.731019969685164,-73.98260448877211,https://www.yelp.com/biz/taverna-kyclades-east-village-new-york-2?adjust_creative=-uBzzloii2ivvF3N0jkhKQ&utm_campaign=yelp_api_v3&utm_medium=api_v3_business_search&utm_source=-uBzzloii2ivvF3N0jkhKQ,apykLG7DTZ-7xnOcZGDZZA
107,Tidal Poke Co - Harborside,Hawaiian,3.5,$$,210 Hudson St,40.7190635,-74.033369,https://www.yelp.com/biz/tidal-poke-co-harborside-jersey-city-6?adjust_creative=-uBzzloii2ivvF3N0jkhKQ&utm_campaign=yelp_api_v3&utm_medium=api_v3_business_search&utm_source=-uBzzloii2ivvF3N0jkhKQ,rYUtdvkEC36CbR_B2JHMWA
108,Trattoria Trecolori,Italian,4.0,$$,254 West 47th St,40.759876,-73.986767,https://www.yelp.com/biz/trattoria-trecolori-new-york?adjust_creative=-uBzzloii2ivvF3N0jkhKQ&utm_campaign=yelp_api_v3&utm_medium=api_v3_business_search&utm_source=-uBzzloii2ivvF3N0jkhKQ,DoSU8IPq-Py_YV3kYmXPfQ
109,AlMar,Italian,4.0,$$,111 Front St,40.702662,-73.989177,https://www.yelp.com/biz/almar-brooklyn-2?adjust_creative=-uBzzloii2ivvF3N0jkhKQ&utm_campaign=yelp_api_v3&utm_medium=api_v3_business_search&utm_source=-uBzzloii2ivvF3N0jkhKQ,nHMDOIX32dGbfpuNUwsLNQ
110,Rubirosa,Italian,4.5,$$,235 Mulberry St,40.722766,-73.996233,https://www.yelp.com/biz/rubirosa-new-york-2?adjust_creative=-uBzzloii2ivvF3N0jkhKQ&utm_campaign=yelp_api_v3&utm_medium=api_v3_business_search&utm_source=-uBzzloii2ivvF3N0jkhKQ,WG639VkTjmK5dzydd1BBJA
111,Pomodoro,Italian,4.0,$$,518 9th Ave,40.75624,-73.9939,https://www.yelp.com/biz/pomodoro-new-york-2?adjust_creative=-uBzzloii2ivvF3N0jkhKQ&utm_campaign=yelp_api_v3&utm_medium=api_v3_business_search&utm_source=-uBzzloii2ivvF3N0jkhKQ,dbCTJp9ENDVIquxBWONzWQ
112,Aurora Soho,Italian,4.0,$$$,510 Broome St,40.723543,-74.003199,https://www.yelp.com/biz/aurora-soho-new-york?adjust_creative=-uBzzloii2ivvF3N0jkhKQ&utm_campaign=yelp_api_v3&utm_medium=api_v3_business_search&utm_source=-uBzzloii2ivvF3N0jkhKQ,HD0e3eHwv573qHZOJJitWg
113,Cafetal Social Club,Italian,4.5,$$,285 Mott St,40.724308,-73.994457,https://www.yelp.com/biz/cafetal-social-club-new-york?adjust_creative=-uBzzloii2ivvF3N0jkhKQ&utm_campaign=yelp_api_v3&utm_medium=api_v3_business_search&utm_source=-uBzzloii2ivvF3N0jkhKQ,gls8Eii-vgwKScOCNQWz9w
114,Panino Rustico,Italian,4.5,$$,8222 17th Ave,40.610494,-74.003153,https://www.yelp.com/biz/panino-rustico-brooklyn-6?adjust_creative=-uBzzloii2ivvF3N0jkhKQ&utm_campaign=yelp_api_v3&utm_medium=api_v3_business_search&utm_source=-uBzzloii2ivvF3N0jkhKQ,FwMyv3CVIxbI6ngodw7s3w
115,The Meatball Shop - Hell's Kitchen,Italian,4.0,$$,798 9th Ave,40.7651804928198,-73.9874866666706,https://www.yelp.com/biz/the-meatball-shop-hells-kitchen-new-york?adjust_creative=-uBzzloii2ivvF3N0jkhKQ&utm_campaign=yelp_api_v3&utm_medium=api_v3_business_search&utm_source=-uBzzloii2ivvF3N0jkhKQ,VgIiCZoUnujSMZATByk77Q
116,Silver Rice,Japanese,4.5,$$,638 Park Pl,40.6742123562615,-73.9568891376257,https://www.yelp.com/biz/silver-rice-brooklyn?adjust_creative=-uBzzloii2ivvF3N0jkhKQ&utm_campaign=yelp_api_v3&utm_medium=api_v3_business_search&utm_source=-uBzzloii2ivvF3N0jkhKQ,LTfR_0NiS7OIRCfkaAJg9w
117,Cocoron,Japanese,4.0,$$,37 Kenmare St,40.7207236,-73.9953191,https://www.yelp.com/biz/cocoron-new-york-2?adjust_creative=-uBzzloii2ivvF3N0jkhKQ&utm_campaign=yelp_api_v3&utm_medium=api_v3_business_search&utm_source=-uBzzloii2ivvF3N0jkhKQ,nrxSzq-VxLqD7aFkE4SH3Q
118,Fresh Eats Café,Juice Bars & Smoothies,,,478 72nd St,40.63173,-74.02213,,
119,Fresh From Hell,Juice Bars & Smoothies,4.5,$$,326 W 47th St,40.7608265,-73.9889803,https://www.yelp.com/biz/fresh-from-hell-new-york?adjust_creative=-uBzzloii2ivvF3N0jkhKQ&utm_campaign=yelp_api_v3&utm_medium=api_v3_business_search&utm_source=-uBzzloii2ivvF3N0jkhKQ,BqKuDTR5UfzaXA39_wH3Yg
120,KAL,Korean,4.5,$$,34-05 30th Ave,40.76584,-73.91859,https://www.yelp.com/biz/kal-astoria?adjust_creative=-uBzzloii2ivvF3N0jkhKQ&utm_campaign=yelp_api_v3&utm_medium=api_v3_business_search&utm_source=-uBzzloii2ivvF3N0jkhKQ,YqWXNq0Ku7cGb6Zj1j43Pw
121,Anytime,Korean,4.5,$$,23 W 32nd St,40.74776270790539,-73.9867793576711,https://www.yelp.com/biz/anytime-new-york?adjust_creative=-uBzzloii2ivvF3N0jkhKQ&utm_campaign=yelp_api_v3&utm_medium=api_v3_business_search&utm_source=-uBzzloii2ivvF3N0jkhKQ,VvsZAnEwU4c8Xkyrzx05Nw
122,Mémé Mediterranean,Mediterranean,4.0,$$,581 Hudson St,40.736412,-74.00616,https://www.yelp.com/biz/m%C3%A9m%C3%A9-mediterranean-new-york-4?adjust_creative=-uBzzloii2ivvF3N0jkhKQ&utm_campaign=yelp_api_v3&utm_medium=api_v3_business_search&utm_source=-uBzzloii2ivvF3N0jkhKQ,enT7NJ7tLMvUMCWQcsUonw
123,Dar 525,Mediterranean,4.5,$$,525 Grand St,40.711266,-73.950317,https://www.yelp.com/biz/dar-525-brooklyn?adjust_creative=-uBzzloii2ivvF3N0jkhKQ&utm_campaign=yelp_api_v3&utm_medium=api_v3_business_search&utm_source=-uBzzloii2ivvF3N0jkhKQ,oqVG2LsTwvRzgJxId5pqiw
124,Mimi's Hummus,Mediterranean,4.0,$$,1209 Cortelyou Rd,40.64035,-73.9667,https://www.yelp.com/biz/mimis-hummus-brooklyn?adjust_creative=-uBzzloii2ivvF3N0jkhKQ&utm_campaign=yelp_api_v3&utm_medium=api_v3_business_search&utm_source=-uBzzloii2ivvF3N0jkhKQ,8mZ6fE9n_mK59mJ_MYtrSQ
125,CAVA,Mediterranean,4.5,$$,143 4th Ave,40.7337897786475,-73.9896078601189,https://www.yelp.com/biz/cava-new-york-4?adjust_creative=-uBzzloii2ivvF3N0jkhKQ&utm_campaign=yelp_api_v3&utm_medium=api_v3_business_search&utm_source=-uBzzloii2ivvF3N0jkhKQ,mMuAsPSy2T56j0ENSTPL9w
126,Taboonette,Mediterranean,4.5,$$,30 E 13th St,40.7346038818359,-73.9928283691406,https://www.yelp.com/biz/taboonette-new-york?adjust_creative=-uBzzloii2ivvF3N0jkhKQ&utm_campaign=yelp_api_v3&utm_medium=api_v3_business_search&utm_source=-uBzzloii2ivvF3N0jkhKQ,owYYuyLvlsdjLz68c3SSfg
127,Zatar,Middle Eastern,4.5,$$,1294 Myrtle Ave,40.6980763644669,-73.9245712108767,https://www.yelp.com/biz/zatar-brooklyn-2?adjust_creative=-uBzzloii2ivvF3N0jkhKQ&utm_campaign=yelp_api_v3&utm_medium=api_v3_business_search&utm_source=-uBzzloii2ivvF3N0jkhKQ,CviK6c6BkxN_TTZahdvwyA
128,Dar 525,Middle Eastern,4.5,$$,168 Driggs Ave,40.72308,-73.9452699,https://www.yelp.com/biz/dar-525-brooklyn-2?adjust_creative=-uBzzloii2ivvF3N0jkhKQ&utm_campaign=yelp_api_v3&utm_medium=api_v3_business_search&utm_source=-uBzzloii2ivvF3N0jkhKQ,lzUkaMCuxYWR1cL_q3ElsQ
129,Oscar's Place,Modern European,4.5,$$,466 Hudson St,40.7318649,-74.0064011,https://www.yelp.com/biz/oscars-place-new-york-2?adjust_creative=-uBzzloii2ivvF3N0jkhKQ&utm_campaign=yelp_api_v3&utm_medium=api_v3_business_search&utm_source=-uBzzloii2ivvF3N0jkhKQ,66T7rXIZvcVg7XicY6QObg
130,Cafe Mogador,Moroccan,4.5,$$,133 Wythe Ave,40.719747,-73.959993,https://www.yelp.com/biz/cafe-mogador-brooklyn?adjust_creative=-uBzzloii2ivvF3N0jkhKQ&utm_campaign=yelp_api_v3&utm_medium=api_v3_business_search&utm_source=-uBzzloii2ivvF3N0jkhKQ,jAaVnUKLITkuhzwXIe0vLQ
131,Pause Cafe,Moroccan,4.5,$,3 Clinton St,40.72123,-73.98408,https://www.yelp.com/biz/pause-cafe-new-york?adjust_creative=-uBzzloii2ivvF3N0jkhKQ&utm_campaign=yelp_api_v3&utm_medium=api_v3_business_search&utm_source=-uBzzloii2ivvF3N0jkhKQ,sR60I9PI_63noBQcGoIrbw
132,Forma Pasta Factory,Pasta Shops,4.5,$$,14 Bedford Ave,40.72371,-73.95157,https://www.yelp.com/biz/forma-pasta-factory-brooklyn?adjust_creative=-uBzzloii2ivvF3N0jkhKQ&utm_campaign=yelp_api_v3&utm_medium=api_v3_business_search&utm_source=-uBzzloii2ivvF3N0jkhKQ,HodL0fXoF08C3Ir-kLeTtw
133,Stone Bridge Pizza & Salad,Pizza,4.5,$$,16 E 41st St,40.75225,-73.98061,https://www.yelp.com/biz/stone-bridge-pizza-and-salad-new-york?adjust_creative=-uBzzloii2ivvF3N0jkhKQ&utm_campaign=yelp_api_v3&utm_medium=api_v3_business_search&utm_source=-uBzzloii2ivvF3N0jkhKQ,UB1mGugr1pvgUUP1eTNXrg
134,Just Salad,Salad,3.5,$$,233 Broadway,40.71234276137147,-74.00806126094226,https://www.yelp.com/biz/just-salad-new-york-34?adjust_creative=-uBzzloii2ivvF3N0jkhKQ&utm_campaign=yelp_api_v3&utm_medium=api_v3_business_search&utm_source=-uBzzloii2ivvF3N0jkhKQ,14BLy22t6EKuPO5aAQ6R8g
135,Capriotti's Sandwich Shop,Salad,4.5,$$,88 Livingston St,40.69121,-73.99071,https://www.yelp.com/biz/capriottis-sandwich-shop-brooklyn-3?adjust_creative=-uBzzloii2ivvF3N0jkhKQ&utm_campaign=yelp_api_v3&utm_medium=api_v3_business_search&utm_source=-uBzzloii2ivvF3N0jkhKQ,l4AfiXGgRjRYRidnqRQU7Q
136,Salad Box,Salad,,,44 Park Pl,40.71328,-74.00958,,
137,Pure Ktchn,Salad,4.5,$$,352 West 46th St,40.76053,-73.98992,https://www.yelp.com/biz/pure-ktchn-new-york?adjust_creative=-uBzzloii2ivvF3N0jkhKQ&utm_campaign=yelp_api_v3&utm_medium=api_v3_business_search&utm_source=-uBzzloii2ivvF3N0jkhKQ,q7U2GCMWIZxIqWeMDml0LQ
138,Bite,Salad,4.0,$,62 W 22nd St,40.74189,-73.99305,https://www.yelp.com/biz/bite-new-york-6?adjust_creative=-uBzzloii2ivvF3N0jkhKQ&utm_campaign=yelp_api_v3&utm_medium=api_v3_business_search&utm_source=-uBzzloii2ivvF3N0jkhKQ,gjIctg7P18f6UocGVW2IMQ
139,sweetgreen,Salad,3.5,$$,162 N 4th St,40.7158037924556,-73.9591804,https://www.yelp.com/biz/sweetgreen-brooklyn-2?adjust_creative=-uBzzloii2ivvF3N0jkhKQ&utm_campaign=yelp_api_v3&utm_medium=api_v3_business_search&utm_source=-uBzzloii2ivvF3N0jkhKQ,V67wFDfxZyZ_8p74qBlv8Q
140,Beatnic - Flatiron,Salad,4.0,$$,60 W 22nd St,40.7418636,-73.9929947,https://www.yelp.com/biz/beatnic-flatiron-new-york?adjust_creative=-uBzzloii2ivvF3N0jkhKQ&utm_campaign=yelp_api_v3&utm_medium=api_v3_business_search&utm_source=-uBzzloii2ivvF3N0jkhKQ,CEEUDBFxvUPKGlA65qJ8JQ
141,Beatnic - Rock Center,Salad,4.0,$$,1 Rockefeller Plz,40.757733,-73.97889,https://www.yelp.com/biz/beatnic-rock-center-new-york?adjust_creative=-uBzzloii2ivvF3N0jkhKQ&utm_campaign=yelp_api_v3&utm_medium=api_v3_business_search&utm_source=-uBzzloii2ivvF3N0jkhKQ,Ci8ZAbhfNc0sj3kwj6XRmw
142,Just Salad,Salad,3.5,$$,252 7th Ave,40.6694291366086,-73.9794939539662,https://www.yelp.com/biz/just-salad-brooklyn?adjust_creative=-uBzzloii2ivvF3N0jkhKQ&utm_campaign=yelp_api_v3&utm_medium=api_v3_business_search&utm_source=-uBzzloii2ivvF3N0jkhKQ,De_10VF2CrC2moWaPA81mg
143,sweetgreen,Salad,3.5,$$,1164 Broadway,40.7448032395629,-73.9886377751827,https://www.yelp.com/biz/sweetgreen-new-york-2?adjust_creative=-uBzzloii2ivvF3N0jkhKQ&utm_campaign=yelp_api_v3&utm_medium=api_v3_business_search&utm_source=-uBzzloii2ivvF3N0jkhKQ,TMoFGaSlAlpEGjb9dOKPQg
144,sweetgreen,Salad,4.0,$$,100 Kenmare St,40.7210635428336,-73.9972511652099,https://www.yelp.com/biz/sweetgreen-new-york-4?adjust_creative=-uBzzloii2ivvF3N0jkhKQ&utm_campaign=yelp_api_v3&utm_medium=api_v3_business_search&utm_source=-uBzzloii2ivvF3N0jkhKQ,d-Q0sBnYh1z99QlYD8QiCQ
145,Just Salad,Salad,4.5,$$,1412 Broadway,40.75362767830822,-73.9865612,https://www.yelp.com/biz/just-salad-new-york-58?adjust_creative=-uBzzloii2ivvF3N0jkhKQ&utm_campaign=yelp_api_v3&utm_medium=api_v3_business_search&utm_source=-uBzzloii2ivvF3N0jkhKQ,7vl4N31vGFEJwK-qq26uGQ
146,honeygrow,Salad,3.5,$$,120 Washington St,40.73827000147528,-74.03094254869448,https://www.yelp.com/biz/honeygrow-hoboken?adjust_creative=-uBzzloii2ivvF3N0jkhKQ&utm_campaign=yelp_api_v3&utm_medium=api_v3_business_search&utm_source=-uBzzloii2ivvF3N0jkhKQ,rO4-ytxRRN98GMk2gSXxjQ
147,"Freshmix Salads, Wraps and Bowls",Salad,,,15315 Union Tpke,40.71985102585194,-73.81006479999999,,
148,Salad Box,Salad,,,44 Park Pl,40.71328,-74.00958,,
149,Bonsignour,Sandwiches,4.0,$$,35 Jane St,40.73832,-74.00436,https://www.yelp.com/biz/bonsignour-new-york?adjust_creative=-uBzzloii2ivvF3N0jkhKQ&utm_campaign=yelp_api_v3&utm_medium=api_v3_business_search&utm_source=-uBzzloii2ivvF3N0jkhKQ,XSoFi1TZ5fUznmDstJNuaw
150,Sandwich House,Sandwiches,4.0,$,17 Ann St,40.71096,-74.0077699,https://www.yelp.com/biz/sandwich-house-new-york?adjust_creative=-uBzzloii2ivvF3N0jkhKQ&utm_campaign=yelp_api_v3&utm_medium=api_v3_business_search&utm_source=-uBzzloii2ivvF3N0jkhKQ,rvoyaPumkhL5FA2zTqk13w
151,Au Jus,Sandwiches,4.0,$$,1762 1st Ave,40.7803856796944,-73.9467066627937,https://www.yelp.com/biz/au-jus-new-york?adjust_creative=-uBzzloii2ivvF3N0jkhKQ&utm_campaign=yelp_api_v3&utm_medium=api_v3_business_search&utm_source=-uBzzloii2ivvF3N0jkhKQ,dp2gh3PsxKBiqVVxKwyTHw
152,Olive's,Sandwiches,3.5,$$,191 Prince St,40.72662,-74.00241,https://www.yelp.com/biz/olives-new-york-3?adjust_creative=-uBzzloii2ivvF3N0jkhKQ&utm_campaign=yelp_api_v3&utm_medium=api_v3_business_search&utm_source=-uBzzloii2ivvF3N0jkhKQ,nZC3WQp6XrmIYIoZSa6r3Q
153,Melt Shop,Sandwiches,4.0,$$,135 W 50th St,40.76091344676272,-73.9825650029376,https://www.yelp.com/biz/melt-shop-new-york-3?adjust_creative=-uBzzloii2ivvF3N0jkhKQ&utm_campaign=yelp_api_v3&utm_medium=api_v3_business_search&utm_source=-uBzzloii2ivvF3N0jkhKQ,0Bm2vjJW5Fw7_Maer6kDUw
154,Molto Stretto,Sandwiches,,,42 Hoyt St,40.68938789694508,-73.98601831586906,,
155,Sanpanino,Sandwiches,4.0,$,494 Hudson St,40.73281,-74.00613,https://www.yelp.com/biz/sanpanino-new-york?adjust_creative=-uBzzloii2ivvF3N0jkhKQ&utm_campaign=yelp_api_v3&utm_medium=api_v3_business_search&utm_source=-uBzzloii2ivvF3N0jkhKQ,mfK5xIUfIm8nnIL_KGb9Dg
156,Hale and Hearty Soups,Sandwiches,3.5,$,849 Lexington Ave,40.7655177451256,-73.9655730995432,https://www.yelp.com/biz/hale-and-hearty-soups-new-york-17?adjust_creative=-uBzzloii2ivvF3N0jkhKQ&utm_campaign=yelp_api_v3&utm_medium=api_v3_business_search&utm_source=-uBzzloii2ivvF3N0jkhKQ,U2rFQLQ9zO9TMSkM5eNMcg
157,GreenStreets Salads,Sandwiches,4.0,$,67 Irving Ave,40.70455,-73.9238699,https://www.yelp.com/biz/greenstreets-salads-brooklyn?adjust_creative=-uBzzloii2ivvF3N0jkhKQ&utm_campaign=yelp_api_v3&utm_medium=api_v3_business_search&utm_source=-uBzzloii2ivvF3N0jkhKQ,o__rNMK8xCSPKPVe6yIlxQ
158,Bite,Sandwiches,4.0,$$,211 E 14th St,40.733163,-73.986158,https://www.yelp.com/biz/bite-new-york-3?adjust_creative=-uBzzloii2ivvF3N0jkhKQ&utm_campaign=yelp_api_v3&utm_medium=api_v3_business_search&utm_source=-uBzzloii2ivvF3N0jkhKQ,PpxJsItHTF6sDAK6XnDJ9w
159,Flavors Cafe,Sandwiches,3.5,$,175 Water St,40.706363,-74.005126,https://www.yelp.com/biz/flavors-cafe-new-york?adjust_creative=-uBzzloii2ivvF3N0jkhKQ&utm_campaign=yelp_api_v3&utm_medium=api_v3_business_search&utm_source=-uBzzloii2ivvF3N0jkhKQ,ziPLg64qxWsYiBBmCMbXPw
160,Sanpanino,Sandwiches,,,187 State St,40.69034,-73.991676,,
161,Pret A Manger,Sandwiches,4.0,$,319 Broadway,40.715924,-74.005122,https://www.yelp.com/biz/pret-a-manger-new-york-64?adjust_creative=-uBzzloii2ivvF3N0jkhKQ&utm_campaign=yelp_api_v3&utm_medium=api_v3_business_search&utm_source=-uBzzloii2ivvF3N0jkhKQ,j5Me3YSKfaYHoLu_74SMjA
162,Hale and Hearty Soups,Sandwiches,3.5,$,462 7th Ave,40.75191,-73.99019,https://www.yelp.com/biz/hale-and-hearty-soups-new-york-14?adjust_creative=-uBzzloii2ivvF3N0jkhKQ&utm_campaign=yelp_api_v3&utm_medium=api_v3_business_search&utm_source=-uBzzloii2ivvF3N0jkhKQ,ypGzLFySw_JBin1noTz2Nw
163,The Sandwich Shop,Sandwiches,4.0,$$,658A Grand St,40.71132,-73.94618,https://www.yelp.com/biz/the-sandwich-shop-brooklyn?adjust_creative=-uBzzloii2ivvF3N0jkhKQ&utm_campaign=yelp_api_v3&utm_medium=api_v3_business_search&utm_source=-uBzzloii2ivvF3N0jkhKQ,FOf_vQQ2HshtN3HUBPlNiw
164,Bite,Sandwiches,4.0,$,335 Lafayette St,40.7257318645125,-73.9946338116395,https://www.yelp.com/biz/bite-new-york?adjust_creative=-uBzzloii2ivvF3N0jkhKQ&utm_campaign=yelp_api_v3&utm_medium=api_v3_business_search&utm_source=-uBzzloii2ivvF3N0jkhKQ,a7BC1doUjNDqrqTaAMmfZg
165,Blume/Hütte,Sandwiches,,,1652 2nd Ave,40.77754,-73.9517855,,
166,Raclette,Sandwiches,4.0,$$,511 E 12th St,40.7289298,-73.980601,https://www.yelp.com/biz/raclette-new-york?adjust_creative=-uBzzloii2ivvF3N0jkhKQ&utm_campaign=yelp_api_v3&utm_medium=api_v3_business_search&utm_source=-uBzzloii2ivvF3N0jkhKQ,5m-TrbqMNnwJvOd7pAt6OA
167,Xe May Sandwich Shop,Sandwiches,4.5,$,96 Saint Marks Pl,40.7272,-73.98493,https://www.yelp.com/biz/xe-may-sandwich-shop-new-york?adjust_creative=-uBzzloii2ivvF3N0jkhKQ&utm_campaign=yelp_api_v3&utm_medium=api_v3_business_search&utm_source=-uBzzloii2ivvF3N0jkhKQ,8M_0cxAChoXl7Ls9YkWJlg
168,Melt Shop,Sandwiches,4.0,$$,111 Fulton St,40.7097319537713,-74.0065573416641,https://www.yelp.com/biz/melt-shop-new-york-7?adjust_creative=-uBzzloii2ivvF3N0jkhKQ&utm_campaign=yelp_api_v3&utm_medium=api_v3_business_search&utm_source=-uBzzloii2ivvF3N0jkhKQ,ehyZHDeH7d1KOJLrOHfnEw
169,Smør,Scandinavian,,,441 E 12th St,40.72935222162667,-73.98166426266144,,
170,Fish Cheeks,Seafood,4.5,$$,55 Bond St,40.7258,-73.9927,https://www.yelp.com/biz/fish-cheeks-new-york?adjust_creative=-uBzzloii2ivvF3N0jkhKQ&utm_campaign=yelp_api_v3&utm_medium=api_v3_business_search&utm_source=-uBzzloii2ivvF3N0jkhKQ,WJS06XxRdc6DD1s4LWE9HA
171,Estuary,Seafood,,,159 Bridge Park Dr,40.6932355,-74.0007940774,,
172,Hale and Hearty Soups,Soup,3.5,$$,75 9th Ave,40.74254,-74.005613,https://www.yelp.com/biz/hale-and-hearty-soups-new-york-16?adjust_creative=-uBzzloii2ivvF3N0jkhKQ&utm_campaign=yelp_api_v3&utm_medium=api_v3_business_search&utm_source=-uBzzloii2ivvF3N0jkhKQ,gtT9TZBNFn9xlnjup5Q8sg
173,Hale and Hearty Soups,Soup,3.0,$,2 MetroTech Center,40.6934653526478,-73.9857016759698,https://www.yelp.com/biz/hale-and-hearty-soups-brooklyn-2?adjust_creative=-uBzzloii2ivvF3N0jkhKQ&utm_campaign=yelp_api_v3&utm_medium=api_v3_business_search&utm_source=-uBzzloii2ivvF3N0jkhKQ,n1g_W6D4TQRPf0Rm2rMBTA
174,The Soup Bowl of Park Slope,Soup,4.0,$,319 7th Ave,40.6670558,-73.981222,https://www.yelp.com/biz/the-soup-bowl-of-park-slope-brooklyn?adjust_creative=-uBzzloii2ivvF3N0jkhKQ&utm_campaign=yelp_api_v3&utm_medium=api_v3_business_search&utm_source=-uBzzloii2ivvF3N0jkhKQ,lR58h9jeoDfy_9jVOqTDJg
175,Peasant Stock,Soup,4.5,$,88 Essex St,40.718045,-73.988052,https://www.yelp.com/biz/peasant-stock-new-york-2?adjust_creative=-uBzzloii2ivvF3N0jkhKQ&utm_campaign=yelp_api_v3&utm_medium=api_v3_business_search&utm_source=-uBzzloii2ivvF3N0jkhKQ,uqBZzJXrsw0c7SJ2hcJ8HQ
176,Good Stock,Soup,3.5,$,31 Carmine St,40.73033,-74.00327,https://www.yelp.com/biz/good-stock-new-york-3?adjust_creative=-uBzzloii2ivvF3N0jkhKQ&utm_campaign=yelp_api_v3&utm_medium=api_v3_business_search&utm_source=-uBzzloii2ivvF3N0jkhKQ,gxCnsgWQS_79sMDHpmeHzw
177,Soup N Burger,Soup,3.5,$$,1825 Emmons Ave,40.583572,-73.950016,https://www.yelp.com/biz/soup-n-burger-brooklyn-2?adjust_creative=-uBzzloii2ivvF3N0jkhKQ&utm_campaign=yelp_api_v3&utm_medium=api_v3_business_search&utm_source=-uBzzloii2ivvF3N0jkhKQ,xxgtwN5sxqiGWMJ03dZQcg
178,The Original Soupman,Soup,4.0,$,259A W 55th St,40.7653611721499,-73.9834392665359,https://www.yelp.com/biz/the-original-soupman-new-york-7?adjust_creative=-uBzzloii2ivvF3N0jkhKQ&utm_campaign=yelp_api_v3&utm_medium=api_v3_business_search&utm_source=-uBzzloii2ivvF3N0jkhKQ,HuSaFUqMDLbovpU-XbR9UA
179,Pies-n-Thighs,Southern,4.0,$$,166 S 4th St,40.711191,-73.961424,https://www.yelp.com/biz/pies-n-thighs-brooklyn?adjust_creative=-uBzzloii2ivvF3N0jkhKQ&utm_campaign=yelp_api_v3&utm_medium=api_v3_business_search&utm_source=-uBzzloii2ivvF3N0jkhKQ,j9TdOBSQ1LRw8v3hW5fObQ
180,Eva's Kitchen,Specialty Food,4.5,$$,12036 Queens Blvd,40.7132359,-73.8293642,https://www.yelp.com/biz/evas-kitchen-kew-gardens?adjust_creative=-uBzzloii2ivvF3N0jkhKQ&utm_campaign=yelp_api_v3&utm_medium=api_v3_business_search&utm_source=-uBzzloii2ivvF3N0jkhKQ,nDhhVuhDyP-QRi0lwk0j3w
181,Don Andrés,Tacos,,,238 Central Ave,40.6974158940626,-73.9240515271922,,
182,Yoongkao Thai Dining,Thai,,,625 2nd Ave,40.74505,-73.97591,,
183,Huge Thai,Thai,,,157 Court St,40.68887,-73.99261,,
184,Nourish,Thai,4.0,$$,637A Vanderbilt Ave,40.677941,-73.968455,https://www.yelp.com/biz/nourish-brooklyn-4?adjust_creative=-uBzzloii2ivvF3N0jkhKQ&utm_campaign=yelp_api_v3&utm_medium=api_v3_business_search&utm_source=-uBzzloii2ivvF3N0jkhKQ,qusZ-K5tzM1EyOa1IEWCHA
185,Peacefood Cafe Downtown,Vegan,4.0,$$,41 E 11th St,40.7332670924819,-73.9929751334153,https://www.yelp.com/biz/peacefood-cafe-downtown-new-york?adjust_creative=-uBzzloii2ivvF3N0jkhKQ&utm_campaign=yelp_api_v3&utm_medium=api_v3_business_search&utm_source=-uBzzloii2ivvF3N0jkhKQ,MAwtBgCmrY-i_jbmXlDMkw
186,The Organic Grill,Vegan,4.0,$$,123 1st Ave,40.72737,-73.98578,https://www.yelp.com/biz/the-organic-grill-new-york-130?adjust_creative=-uBzzloii2ivvF3N0jkhKQ&utm_campaign=yelp_api_v3&utm_medium=api_v3_business_search&utm_source=-uBzzloii2ivvF3N0jkhKQ,JdNzj7EGQLC9eqqw3SYBPg
187,Ladybird,Vegan,4.0,$$,111 East 7th St,40.726769311104,-73.9847712789363,https://www.yelp.com/biz/ladybird-new-york?adjust_creative=-uBzzloii2ivvF3N0jkhKQ&utm_campaign=yelp_api_v3&utm_medium=api_v3_business_search&utm_source=-uBzzloii2ivvF3N0jkhKQ,upaVTWhLsxcu1HXqN8iHVQ
188,Peacefood Cafe,Vegan,4.0,$$,460 Amsterdam Ave,40.785326,-73.97713,https://www.yelp.com/biz/peacefood-cafe-new-york-5?adjust_creative=-uBzzloii2ivvF3N0jkhKQ&utm_campaign=yelp_api_v3&utm_medium=api_v3_business_search&utm_source=-uBzzloii2ivvF3N0jkhKQ,zBf-m72ATTPTey-_9vu3Yw
189,Peacefood Cafe,Vegan,4.0,$$,460 Amsterdam Ave,40.785326,-73.97713,https://www.yelp.com/biz/peacefood-cafe-new-york-5?adjust_creative=-uBzzloii2ivvF3N0jkhKQ&utm_campaign=yelp_api_v3&utm_medium=api_v3_business_search&utm_source=-uBzzloii2ivvF3N0jkhKQ,zBf-m72ATTPTey-_9vu3Yw
190,B&H Dairy,Vegetarian,4.5,$,127 2nd Ave,40.7284622192383,-73.988166809082,https://www.yelp.com/biz/b-and-h-dairy-new-york-2?adjust_creative=-uBzzloii2ivvF3N0jkhKQ&utm_campaign=yelp_api_v3&utm_medium=api_v3_business_search&utm_source=-uBzzloii2ivvF3N0jkhKQ,koh-4_SAbshwZ8EBRmXcmg
191,Good Health Cafe,Vegetarian,4.0,$$,1435 1st Ave,40.76948,-73.95499,https://www.yelp.com/biz/good-health-cafe-new-york-4?adjust_creative=-uBzzloii2ivvF3N0jkhKQ&utm_campaign=yelp_api_v3&utm_medium=api_v3_business_search&utm_source=-uBzzloii2ivvF3N0jkhKQ,S9DvhHSe9V7cJaLQ5m5SjA
192,Le Botaniste,Vegetarian,4.5,$$,127 Grand St,40.7204278,-74.0002028,https://www.yelp.com/biz/le-botaniste-new-york-4?adjust_creative=-uBzzloii2ivvF3N0jkhKQ&utm_campaign=yelp_api_v3&utm_medium=api_v3_business_search&utm_source=-uBzzloii2ivvF3N0jkhKQ,4b43TOXpskBPZqQzbKkwDQ
193,Hummus Place,Vegetarian,4.0,$$,305 Amsterdam Ave,40.780044,-73.98027,https://www.yelp.com/biz/hummus-place-new-york-4?adjust_creative=-uBzzloii2ivvF3N0jkhKQ&utm_campaign=yelp_api_v3&utm_medium=api_v3_business_search&utm_source=-uBzzloii2ivvF3N0jkhKQ,TxHx1fb8O_MsfQB_ODdTQg
194,P.S. Kitchen,Vegetarian,4.0,$$,246 W 48th St,40.760706,-73.986627,https://www.yelp.com/biz/p-s-kitchen-new-york-3?adjust_creative=-uBzzloii2ivvF3N0jkhKQ&utm_campaign=yelp_api_v3&utm_medium=api_v3_business_search&utm_source=-uBzzloii2ivvF3N0jkhKQ,KXD44wWmrGf7mzyyr0bikw
195,Nish Nush,Vegetarian,4.5,$$,88 Reade St,40.715688,-74.007695,https://www.yelp.com/biz/nish-nush-new-york?adjust_creative=-uBzzloii2ivvF3N0jkhKQ&utm_campaign=yelp_api_v3&utm_medium=api_v3_business_search&utm_source=-uBzzloii2ivvF3N0jkhKQ,d8zSYpArh4oXpxeJWNA4Pg
196,5ive Spice,Vietnamese,4.5,$$,227 Mulberry St,40.722598,-73.996272,https://www.yelp.com/biz/5ive-spice-new-york-2?adjust_creative=-uBzzloii2ivvF3N0jkhKQ&utm_campaign=yelp_api_v3&utm_medium=api_v3_business_search&utm_source=-uBzzloii2ivvF3N0jkhKQ,9fG8-RRh1rzuCKN2TmF-QQ
197,Mama Pho,Vietnamese,3.5,$$,580 Grand St,40.710914,-73.948592,https://www.yelp.com/biz/mama-pho-brooklyn?adjust_creative=-uBzzloii2ivvF3N0jkhKQ&utm_campaign=yelp_api_v3&utm_medium=api_v3_business_search&utm_source=-uBzzloii2ivvF3N0jkhKQ,Jh6wMPv4IK9jUpWMGj4J9g
198,Nón Lá,Vietnamese,4.5,$$,128 E 4th St,40.725287,-73.987563,https://www.yelp.com/biz/n%C3%B3n-l%C3%A1-new-york-10?adjust_creative=-uBzzloii2ivvF3N0jkhKQ&utm_campaign=yelp_api_v3&utm_medium=api_v3_business_search&utm_source=-uBzzloii2ivvF3N0jkhKQ,8zTyhMq0ki83WoWrq4D0qw
199,Lucy's Vietnamese Williamsburg,Vietnamese,,,112 Berry St,40.718903,-73.958957,,
