,Restaurant,Type,Rating,Price,Address,Lat,Lng,url,ID
0,The Waterfront NYC,American (New),,,500 Hutchinson River Pkwy,40.8112556,-73.8352813,,
1,Essex Pearl,American (New),,,115 Delancey St,40.717871,-73.988199,,
2,21 Greenpoint,American (New),4.0,$$$,21 Greenpoint Ave,40.72978,-73.95992,https://www.yelp.com/biz/21-greenpoint-brooklyn-2?adjust_creative=-uBzzloii2ivvF3N0jkhKQ&utm_campaign=yelp_api_v3&utm_medium=api_v3_business_search&utm_source=-uBzzloii2ivvF3N0jkhKQ,f-WkzzSaAA_mdDmsKlJ4sw
3,Walter's,American (New),4.0,$$,166 DeKalb Ave,40.6894111633301,-73.973258972168,https://www.yelp.com/biz/walters-brooklyn?adjust_creative=-uBzzloii2ivvF3N0jkhKQ&utm_campaign=yelp_api_v3&utm_medium=api_v3_business_search&utm_source=-uBzzloii2ivvF3N0jkhKQ,moaPtBNbQ5VNu2Z0ilCVGQ
4,High Street On Hudson,American (New),4.0,$$,637 Hudson St,40.73888,-74.00574,https://www.yelp.com/biz/high-street-on-hudson-new-york?adjust_creative=-uBzzloii2ivvF3N0jkhKQ&utm_campaign=yelp_api_v3&utm_medium=api_v3_business_search&utm_source=-uBzzloii2ivvF3N0jkhKQ,Oq1mej1BYfjcdPKkM_5o8g
5,The Osprey,American (New),4.0,$$,60 Furman St,40.702241,-73.995539,https://www.yelp.com/biz/the-osprey-brooklyn?adjust_creative=-uBzzloii2ivvF3N0jkhKQ&utm_campaign=yelp_api_v3&utm_medium=api_v3_business_search&utm_source=-uBzzloii2ivvF3N0jkhKQ,q11TljTQd33XCWlVoPyRqg
6,Jibs,American (New),,,350 11th Ave,40.754070046953146,-74.0026987,,
7,Atrium Dumbo,American (New),4.0,$$,15 Main St,40.7033899,-73.9904923,https://www.yelp.com/biz/atrium-dumbo-brooklyn?adjust_creative=-uBzzloii2ivvF3N0jkhKQ&utm_campaign=yelp_api_v3&utm_medium=api_v3_business_search&utm_source=-uBzzloii2ivvF3N0jkhKQ,hmdm-dO72hLsMQwQRcGEUQ
8,The River Café,American (New),4.0,$$$$,1 Water St,40.70318,-73.9946499,https://www.yelp.com/biz/the-river-caf%C3%A9-brooklyn-3?adjust_creative=-uBzzloii2ivvF3N0jkhKQ&utm_campaign=yelp_api_v3&utm_medium=api_v3_business_search&utm_source=-uBzzloii2ivvF3N0jkhKQ,4XX-zF8h5Lvrr22_tqU6-Q
9,Blue Ribbon Brasserie - SoHo,American (Traditional),4.5,$$$,97 Sullivan St,40.725456,-74.003027,https://www.yelp.com/biz/blue-ribbon-brasserie-soho-new-york?adjust_creative=-uBzzloii2ivvF3N0jkhKQ&utm_campaign=yelp_api_v3&utm_medium=api_v3_business_search&utm_source=-uBzzloii2ivvF3N0jkhKQ,txSykTj5nbwmpiVNoK_Dyg
10,Pier 66 Maritime,American (Traditional),3.0,$$,W 26th St,40.752197,-74.009167,https://www.yelp.com/biz/pier-66-maritime-new-york?adjust_creative=-uBzzloii2ivvF3N0jkhKQ&utm_campaign=yelp_api_v3&utm_medium=api_v3_business_search&utm_source=-uBzzloii2ivvF3N0jkhKQ,80jmHsdVmeYxaoAHaegKyQ
11,Bungalow Bar,American (Traditional),4.0,$$,377 Beach 92nd St,40.5890639,-73.817172,https://www.yelp.com/biz/bungalow-bar-rockaway-beach?adjust_creative=-uBzzloii2ivvF3N0jkhKQ&utm_campaign=yelp_api_v3&utm_medium=api_v3_business_search&utm_source=-uBzzloii2ivvF3N0jkhKQ,edLi09LmjWXgL1NOCJ4qjA
12,Le Sia,Asian Fusion,4.5,$$$,651 9th Ave,40.76072,-73.99119,https://www.yelp.com/biz/le-sia-new-york-4?adjust_creative=-uBzzloii2ivvF3N0jkhKQ&utm_campaign=yelp_api_v3&utm_medium=api_v3_business_search&utm_source=-uBzzloii2ivvF3N0jkhKQ,C3tP0fNNAoxOAC3O406CXQ
13,Steak 'N Lobster,Bars,4.0,$$,129 W 29th St,40.7472,-73.990979,https://www.yelp.com/biz/steak-n-lobster-new-york-2?adjust_creative=-uBzzloii2ivvF3N0jkhKQ&utm_campaign=yelp_api_v3&utm_medium=api_v3_business_search&utm_source=-uBzzloii2ivvF3N0jkhKQ,MIsxw3cb4ByYyH2G1KzrZQ
14,Surf City,Bars,3.0,$$,1 Marin Blvd,40.7115267158165,-74.04279719803,https://www.yelp.com/biz/surf-city-jersey-city?adjust_creative=-uBzzloii2ivvF3N0jkhKQ&utm_campaign=yelp_api_v3&utm_medium=api_v3_business_search&utm_source=-uBzzloii2ivvF3N0jkhKQ,ZEhxsE-6Xi18cSVwp4trnA
15,Sagaponack,Bars,4.0,$$,4 W 22nd St,40.740922,-73.990789,https://www.yelp.com/biz/sagaponack-new-york-4?adjust_creative=-uBzzloii2ivvF3N0jkhKQ&utm_campaign=yelp_api_v3&utm_medium=api_v3_business_search&utm_source=-uBzzloii2ivvF3N0jkhKQ,nC4HwtW5_nDICBAVPqN9pw
16,Fresh Salt,Bars,4.0,$$,146 Beekman St,40.70707,-74.00244,https://www.yelp.com/biz/fresh-salt-new-york?adjust_creative=-uBzzloii2ivvF3N0jkhKQ&utm_campaign=yelp_api_v3&utm_medium=api_v3_business_search&utm_source=-uBzzloii2ivvF3N0jkhKQ,kDJbzzmCEjFbyDQ-lSygvw
17,Grand Banks,Bars,4.0,$$$,Pier 25,40.716745,-74.009397,https://www.yelp.com/biz/grand-banks-new-york?adjust_creative=-uBzzloii2ivvF3N0jkhKQ&utm_campaign=yelp_api_v3&utm_medium=api_v3_business_search&utm_source=-uBzzloii2ivvF3N0jkhKQ,vYGi3439teYg1wPzqVcHUA
18,Sidney's Five,Bars,,,103 1st Ave,40.7267,-73.98621,,
19,Sagaponack,Bars,,,4 W 22nd St,40.740937,-73.99081,,
20,Crab House All You Can Eat Seafood,Buffets,4.5,$$$$,135 E 55th St,40.759664,-73.969776,https://www.yelp.com/biz/crab-house-all-you-can-eat-seafood-new-york?adjust_creative=-uBzzloii2ivvF3N0jkhKQ&utm_campaign=yelp_api_v3&utm_medium=api_v3_business_search&utm_source=-uBzzloii2ivvF3N0jkhKQ,YvWQMlMjtYmVmheH97tTlQ
21,Crab Du Jour Xpress Cajun Seafood,Cajun/Creole,,,284 Malcolm X Blvd,40.80718,-73.94559,,
22,The Boil,Cajun/Creole,4.0,$$$,17 Waverly Pl,40.730316162745154,-73.99429517055144,https://www.yelp.com/biz/the-boil-new-york-5?adjust_creative=-uBzzloii2ivvF3N0jkhKQ&utm_campaign=yelp_api_v3&utm_medium=api_v3_business_search&utm_source=-uBzzloii2ivvF3N0jkhKQ,0087AC_NnFRtC0c9FsB9pw
23,Mighty Catch,Cajun/Creole,4.0,$$,940 Columbus Ave,40.7995,-73.963082,https://www.yelp.com/biz/mighty-catch-new-york?adjust_creative=-uBzzloii2ivvF3N0jkhKQ&utm_campaign=yelp_api_v3&utm_medium=api_v3_business_search&utm_source=-uBzzloii2ivvF3N0jkhKQ,L8WCsGiujmGt3kodY9tctA
24,The Gumbo Bros,Cajun/Creole,4.5,$$,224 Atlantic Ave,40.68934,-73.99178,https://www.yelp.com/biz/the-gumbo-bros-brooklyn?adjust_creative=-uBzzloii2ivvF3N0jkhKQ&utm_campaign=yelp_api_v3&utm_medium=api_v3_business_search&utm_source=-uBzzloii2ivvF3N0jkhKQ,vW7sMAxt4YcUS8tWONaX2g
25,Sugar Freak,Cajun/Creole,4.0,$$,37-11 30th Ave,40.7646298318085,-73.9159499108791,https://www.yelp.com/biz/sugar-freak-astoria?adjust_creative=-uBzzloii2ivvF3N0jkhKQ&utm_campaign=yelp_api_v3&utm_medium=api_v3_business_search&utm_source=-uBzzloii2ivvF3N0jkhKQ,kSI-wgcYYfpcHcgDrbKIfg
26,Oceanic Boil,Cajun/Creole,,,96-18 Queens Blvd,40.729405,-73.861621,,
27,Holy Crab Boiling,Cajun/Creole,4.0,$$,5915 7th Ave,40.63698,-74.01139,https://www.yelp.com/biz/holy-crab-boiling-brooklyn-2?adjust_creative=-uBzzloii2ivvF3N0jkhKQ&utm_campaign=yelp_api_v3&utm_medium=api_v3_business_search&utm_source=-uBzzloii2ivvF3N0jkhKQ,HEQ04JVgYl1QkLDym_Ji9A
28,Sup Crab Greenpoint,Cajun/Creole,,,664 Manhattan Ave,40.72467,-73.95117,,
29,Soco,Cajun/Creole,4.0,$$,509 Myrtle Ave,40.693866,-73.964535,https://www.yelp.com/biz/soco-brooklyn?adjust_creative=-uBzzloii2ivvF3N0jkhKQ&utm_campaign=yelp_api_v3&utm_medium=api_v3_business_search&utm_source=-uBzzloii2ivvF3N0jkhKQ,oOsJn3leUnWDfErRWMf81g
30,The Boil,Cajun/Creole,4.0,$$,139 Chrystie St,40.71974,-73.99339,https://www.yelp.com/biz/the-boil-new-york-3?adjust_creative=-uBzzloii2ivvF3N0jkhKQ&utm_campaign=yelp_api_v3&utm_medium=api_v3_business_search&utm_source=-uBzzloii2ivvF3N0jkhKQ,tiSw-6DIm3-mMORyEIOVyg
31,Oceanic Boil,Cajun/Creole,4.5,$$,84-20 37th Ave,40.7498297,-73.8821356,https://www.yelp.com/biz/oceanic-boil-jackson-heights?adjust_creative=-uBzzloii2ivvF3N0jkhKQ&utm_campaign=yelp_api_v3&utm_medium=api_v3_business_search&utm_source=-uBzzloii2ivvF3N0jkhKQ,20LSOx_4K2wghTsUx4gSsg
32,Claw Daddy's,Cajun/Creole,4.0,$$,31 3rd Ave,40.68561,-73.98035,https://www.yelp.com/biz/claw-daddys-brooklyn?adjust_creative=-uBzzloii2ivvF3N0jkhKQ&utm_campaign=yelp_api_v3&utm_medium=api_v3_business_search&utm_source=-uBzzloii2ivvF3N0jkhKQ,1x2hn3e9sCCZca1cnRTpEg
33,Claw Daddy's,Cajun/Creole,4.0,$$$,185 Orchard St,40.722071,-73.98847,https://www.yelp.com/biz/claw-daddys-new-york?adjust_creative=-uBzzloii2ivvF3N0jkhKQ&utm_campaign=yelp_api_v3&utm_medium=api_v3_business_search&utm_source=-uBzzloii2ivvF3N0jkhKQ,hfMtSdxRsC3JQP3yrm6nag
34,1803,Cajun/Creole,4.5,$$,82 Reade St,40.715498,-74.007178,https://www.yelp.com/biz/1803-new-york?adjust_creative=-uBzzloii2ivvF3N0jkhKQ&utm_campaign=yelp_api_v3&utm_medium=api_v3_business_search&utm_source=-uBzzloii2ivvF3N0jkhKQ,3xTQT7qjZJIxc-eBiFMerQ
35,The Simpson Restaurant & Bar,Caribbean,,,673 Atlantic Ave,40.683251,-73.973347,,
36,Rayon's Jamaican & International Restaurant,Caribbean,,,160 Havemeyer St,40.71169574331532,-73.95781015582,,
37,Lighthouse Fish Market & Restaurant,Chicken Wings,3.5,$$,2451 Frederick Douglass Blvd,40.81434,-73.94854,https://www.yelp.com/biz/lighthouse-fish-market-and-restaurant-new-york-6?adjust_creative=-uBzzloii2ivvF3N0jkhKQ&utm_campaign=yelp_api_v3&utm_medium=api_v3_business_search&utm_source=-uBzzloii2ivvF3N0jkhKQ,8c3UnmA-8Qg3WYVRQDi2Wg
38,Lady Chow's Kitchen,Chinese,,,171 Hester St,40.71785,-73.9968,,
39,Pilot,Cocktail Bars,4.0,$$$,Pier 6 Brooklyn Bridge Park,40.696432423661,-73.9890010861378,https://www.yelp.com/biz/pilot-brooklyn?adjust_creative=-uBzzloii2ivvF3N0jkhKQ&utm_campaign=yelp_api_v3&utm_medium=api_v3_business_search&utm_source=-uBzzloii2ivvF3N0jkhKQ,zyxI5ko5Dpkqi9q5oSGa9w
40,Sea Wolf - Bushwick,Cocktail Bars,4.0,$$,19 Wyckoff Ave,40.70683,-73.9228,https://www.yelp.com/biz/sea-wolf-bushwick-brooklyn?adjust_creative=-uBzzloii2ivvF3N0jkhKQ&utm_campaign=yelp_api_v3&utm_medium=api_v3_business_search&utm_source=-uBzzloii2ivvF3N0jkhKQ,d7_W8J8T0PESBsILMsGKGQ
41,Sel Rrose,Cocktail Bars,4.0,$$,1 Delancey St,40.7200099,-73.993839,https://www.yelp.com/biz/sel-rrose-new-york-4?adjust_creative=-uBzzloii2ivvF3N0jkhKQ&utm_campaign=yelp_api_v3&utm_medium=api_v3_business_search&utm_source=-uBzzloii2ivvF3N0jkhKQ,82wA_Vfg_eDckx23d3dA_g
42,Goodnight Sonny,Cocktail Bars,4.0,$$,134 1st Ave,40.72768,-73.98502,https://www.yelp.com/biz/goodnight-sonny-new-york-3?adjust_creative=-uBzzloii2ivvF3N0jkhKQ&utm_campaign=yelp_api_v3&utm_medium=api_v3_business_search&utm_source=-uBzzloii2ivvF3N0jkhKQ,nGyffNA23K4sO08rKB2E5g
43,Pineapple Club,Cocktail Bars,4.5,$$,509 E 6th St,40.72529189450972,-73.98324323292351,https://www.yelp.com/biz/pineapple-club-new-york?adjust_creative=-uBzzloii2ivvF3N0jkhKQ&utm_campaign=yelp_api_v3&utm_medium=api_v3_business_search&utm_source=-uBzzloii2ivvF3N0jkhKQ,wTQYOTh9_JPI2I8s6Xc-Cw
44,Time Out Market New York,Food Court,3.5,$$,55 Water St,40.7037211399782,-73.9918105285751,https://www.yelp.com/biz/time-out-market-new-york-brooklyn?adjust_creative=-uBzzloii2ivvF3N0jkhKQ&utm_campaign=yelp_api_v3&utm_medium=api_v3_business_search&utm_source=-uBzzloii2ivvF3N0jkhKQ,MGd6HFEq1ALD58XWNviSXw
45,La Sirène-Soho,French,4.5,$$$,558 Broome St,40.7243642217227,-74.005708694458,https://www.yelp.com/biz/la-sir%C3%A8ne-soho-new-york?adjust_creative=-uBzzloii2ivvF3N0jkhKQ&utm_campaign=yelp_api_v3&utm_medium=api_v3_business_search&utm_source=-uBzzloii2ivvF3N0jkhKQ,FiRB9Ek3Xo9JHwXgBYITYg
46,Le Crocodile,French,,,80 Wythe Ave,40.72191,-73.957873,,
47,Taverna Kyclades - East Village,Greek,4.0,$$,228 1st Ave,40.731019969685164,-73.98260448877211,https://www.yelp.com/biz/taverna-kyclades-east-village-new-york-2?adjust_creative=-uBzzloii2ivvF3N0jkhKQ&utm_campaign=yelp_api_v3&utm_medium=api_v3_business_search&utm_source=-uBzzloii2ivvF3N0jkhKQ,apykLG7DTZ-7xnOcZGDZZA
48,Nerai,Greek,4.5,$$$,55 E 54th St,40.76028044523875,-73.97306024442727,https://www.yelp.com/biz/nerai-new-york?adjust_creative=-uBzzloii2ivvF3N0jkhKQ&utm_campaign=yelp_api_v3&utm_medium=api_v3_business_search&utm_source=-uBzzloii2ivvF3N0jkhKQ,E9NMNWvV70HV5gB369N0EA
49,Dorian's Seafood Market,Grocery,4.5,$$,1580 York Ave,40.774028,-73.948158,https://www.yelp.com/biz/dorians-seafood-market-new-york-2?adjust_creative=-uBzzloii2ivvF3N0jkhKQ&utm_campaign=yelp_api_v3&utm_medium=api_v3_business_search&utm_source=-uBzzloii2ivvF3N0jkhKQ,lsJf1_nv6Lymv0HFaGJU4Q
50,Piccola Cucina Estiatorio,Italian,4.5,$$,75 Thompson St,40.7246,-74.0029799,https://www.yelp.com/biz/piccola-cucina-estiatorio-new-york?adjust_creative=-uBzzloii2ivvF3N0jkhKQ&utm_campaign=yelp_api_v3&utm_medium=api_v3_business_search&utm_source=-uBzzloii2ivvF3N0jkhKQ,FRp1NwIyp6tkDU986cJkXQ
51,AlMar,Italian,4.0,$$,111 Front St,40.702662,-73.989177,https://www.yelp.com/biz/almar-brooklyn-2?adjust_creative=-uBzzloii2ivvF3N0jkhKQ&utm_campaign=yelp_api_v3&utm_medium=api_v3_business_search&utm_source=-uBzzloii2ivvF3N0jkhKQ,nHMDOIX32dGbfpuNUwsLNQ
52,Verde on Smith,Italian,4.0,$$,216 Smith St,40.684437,-73.992234,https://www.yelp.com/biz/verde-on-smith-brooklyn-4?adjust_creative=-uBzzloii2ivvF3N0jkhKQ&utm_campaign=yelp_api_v3&utm_medium=api_v3_business_search&utm_source=-uBzzloii2ivvF3N0jkhKQ,J0c8ZtHPf08TMVeojPkNkQ
53,Osteria 57,Italian,4.5,$$$,57 W 10th St,40.73467,-73.99786,https://www.yelp.com/biz/osteria-57-new-york?adjust_creative=-uBzzloii2ivvF3N0jkhKQ&utm_campaign=yelp_api_v3&utm_medium=api_v3_business_search&utm_source=-uBzzloii2ivvF3N0jkhKQ,T-RXDLq_VEv7s1_SooYIYQ
54,Paesano of Mulberry Street,Italian,4.0,$$,136 Mulberry St,40.718554,-73.997447,https://www.yelp.com/biz/paesano-of-mulberry-street-new-york?adjust_creative=-uBzzloii2ivvF3N0jkhKQ&utm_campaign=yelp_api_v3&utm_medium=api_v3_business_search&utm_source=-uBzzloii2ivvF3N0jkhKQ,OCTiJwvjoK81WoDwsTkFvA
55,Marea,Italian,4.0,$$$,240 Central Park S,40.7674213694566,-73.9810554368179,https://www.yelp.com/biz/marea-new-york?adjust_creative=-uBzzloii2ivvF3N0jkhKQ&utm_campaign=yelp_api_v3&utm_medium=api_v3_business_search&utm_source=-uBzzloii2ivvF3N0jkhKQ,H_KyiRhwho8rdlw_R93_0Q
56,Mama Capri,Italian,4.5,$$,247 Smith St,40.68332,-73.99264,https://www.yelp.com/biz/mama-capri-brooklyn?adjust_creative=-uBzzloii2ivvF3N0jkhKQ&utm_campaign=yelp_api_v3&utm_medium=api_v3_business_search&utm_source=-uBzzloii2ivvF3N0jkhKQ,lQ87D3INFtCoGAuo715_jw
57,Alice Restaurant,Italian,,,126 W 13th St,40.73710696813969,-73.99863114881475,,
58,Cecconi's Dumbo,Italian,3.5,$$$,55 Water St,40.7033063330116,-73.9916549604523,https://www.yelp.com/biz/cecconis-dumbo-brooklyn?adjust_creative=-uBzzloii2ivvF3N0jkhKQ&utm_campaign=yelp_api_v3&utm_medium=api_v3_business_search&utm_source=-uBzzloii2ivvF3N0jkhKQ,-Gc5sTFxoXM3Tiv_dkSJZg
59,Osteria Del Porto,Italian,,,212 Front St,40.70737443140159,-74.00270427364536,,
60,Scampi,Italian,4.0,$$$,30 W 18th St,40.73902,-73.99358,https://www.yelp.com/biz/scampi-new-york-2?adjust_creative=-uBzzloii2ivvF3N0jkhKQ&utm_campaign=yelp_api_v3&utm_medium=api_v3_business_search&utm_source=-uBzzloii2ivvF3N0jkhKQ,wOq-Jt26jnFf_rhF4r5D6w
61,Fai Bene,Italian,,,255 3rd Ave,40.678095000027035,-73.98545250941578,,
62,Salt + Charcoal,Japanese,4.0,$$,171 Grand St,40.71453,-73.9613511,https://www.yelp.com/biz/salt-charcoal-brooklyn?adjust_creative=-uBzzloii2ivvF3N0jkhKQ&utm_campaign=yelp_api_v3&utm_medium=api_v3_business_search&utm_source=-uBzzloii2ivvF3N0jkhKQ,m1cJLpDN4B-_0hGgPfe5OA
63,Okonomi,Japanese,4.5,$$,150 Ainslie St,40.712622,-73.9487843,https://www.yelp.com/biz/okonomi-brooklyn?adjust_creative=-uBzzloii2ivvF3N0jkhKQ&utm_campaign=yelp_api_v3&utm_medium=api_v3_business_search&utm_source=-uBzzloii2ivvF3N0jkhKQ,7OMGEtFWT6sdd9TVuoGqJQ
64,Kaoru,Japanese,4.5,$$,306 E 46th St,40.75202,-73.96977,https://www.yelp.com/biz/kaoru-new-york?adjust_creative=-uBzzloii2ivvF3N0jkhKQ&utm_campaign=yelp_api_v3&utm_medium=api_v3_business_search&utm_source=-uBzzloii2ivvF3N0jkhKQ,diz6_4TVSP6EdWEZCZ0Acg
65,La Pulperia Hell's Kitchen,Latin American,4.0,$$$,623 9th Ave,40.7599217,-73.991841,https://www.yelp.com/biz/la-pulperia-hells-kitchen-new-york?adjust_creative=-uBzzloii2ivvF3N0jkhKQ&utm_campaign=yelp_api_v3&utm_medium=api_v3_business_search&utm_source=-uBzzloii2ivvF3N0jkhKQ,WqjqHMozyW42XLTtLnKGag
66,Buena Vista Restaurant & Bar,Latin American,4.5,$$,536 9th Ave,40.75686,-73.99356,https://www.yelp.com/biz/buena-vista-restaurant-and-bar-new-york?adjust_creative=-uBzzloii2ivvF3N0jkhKQ&utm_campaign=yelp_api_v3&utm_medium=api_v3_business_search&utm_source=-uBzzloii2ivvF3N0jkhKQ,PGpCaNkB1meojnbgRmb2gQ
67,Goodas Bar & Lounge,Lounges,,,971 E New York Ave,40.66381,-73.93062,,
68,Pheasant,Mediterranean,4.5,$$$,445 Graham Ave,40.7185,-73.9452,https://www.yelp.com/biz/pheasant-brooklyn?adjust_creative=-uBzzloii2ivvF3N0jkhKQ&utm_campaign=yelp_api_v3&utm_medium=api_v3_business_search&utm_source=-uBzzloii2ivvF3N0jkhKQ,_DBhCb0k5CM_nEE7FO7QTg
69,Eléa,Mediterranean,,,217 W 85th St,40.78754,-73.9765199,,
70,Mémé Mediterranean,Mediterranean,4.0,$$,581 Hudson St,40.736412,-74.00616,https://www.yelp.com/biz/m%C3%A9m%C3%A9-mediterranean-new-york-4?adjust_creative=-uBzzloii2ivvF3N0jkhKQ&utm_campaign=yelp_api_v3&utm_medium=api_v3_business_search&utm_source=-uBzzloii2ivvF3N0jkhKQ,enT7NJ7tLMvUMCWQcsUonw
71,Abuqir Seafood,Mediterranean,5.0,$$,24-19 Steinway St,40.7683,-73.9110794,https://www.yelp.com/biz/abuqir-seafood-astoria?adjust_creative=-uBzzloii2ivvF3N0jkhKQ&utm_campaign=yelp_api_v3&utm_medium=api_v3_business_search&utm_source=-uBzzloii2ivvF3N0jkhKQ,8TfhQaCxux6Eq8SK8iqyoQ
72,Tacoway Beach,Mexican,4.0,$$,302 Beach 87th St,40.58886,-73.812093,https://www.yelp.com/biz/tacoway-beach-rockaway-beach?adjust_creative=-uBzzloii2ivvF3N0jkhKQ&utm_campaign=yelp_api_v3&utm_medium=api_v3_business_search&utm_source=-uBzzloii2ivvF3N0jkhKQ,hMWo5pJqSYTcc9dNmR1QMg
73,Mission Ceviche,Peruvian,4.5,$$$,1400 2nd Ave,40.7692325,-73.9578759,https://www.yelp.com/biz/mission-ceviche-new-york-3?adjust_creative=-uBzzloii2ivvF3N0jkhKQ&utm_campaign=yelp_api_v3&utm_medium=api_v3_business_search&utm_source=-uBzzloii2ivvF3N0jkhKQ,wx9mXol6jOrUoAK4vaFS9Q
74,Riko Peruvian Cuisine,Peruvian,4.0,$$,409 8th Ave,40.75000088731887,-73.99528014341121,https://www.yelp.com/biz/riko-peruvian-cuisine-new-york-2?adjust_creative=-uBzzloii2ivvF3N0jkhKQ&utm_campaign=yelp_api_v3&utm_medium=api_v3_business_search&utm_source=-uBzzloii2ivvF3N0jkhKQ,ySIIdmS4oh-QL2dny7GscA
75,Pollo D' Oro,Peruvian,4.0,$$,306 Gold St,40.69506,-73.98339,https://www.yelp.com/biz/pollo-d-oro-brooklyn?adjust_creative=-uBzzloii2ivvF3N0jkhKQ&utm_campaign=yelp_api_v3&utm_medium=api_v3_business_search&utm_source=-uBzzloii2ivvF3N0jkhKQ,be7zagjfrCYN9EQ5ijld5w
76,NR,Ramen,4.5,$$,339 E 75th St,40.770153,-73.954956,https://www.yelp.com/biz/nr-new-york-4?adjust_creative=-uBzzloii2ivvF3N0jkhKQ&utm_campaign=yelp_api_v3&utm_medium=api_v3_business_search&utm_source=-uBzzloii2ivvF3N0jkhKQ,X83qWL5WPR-QWGXGQ8WP-Q
77,RYUJIN,Ramen,4.0,$$,513 Grand St,40.711178187852,-73.9506256676857,https://www.yelp.com/biz/ryujin-brooklyn-8?adjust_creative=-uBzzloii2ivvF3N0jkhKQ&utm_campaign=yelp_api_v3&utm_medium=api_v3_business_search&utm_source=-uBzzloii2ivvF3N0jkhKQ,0gPXct_l_82phIEoKdtWZw
78,King Of The Sea,Seafood,,,1102 Bedford Ave,40.687,-73.95479,,
79,Blue Seafood Bar,Seafood,4.0,$$$,856 Ninth Ave,40.76685,-73.98615,https://www.yelp.com/biz/blue-seafood-bar-new-york?adjust_creative=-uBzzloii2ivvF3N0jkhKQ&utm_campaign=yelp_api_v3&utm_medium=api_v3_business_search&utm_source=-uBzzloii2ivvF3N0jkhKQ,AfiSqDmx7Q3qLLgAvhHSRQ
80,Legasea Seafood Brasserie,Seafood,4.0,$$$,485 7th Ave,40.75238,-73.98939,https://www.yelp.com/biz/legasea-seafood-brasserie-new-york-3?adjust_creative=-uBzzloii2ivvF3N0jkhKQ&utm_campaign=yelp_api_v3&utm_medium=api_v3_business_search&utm_source=-uBzzloii2ivvF3N0jkhKQ,k2sHdf6WeY22pK3hs6mtqA
81,Hook & Reel Cajun Seafood & Bar,Seafood,,,1217 Surf Ave,40.57584,-73.98029,,
82,Pips,Seafood,,,129 Atlantic Ave,40.690902,-73.995738,,
83,The High Seafood,Seafood,,,2716 John F Kennedy Blvd,40.72902476303974,-74.06948522550644,,
84,Extra Virgin,Seafood,3.5,$$,259 W 4th St,40.7353962496717,-74.0031888223197,https://www.yelp.com/biz/extra-virgin-new-york?adjust_creative=-uBzzloii2ivvF3N0jkhKQ&utm_campaign=yelp_api_v3&utm_medium=api_v3_business_search&utm_source=-uBzzloii2ivvF3N0jkhKQ,KpBfFpjzsGvvqAzCasVW0g
85,Sirenetta Seafood & Raw Bar,Seafood,3.5,$$$,1039 Washington St,40.749696,-74.026912,https://www.yelp.com/biz/sirenetta-seafood-and-raw-bar-hoboken?adjust_creative=-uBzzloii2ivvF3N0jkhKQ&utm_campaign=yelp_api_v3&utm_medium=api_v3_business_search&utm_source=-uBzzloii2ivvF3N0jkhKQ,Tjc-TchvxYkiEdf3vA1pQA
86,Surf & Turf,Seafood,4.0,$$,2954 Avenue U,40.60045,-73.94066,https://www.yelp.com/biz/surf-and-turf-brooklyn?adjust_creative=-uBzzloii2ivvF3N0jkhKQ&utm_campaign=yelp_api_v3&utm_medium=api_v3_business_search&utm_source=-uBzzloii2ivvF3N0jkhKQ,hsnTsIFnQ9Lv4TDJHrIEEQ
87,Black Nile,Seafood,4.5,$$,592 Nostrand Ave,40.67823,-73.94998,https://www.yelp.com/biz/black-nile-brooklyn-2?adjust_creative=-uBzzloii2ivvF3N0jkhKQ&utm_campaign=yelp_api_v3&utm_medium=api_v3_business_search&utm_source=-uBzzloii2ivvF3N0jkhKQ,IPh4H0AfWk5LVplgYV9OGQ
88,BK Lobster,Seafood,,,572 Myrtle Ave,40.693795,-73.9616288,,
89,El Puerto Seafood,Seafood,4.0,$$,511 W 125th St,40.8140258789062,-73.956413269043,https://www.yelp.com/biz/el-puerto-seafood-new-york?adjust_creative=-uBzzloii2ivvF3N0jkhKQ&utm_campaign=yelp_api_v3&utm_medium=api_v3_business_search&utm_source=-uBzzloii2ivvF3N0jkhKQ,5jfJyABI5zAUk79IZXHtrw
90,Off The Hook Raw Bar & Grill,Seafood,4.0,$$,28-08 34th St,40.767167,-73.918014,https://www.yelp.com/biz/off-the-hook-raw-bar-and-grill-astoria?adjust_creative=-uBzzloii2ivvF3N0jkhKQ&utm_campaign=yelp_api_v3&utm_medium=api_v3_business_search&utm_source=-uBzzloii2ivvF3N0jkhKQ,pL7MK_PsDtrKdBm1xLPzkg
91,BK Lobster Park Slope,Seafood,4.0,$$,494 4th Ave,40.66875324366394,-73.99035059406613,https://www.yelp.com/biz/bk-lobster-park-slope-brooklyn-2?adjust_creative=-uBzzloii2ivvF3N0jkhKQ&utm_campaign=yelp_api_v3&utm_medium=api_v3_business_search&utm_source=-uBzzloii2ivvF3N0jkhKQ,CY2ju2Ez7j9W2TPiO3tPcA
92,Nola Seafood,Seafood,,,38-18 Prince St,40.75974,-73.83253,,
93,Grand Army,Seafood,3.5,$$,336 State St,40.688182,-73.986572,https://www.yelp.com/biz/grand-army-brooklyn?adjust_creative=-uBzzloii2ivvF3N0jkhKQ&utm_campaign=yelp_api_v3&utm_medium=api_v3_business_search&utm_source=-uBzzloii2ivvF3N0jkhKQ,n-59KQvfQhURg6WBqxXEQw
94,Twist Seafood Restaurant & Bar,Seafood,,,4202 3rd Ave,40.652309,-74.010406,,
95,Hamido Seafood,Seafood,,,3308 Ditmars Blvd,40.7750008,-73.9095623,,
96,Randazzo's Clam Bar,Seafood,3.5,$$,2017 Emmons Ave,40.5838863,-73.9478455,https://www.yelp.com/biz/randazzos-clam-bar-brooklyn?adjust_creative=-uBzzloii2ivvF3N0jkhKQ&utm_campaign=yelp_api_v3&utm_medium=api_v3_business_search&utm_source=-uBzzloii2ivvF3N0jkhKQ,rlp1_EyRynmIDlJClhRNlQ
97,BK Lobster,Seafood,4.0,$$,340 Bedford Ave,40.712792,-73.962541,https://www.yelp.com/biz/bk-lobster-brooklyn-8?adjust_creative=-uBzzloii2ivvF3N0jkhKQ&utm_campaign=yelp_api_v3&utm_medium=api_v3_business_search&utm_source=-uBzzloii2ivvF3N0jkhKQ,2Lnmwq2xg_atspvTtjTecg
98,Petite Crevette,Seafood,4.0,$$,144 Union St,40.68396,-74.0018,https://www.yelp.com/biz/petite-crevette-brooklyn?adjust_creative=-uBzzloii2ivvF3N0jkhKQ&utm_campaign=yelp_api_v3&utm_medium=api_v3_business_search&utm_source=-uBzzloii2ivvF3N0jkhKQ,TCJrcryBkI6eg2HYThoiKg
99,Docks Oyster Bar and Seafood Grill,Seafood,3.5,$$$,633 3rd Ave,40.7495410989218,-73.9751169755325,https://www.yelp.com/biz/docks-oyster-bar-and-seafood-grill-new-york?adjust_creative=-uBzzloii2ivvF3N0jkhKQ&utm_campaign=yelp_api_v3&utm_medium=api_v3_business_search&utm_source=-uBzzloii2ivvF3N0jkhKQ,FwygEW3PBBh9g4ELNLpS8w
100,Juicy King Crab Express,Seafood,,,837 Franklin Ave,40.669613,-73.958176,,
101,Surf Bar,Seafood,3.5,$$,139 N 6th St,40.7177048496671,-73.9586651666596,https://www.yelp.com/biz/surf-bar-brooklyn?adjust_creative=-uBzzloii2ivvF3N0jkhKQ&utm_campaign=yelp_api_v3&utm_medium=api_v3_business_search&utm_source=-uBzzloii2ivvF3N0jkhKQ,bO7oI7V8MYbRxenHQcWOqQ
102,Red Crab - Juicy Seafood,Seafood,,,1724 Sheepshead Bay Rd,40.58536,-73.95164,,
103,Estiatorio Milos - Midtown New York,Seafood,4.0,$$$$,125 W 55th St,40.76355879708378,-73.97902981165667,https://www.yelp.com/biz/estiatorio-milos-midtown-new-york-new-york?adjust_creative=-uBzzloii2ivvF3N0jkhKQ&utm_campaign=yelp_api_v3&utm_medium=api_v3_business_search&utm_source=-uBzzloii2ivvF3N0jkhKQ,mhhTORjUdXj-UIDjyGmhBg
104,Johnny's Reef Restaurant,Seafood,4.0,$$,2 City Island Ave,40.8377099599469,-73.7826705251312,https://www.yelp.com/biz/johnnys-reef-restaurant-bronx?adjust_creative=-uBzzloii2ivvF3N0jkhKQ&utm_campaign=yelp_api_v3&utm_medium=api_v3_business_search&utm_source=-uBzzloii2ivvF3N0jkhKQ,D8z7FS2SB48zTjvch4bc0g
105,Johnny's Reef Restaurant,Seafood,4.0,$$,2 City Island Ave,40.8377099599469,-73.7826705251312,https://www.yelp.com/biz/johnnys-reef-restaurant-bronx?adjust_creative=-uBzzloii2ivvF3N0jkhKQ&utm_campaign=yelp_api_v3&utm_medium=api_v3_business_search&utm_source=-uBzzloii2ivvF3N0jkhKQ,D8z7FS2SB48zTjvch4bc0g
106,Brooklyn Bay Seafood,Seafood,,,7026 3rd Ave,40.6341653608713,-74.026490981364,,
107,Seamore's - Chelsea,Seafood,3.5,$$,161 8th Ave,40.74247,-74.0009,https://www.yelp.com/biz/seamores-chelsea-new-york?adjust_creative=-uBzzloii2ivvF3N0jkhKQ&utm_campaign=yelp_api_v3&utm_medium=api_v3_business_search&utm_source=-uBzzloii2ivvF3N0jkhKQ,oMT2qhqYgpLZFZ7gcPZnwQ
108,Littleneck,Seafood,4.0,$$,288 3rd Ave,40.6773052,-73.9863991,https://www.yelp.com/biz/littleneck-brooklyn?adjust_creative=-uBzzloii2ivvF3N0jkhKQ&utm_campaign=yelp_api_v3&utm_medium=api_v3_business_search&utm_source=-uBzzloii2ivvF3N0jkhKQ,thUk6cIQKtW9YXbDbsZ81A
109,Burger & Lobster - Bryant Park,Seafood,4.0,$$,132 W 43rd St,40.75596,-73.98532,https://www.yelp.com/biz/burger-and-lobster-bryant-park-new-york-2?adjust_creative=-uBzzloii2ivvF3N0jkhKQ&utm_campaign=yelp_api_v3&utm_medium=api_v3_business_search&utm_source=-uBzzloii2ivvF3N0jkhKQ,YtXl15Nv7TZvV3yIqbZc8A
110,Taverna Kyclades,Seafood,4.0,$$,3307 Ditmars Blvd,40.7753227,-73.909217,https://www.yelp.com/biz/taverna-kyclades-astoria?adjust_creative=-uBzzloii2ivvF3N0jkhKQ&utm_campaign=yelp_api_v3&utm_medium=api_v3_business_search&utm_source=-uBzzloii2ivvF3N0jkhKQ,JEQ00qBAepe0oSiUBdfIew
111,The Shadmoor,Seafood,4.5,$$,1066 2nd Ave,40.75866,-73.9655499,https://www.yelp.com/biz/the-shadmoor-new-york?adjust_creative=-uBzzloii2ivvF3N0jkhKQ&utm_campaign=yelp_api_v3&utm_medium=api_v3_business_search&utm_source=-uBzzloii2ivvF3N0jkhKQ,zv29TbzPs9-rD5ql0qWw5A
112,American Brass On The Water,Seafood,4.5,$$$,Corner Of Center Blvd And 49th Ave,40.7441416,-73.9583929,https://www.yelp.com/biz/american-brass-on-the-water-long-island-city?adjust_creative=-uBzzloii2ivvF3N0jkhKQ&utm_campaign=yelp_api_v3&utm_medium=api_v3_business_search&utm_source=-uBzzloii2ivvF3N0jkhKQ,z0lX40tXQxOHlU26VhLATA
113,Naked Crab,Seafood,4.0,$$,39-16 College Point Blvd,40.7585,-73.83467,https://www.yelp.com/biz/naked-crab-flushing?adjust_creative=-uBzzloii2ivvF3N0jkhKQ&utm_campaign=yelp_api_v3&utm_medium=api_v3_business_search&utm_source=-uBzzloii2ivvF3N0jkhKQ,FC2uST9JpPCFmjDcMDVZMA
114,Chart House,Seafood,4.0,$$$,1700 Harbor Blvd,40.7607,-74.018038,https://www.yelp.com/biz/chart-house-weehawken?adjust_creative=-uBzzloii2ivvF3N0jkhKQ&utm_campaign=yelp_api_v3&utm_medium=api_v3_business_search&utm_source=-uBzzloii2ivvF3N0jkhKQ,_WsfOuvObbp1tH4cBE-jNw
115,Dorlan's Tavern & Oyster Bar,Seafood,3.5,$$,213 Front St,40.70726,-74.00227,https://www.yelp.com/biz/dorlans-tavern-and-oyster-bar-new-york?adjust_creative=-uBzzloii2ivvF3N0jkhKQ&utm_campaign=yelp_api_v3&utm_medium=api_v3_business_search&utm_source=-uBzzloii2ivvF3N0jkhKQ,2Fpw5OH9TCEIrBuHmN3rGA
116,Mary's Fish Camp,Seafood,4.0,$$$,64 Charles St,40.7348192,-74.0032416,https://www.yelp.com/biz/marys-fish-camp-new-york?adjust_creative=-uBzzloii2ivvF3N0jkhKQ&utm_campaign=yelp_api_v3&utm_medium=api_v3_business_search&utm_source=-uBzzloii2ivvF3N0jkhKQ,DlDIBBcongaBW2FyNRqeiw
117,The Mermaid Inn,Seafood,4.0,$$,570 Amsterdam Ave,40.7887398925594,-73.9744491607132,https://www.yelp.com/biz/the-mermaid-inn-new-york-2?adjust_creative=-uBzzloii2ivvF3N0jkhKQ&utm_campaign=yelp_api_v3&utm_medium=api_v3_business_search&utm_source=-uBzzloii2ivvF3N0jkhKQ,vQcK7BH6maW9dAZWJOuW3Q
118,Luke's Lobster FiDi,Seafood,4.5,$$,26 S William St,40.7046213003984,-74.0107793876969,https://www.yelp.com/biz/lukes-lobster-fidi-new-york?adjust_creative=-uBzzloii2ivvF3N0jkhKQ&utm_campaign=yelp_api_v3&utm_medium=api_v3_business_search&utm_source=-uBzzloii2ivvF3N0jkhKQ,kxykwx5qTWBhlMh18MQ82Q
119,Luke's Lobster Brooklyn Bridge Park,Seafood,4.0,$$,11 Water St,40.70359,-73.99411,https://www.yelp.com/biz/lukes-lobster-brooklyn-bridge-park-brooklyn-2?adjust_creative=-uBzzloii2ivvF3N0jkhKQ&utm_campaign=yelp_api_v3&utm_medium=api_v3_business_search&utm_source=-uBzzloii2ivvF3N0jkhKQ,RrNe_0PReWHXAnjTEXBikQ
120,The Fulton,Seafood,3.5,$$$,89 S St,40.7053694327276,-74.00123,https://www.yelp.com/biz/the-fulton-new-york-2?adjust_creative=-uBzzloii2ivvF3N0jkhKQ&utm_campaign=yelp_api_v3&utm_medium=api_v3_business_search&utm_source=-uBzzloii2ivvF3N0jkhKQ,LOeDR4X-YRToeo3hy_plew
121,Hook & Reel Cajun Seafood & Bar,Seafood,,,430 Albee Square W,40.69088,-73.98378,,
122,Dame,Seafood,,,87 MacDougal St,40.7289445,-74.0015073,,
123,Juicy King Crab Express,Seafood,,,213 East Broadway,40.714043,-73.987546,,
124,Oceans New York,Seafood,4.5,$$$,233 Park Ave S,40.737408,-73.987887,https://www.yelp.com/biz/oceans-new-york-new-york?adjust_creative=-uBzzloii2ivvF3N0jkhKQ&utm_campaign=yelp_api_v3&utm_medium=api_v3_business_search&utm_source=-uBzzloii2ivvF3N0jkhKQ,afbl_jCNpomzJiDBdomb6g
125,Crave Fishbar,Seafood,4.0,$$,428 Amsterdam Ave,40.78428,-73.97772,https://www.yelp.com/biz/crave-fishbar-new-york-2?adjust_creative=-uBzzloii2ivvF3N0jkhKQ&utm_campaign=yelp_api_v3&utm_medium=api_v3_business_search&utm_source=-uBzzloii2ivvF3N0jkhKQ,0LKC_M1bumyOcgWgbH9OdQ
126,The Clam,Seafood,4.0,$$$,420 Hudson St,40.7303076612002,-74.0068030357639,https://www.yelp.com/biz/the-clam-new-york?adjust_creative=-uBzzloii2ivvF3N0jkhKQ&utm_campaign=yelp_api_v3&utm_medium=api_v3_business_search&utm_source=-uBzzloii2ivvF3N0jkhKQ,mPOa5FLgjWrK3k6yxBGQnw
127,Crave Fishbar,Seafood,4.0,$$$,945 2nd Ave,40.755136,-73.968683,https://www.yelp.com/biz/crave-fishbar-new-york?adjust_creative=-uBzzloii2ivvF3N0jkhKQ&utm_campaign=yelp_api_v3&utm_medium=api_v3_business_search&utm_source=-uBzzloii2ivvF3N0jkhKQ,dYm7DXMy1r8kCmKiz1MO8w
128,Shaking Crab- Brooklyn,Seafood,3.5,$$,230 5th Ave,40.675783,-73.981205,https://www.yelp.com/biz/shaking-crab-brooklyn-brooklyn-2?adjust_creative=-uBzzloii2ivvF3N0jkhKQ&utm_campaign=yelp_api_v3&utm_medium=api_v3_business_search&utm_source=-uBzzloii2ivvF3N0jkhKQ,UvQr8V1dD_d6yRsMJi04wA
129,Bice Cucina - Midtown,Seafood,,,62 W 55th St,40.7624702435463,-73.9768997892404,,
130,Avra Estiatorio,Seafood,4.0,$$$,141 E 48th St,40.75503581588927,-73.97244109270292,https://www.yelp.com/biz/avra-estiatorio-new-york-3?adjust_creative=-uBzzloii2ivvF3N0jkhKQ&utm_campaign=yelp_api_v3&utm_medium=api_v3_business_search&utm_source=-uBzzloii2ivvF3N0jkhKQ,F89nDDlYZ7wbRe8EpLCqBw
131,Bar Crudo,Seafood,,,412 Fifth Ave,40.670226,-73.985768,,
132,Oceana,Seafood,4.0,$$$,120 W 49th St,40.7597971248568,-73.9825657859833,https://www.yelp.com/biz/oceana-new-york-2?adjust_creative=-uBzzloii2ivvF3N0jkhKQ&utm_campaign=yelp_api_v3&utm_medium=api_v3_business_search&utm_source=-uBzzloii2ivvF3N0jkhKQ,S-BwjmHOZ--bC4nUR4-cmA
133,Lure Fishbar,Seafood,4.0,$$$,142 Mercer St,40.724612166991,-73.998574708004,https://www.yelp.com/biz/lure-fishbar-new-york-2?adjust_creative=-uBzzloii2ivvF3N0jkhKQ&utm_campaign=yelp_api_v3&utm_medium=api_v3_business_search&utm_source=-uBzzloii2ivvF3N0jkhKQ,aSFBv64GBpMOFPqIleeQFQ
134,Red Hook Lobster Pound,Seafood,4.0,$$,284 Van Brunt St,40.6797687107191,-74.0103686973453,https://www.yelp.com/biz/red-hook-lobster-pound-brooklyn?adjust_creative=-uBzzloii2ivvF3N0jkhKQ&utm_campaign=yelp_api_v3&utm_medium=api_v3_business_search&utm_source=-uBzzloii2ivvF3N0jkhKQ,nOjGNqPcu5jHRRElOndQqQ
135,Upstate Craft Beer & Oyster Bar,Seafood,4.5,$$,95 1st Ave,40.726373,-73.986557,https://www.yelp.com/biz/upstate-craft-beer-and-oyster-bar-new-york-4?adjust_creative=-uBzzloii2ivvF3N0jkhKQ&utm_campaign=yelp_api_v3&utm_medium=api_v3_business_search&utm_source=-uBzzloii2ivvF3N0jkhKQ,ehUuSk5gPTCQmwS_ubgKRA
136,Sea Fire Grill,Seafood,4.5,$$$,158 E 48th St,40.7547012104496,-73.972255513072,https://www.yelp.com/biz/sea-fire-grill-new-york?adjust_creative=-uBzzloii2ivvF3N0jkhKQ&utm_campaign=yelp_api_v3&utm_medium=api_v3_business_search&utm_source=-uBzzloii2ivvF3N0jkhKQ,ryvBsB9FrBBZDak87iGS1w
137,Sea Wolf - Williamsburg Waterfront,Seafood,4.0,$$$,420 Kent Ave,40.709946,-73.968608,https://www.yelp.com/biz/sea-wolf-williamsburg-waterfront-brooklyn?adjust_creative=-uBzzloii2ivvF3N0jkhKQ&utm_campaign=yelp_api_v3&utm_medium=api_v3_business_search&utm_source=-uBzzloii2ivvF3N0jkhKQ,6jPju63RQy3P3ov9-ejP7g
138,Seaport House,Seafood,4.0,$$,229 Front St,40.707503,-74.001945,https://www.yelp.com/biz/seaport-house-new-york?adjust_creative=-uBzzloii2ivvF3N0jkhKQ&utm_campaign=yelp_api_v3&utm_medium=api_v3_business_search&utm_source=-uBzzloii2ivvF3N0jkhKQ,Roj5hZ0Tq22ruarnGnLiVQ
139,Aqua Boil,Seafood,4.5,$$,750 9th Ave,40.763702,-73.988386,https://www.yelp.com/biz/aqua-boil-new-york-2?adjust_creative=-uBzzloii2ivvF3N0jkhKQ&utm_campaign=yelp_api_v3&utm_medium=api_v3_business_search&utm_source=-uBzzloii2ivvF3N0jkhKQ,wRHUJ69-f4CiV5BRY72mUg
140,Fish Cheeks,Seafood,4.5,$$,55 Bond St,40.7258,-73.9927,https://www.yelp.com/biz/fish-cheeks-new-york?adjust_creative=-uBzzloii2ivvF3N0jkhKQ&utm_campaign=yelp_api_v3&utm_medium=api_v3_business_search&utm_source=-uBzzloii2ivvF3N0jkhKQ,WJS06XxRdc6DD1s4LWE9HA
141,Maison Premiere,Seafood,4.0,$$$,298 Bedford Ave,40.7142634,-73.96166459999999,https://www.yelp.com/biz/maison-premiere-brooklyn?adjust_creative=-uBzzloii2ivvF3N0jkhKQ&utm_campaign=yelp_api_v3&utm_medium=api_v3_business_search&utm_source=-uBzzloii2ivvF3N0jkhKQ,O4rYM6YBj90W2u7RhG3Mvg
142,Fishmarket Restaurant,Seafood,4.5,$$,111 South St,40.70717,-74.00192,https://www.yelp.com/biz/fishmarket-restaurant-new-york?adjust_creative=-uBzzloii2ivvF3N0jkhKQ&utm_campaign=yelp_api_v3&utm_medium=api_v3_business_search&utm_source=-uBzzloii2ivvF3N0jkhKQ,LpVbI-E9C-CSp7WhU5h2Iw
143,Burger & Lobster - Flatiron NYC,Seafood,4.0,$$,39 W 19th St,40.74007,-73.99344,https://www.yelp.com/biz/burger-and-lobster-flatiron-nyc-new-york?adjust_creative=-uBzzloii2ivvF3N0jkhKQ&utm_campaign=yelp_api_v3&utm_medium=api_v3_business_search&utm_source=-uBzzloii2ivvF3N0jkhKQ,UA2M9QFZghe-9th2KwLoWQ
144,Royal And Company Seafood Bar,Seafood,,,160 Havemeyer St,40.71140731134931,-73.95795946647044,,
145,Seamore’s Dumbo,Seafood,3.5,$$,66 Water St,40.7032,-73.99145,https://www.yelp.com/biz/seamore-s-dumbo-brooklyn-3?adjust_creative=-uBzzloii2ivvF3N0jkhKQ&utm_campaign=yelp_api_v3&utm_medium=api_v3_business_search&utm_source=-uBzzloii2ivvF3N0jkhKQ,CqtT8rPaSmrRClUBbqsCFA
146,Seamore's - Nolita,Seafood,4.0,$$,390 Broome St,40.720673,-73.996911,https://www.yelp.com/biz/seamores-nolita-new-york-2?adjust_creative=-uBzzloii2ivvF3N0jkhKQ&utm_campaign=yelp_api_v3&utm_medium=api_v3_business_search&utm_source=-uBzzloii2ivvF3N0jkhKQ,DIqsYe-HJS8etyDyXNovBg
147,Lamia's Fish Market,Seafood,,,47 Ave B,40.722979,-73.9825102,,
148,Ama Raw Bar,Seafood,,,190 Avenue B,40.727996,-73.979324,,
149,Brooklyn Crab,Seafood,3.0,$$,24 Reed St,40.6752649,-74.016568,https://www.yelp.com/biz/brooklyn-crab-brooklyn?adjust_creative=-uBzzloii2ivvF3N0jkhKQ&utm_campaign=yelp_api_v3&utm_medium=api_v3_business_search&utm_source=-uBzzloii2ivvF3N0jkhKQ,_eC8r8yMhcmDL7PWmaNK9w
150,Ocean Prime,Seafood,4.5,$$$$,123 W 52nd St,40.7617438,-73.9805565,https://www.yelp.com/biz/ocean-prime-new-york?adjust_creative=-uBzzloii2ivvF3N0jkhKQ&utm_campaign=yelp_api_v3&utm_medium=api_v3_business_search&utm_source=-uBzzloii2ivvF3N0jkhKQ,3Gz07E5YJjDTJPSuzsAStQ
151,Lobster Joint,Seafood,4.0,$$,1073 Manhattan Ave,40.7354,-73.95528,https://www.yelp.com/biz/lobster-joint-brooklyn?adjust_creative=-uBzzloii2ivvF3N0jkhKQ&utm_campaign=yelp_api_v3&utm_medium=api_v3_business_search&utm_source=-uBzzloii2ivvF3N0jkhKQ,z5EpI39omxW6aK_X2uHi8A
152,Greenpoint Fish & Lobster,Seafood,4.0,$$,114 Nassau Ave,40.724128,-73.9491199,https://www.yelp.com/biz/greenpoint-fish-and-lobster-brooklyn?adjust_creative=-uBzzloii2ivvF3N0jkhKQ&utm_campaign=yelp_api_v3&utm_medium=api_v3_business_search&utm_source=-uBzzloii2ivvF3N0jkhKQ,sEuLm5fQgWkkiYBt6OphWQ
153,Jeffrey's Grocery,Seafood,4.0,$$,172 Waverly Pl,40.73399,-74.00137,https://www.yelp.com/biz/jeffreys-grocery-new-york?adjust_creative=-uBzzloii2ivvF3N0jkhKQ&utm_campaign=yelp_api_v3&utm_medium=api_v3_business_search&utm_source=-uBzzloii2ivvF3N0jkhKQ,FG3toTBOTyfVTePW5RuWSw
154,Nick's Lobster House,Seafood,3.5,$$$,2777 Flatbush Ave,40.6035857241758,-73.9152159388703,https://www.yelp.com/biz/nicks-lobster-house-brooklyn?adjust_creative=-uBzzloii2ivvF3N0jkhKQ&utm_campaign=yelp_api_v3&utm_medium=api_v3_business_search&utm_source=-uBzzloii2ivvF3N0jkhKQ,wVzUbIffBw0oJRZ-Eiz59Q
155,Just BeClaws,Seafood,4.0,$$,280 1st St,40.7221345,-74.0465332,https://www.yelp.com/biz/just-beclaws-jersey-city?adjust_creative=-uBzzloii2ivvF3N0jkhKQ&utm_campaign=yelp_api_v3&utm_medium=api_v3_business_search&utm_source=-uBzzloii2ivvF3N0jkhKQ,cdoYC58vXUvaTkp3Cl-wnQ
156,Cervo's,Seafood,4.0,$$$,43 Canal St,40.7149,-73.99132,https://www.yelp.com/biz/cervos-new-york?adjust_creative=-uBzzloii2ivvF3N0jkhKQ&utm_campaign=yelp_api_v3&utm_medium=api_v3_business_search&utm_source=-uBzzloii2ivvF3N0jkhKQ,IQhtCTvorekeqbJr4Zf0Lg
157,The Boil,Seafood,4.0,$$$,8 Erie St,40.72128,-74.04407,https://www.yelp.com/biz/the-boil-jersey-city?adjust_creative=-uBzzloii2ivvF3N0jkhKQ&utm_campaign=yelp_api_v3&utm_medium=api_v3_business_search&utm_source=-uBzzloii2ivvF3N0jkhKQ,K7gNRpP7FdEITs0GgrKfUw
158,Juicy King Crab Express,Seafood,,,1126 Broadway,40.693554,-73.929594,,
159,The Folly,Seafood,4.0,$$,92 W Houston St,40.72721,-74.00004,https://www.yelp.com/biz/the-folly-new-york?adjust_creative=-uBzzloii2ivvF3N0jkhKQ&utm_campaign=yelp_api_v3&utm_medium=api_v3_business_search&utm_source=-uBzzloii2ivvF3N0jkhKQ,1vAMfzO6i89lDayBT1zlLA
160,Saint Julivert,Seafood,,,264 Clinton St,40.68787,-73.99565,,
161,Hooked JC,Seafood,4.5,$$,467 Communipaw Ave,40.7146930849064,-74.0670708676607,https://www.yelp.com/biz/hooked-jc-jersey-city?adjust_creative=-uBzzloii2ivvF3N0jkhKQ&utm_campaign=yelp_api_v3&utm_medium=api_v3_business_search&utm_source=-uBzzloii2ivvF3N0jkhKQ,e1d40LtcHu8WU4iaJxLdVw
162,LoLo's Seafood Shack,Seafood,4.0,$$,303 W 116th St,40.80486,-73.95567,https://www.yelp.com/biz/lolos-seafood-shack-new-york?adjust_creative=-uBzzloii2ivvF3N0jkhKQ&utm_campaign=yelp_api_v3&utm_medium=api_v3_business_search&utm_source=-uBzzloii2ivvF3N0jkhKQ,XOnspIaW6mYVmrvgqOaYSQ
163,Morgan Fish Market & Restaurant,Seafood,4.5,$$,2801 John F Kennedy Blvd,40.73174,-74.06816,https://www.yelp.com/biz/morgan-fish-market-and-restaurant-jersey-city?adjust_creative=-uBzzloii2ivvF3N0jkhKQ&utm_campaign=yelp_api_v3&utm_medium=api_v3_business_search&utm_source=-uBzzloii2ivvF3N0jkhKQ,rXd3H1LiMXAvBsqCENMxCg
164,Miramar,Seafood,3.5,$$,21 S End Ave,40.70814,-74.01779,https://www.yelp.com/biz/miramar-new-york-2?adjust_creative=-uBzzloii2ivvF3N0jkhKQ&utm_campaign=yelp_api_v3&utm_medium=api_v3_business_search&utm_source=-uBzzloii2ivvF3N0jkhKQ,Q2dKbHvXwmJuoaf1Yahfxw
165,Maiden Lane,Seafood,4.0,$$,162 Ave B,40.7270061842058,-73.9799581110408,https://www.yelp.com/biz/maiden-lane-new-york?adjust_creative=-uBzzloii2ivvF3N0jkhKQ&utm_campaign=yelp_api_v3&utm_medium=api_v3_business_search&utm_source=-uBzzloii2ivvF3N0jkhKQ,U8C69ISrhGTTubjqoVgZYg
166,Vestry,Seafood,4.5,$$$,246 Spring St,40.725315,-74.005515,https://www.yelp.com/biz/vestry-new-york?adjust_creative=-uBzzloii2ivvF3N0jkhKQ&utm_campaign=yelp_api_v3&utm_medium=api_v3_business_search&utm_source=-uBzzloii2ivvF3N0jkhKQ,Ssi8ht_p9rXY03Rwld6EKw
167,1392 Seafood BBQ,Seafood,,,39-16 Prince St,40.759217,-73.832547,,
168,Ed's Lobster Bar,Seafood,4.0,$$$,155 Grand St,40.71993072968719,-73.99901129999999,https://www.yelp.com/biz/eds-lobster-bar-new-york-3?adjust_creative=-uBzzloii2ivvF3N0jkhKQ&utm_campaign=yelp_api_v3&utm_medium=api_v3_business_search&utm_source=-uBzzloii2ivvF3N0jkhKQ,Z2sNzskjS8Ck0plppRBJIg
169,Seamore's Brookfield,Seafood,3.5,$$,250 Vesey St,40.7141804777842,-74.0155678242445,https://www.yelp.com/biz/seamores-brookfield-new-york?adjust_creative=-uBzzloii2ivvF3N0jkhKQ&utm_campaign=yelp_api_v3&utm_medium=api_v3_business_search&utm_source=-uBzzloii2ivvF3N0jkhKQ,e5qXalUNGVoee2NsaDy-cQ
170,Flex Mussels,Seafood,4.0,$$,174 East 82nd St,40.77637,-73.95646,https://www.yelp.com/biz/flex-mussels-new-york?adjust_creative=-uBzzloii2ivvF3N0jkhKQ&utm_campaign=yelp_api_v3&utm_medium=api_v3_business_search&utm_source=-uBzzloii2ivvF3N0jkhKQ,-P7qAIG1wr_gXW3nzIq5TA
171,City Island Lobster House,Seafood,3.5,$$$,691 Bridge St,40.8567604777185,-73.791118271164,https://www.yelp.com/biz/city-island-lobster-house-bronx-2?adjust_creative=-uBzzloii2ivvF3N0jkhKQ&utm_campaign=yelp_api_v3&utm_medium=api_v3_business_search&utm_source=-uBzzloii2ivvF3N0jkhKQ,_z52AlCKEU2Lc-CB1j6Kaw
172,Cobble Fish,Seafood,,,89 South St,40.70530194592761,-74.00257774322735,,
173,Astoria Seafood,Seafood,4.0,$$,37-10 33rd St,40.754,-73.9298699,https://www.yelp.com/biz/astoria-seafood-long-island-city?adjust_creative=-uBzzloii2ivvF3N0jkhKQ&utm_campaign=yelp_api_v3&utm_medium=api_v3_business_search&utm_source=-uBzzloii2ivvF3N0jkhKQ,2LcsDUTlvovnFz-SEcSJTQ
174,The Crabby Shack,Seafood,4.0,$$,613 Franklin Ave,40.6772748759876,-73.9554135086263,https://www.yelp.com/biz/the-crabby-shack-brooklyn?adjust_creative=-uBzzloii2ivvF3N0jkhKQ&utm_campaign=yelp_api_v3&utm_medium=api_v3_business_search&utm_source=-uBzzloii2ivvF3N0jkhKQ,uAy3zyNCmDPO0RpdGjEAdg
175,Sup Crab,Seafood,4.0,$$$,97 Bowery,40.71733,-73.99502,https://www.yelp.com/biz/sup-crab-new-york?adjust_creative=-uBzzloii2ivvF3N0jkhKQ&utm_campaign=yelp_api_v3&utm_medium=api_v3_business_search&utm_source=-uBzzloii2ivvF3N0jkhKQ,Dr_eezrA2Cc_azMYnwhRkA
176,Los Mariscos,Seafood,4.5,$,409 W 15th St,40.74207,-74.00565,https://www.yelp.com/biz/los-mariscos-new-york?adjust_creative=-uBzzloii2ivvF3N0jkhKQ&utm_campaign=yelp_api_v3&utm_medium=api_v3_business_search&utm_source=-uBzzloii2ivvF3N0jkhKQ,L3REPLCvQpMapYPd_fkS-A
177,Estuary,Seafood,,,159 Bridge Park Dr,40.6932355,-74.0007940774,,
178,Cull & Pistol Oyster Bar,Seafood,4.0,$$,75 9th Ave,40.7426589397899,-74.0059285394953,https://www.yelp.com/biz/cull-and-pistol-oyster-bar-new-york?adjust_creative=-uBzzloii2ivvF3N0jkhKQ&utm_campaign=yelp_api_v3&utm_medium=api_v3_business_search&utm_source=-uBzzloii2ivvF3N0jkhKQ,-bdxB20YveudeyL63chscg
179,Pearl Oyster Bar,Seafood,4.0,$$$,18 Cornelia St,40.7314099,-74.00197,https://www.yelp.com/biz/pearl-oyster-bar-new-york?adjust_creative=-uBzzloii2ivvF3N0jkhKQ&utm_campaign=yelp_api_v3&utm_medium=api_v3_business_search&utm_source=-uBzzloii2ivvF3N0jkhKQ,6dSiCqC9x51PZRMOvdQTpA
180,Naughty Crab,Seafood,,,1621 Lexington Ave,40.78979,-73.94789,,
181,Peaches Shrimp and Crab,Seafood,4.0,$$,285 Grand Ave,40.6879838,-73.9625478,https://www.yelp.com/biz/peaches-shrimp-and-crab-brooklyn-4?adjust_creative=-uBzzloii2ivvF3N0jkhKQ&utm_campaign=yelp_api_v3&utm_medium=api_v3_business_search&utm_source=-uBzzloii2ivvF3N0jkhKQ,FCms-eFFxnpMLm09AJridQ
182,Flex Mussels,Seafood,4.0,$$,154 W 13th St,40.737437,-73.999661,https://www.yelp.com/biz/flex-mussels-new-york-2?adjust_creative=-uBzzloii2ivvF3N0jkhKQ&utm_campaign=yelp_api_v3&utm_medium=api_v3_business_search&utm_source=-uBzzloii2ivvF3N0jkhKQ,rHmeJVffuj96M7jbB-wWgw
183,Roy's Fish Market,Seafood Markets,4.5,$$,1138 1st Ave,40.7617347309091,-73.9604171678531,https://www.yelp.com/biz/roys-fish-market-new-york?adjust_creative=-uBzzloii2ivvF3N0jkhKQ&utm_campaign=yelp_api_v3&utm_medium=api_v3_business_search&utm_source=-uBzzloii2ivvF3N0jkhKQ,TXEl8kyZ4de8CoW7nT_i3A
184,Puerto Plata Fish Market,Seafood Markets,4.5,$$,391 Arlington Ave,40.68165,-73.87985,https://www.yelp.com/biz/puerto-plata-fish-market-brooklyn-2?adjust_creative=-uBzzloii2ivvF3N0jkhKQ&utm_campaign=yelp_api_v3&utm_medium=api_v3_business_search&utm_source=-uBzzloii2ivvF3N0jkhKQ,OYxhY0-BZijAW4RB16z7Pg
185,Shipwreck Gourmet Fish Boutique,Seafood Markets,4.5,$$,1049 Bedford Ave,40.6881156,-73.9546684,https://www.yelp.com/biz/shipwreck-gourmet-fish-boutique-brooklyn-4?adjust_creative=-uBzzloii2ivvF3N0jkhKQ&utm_campaign=yelp_api_v3&utm_medium=api_v3_business_search&utm_source=-uBzzloii2ivvF3N0jkhKQ,BiVoGBgMPrPIhAdYgIcaGg
186,Fish Tales,Seafood Markets,4.5,$$$,191A Court St,40.687473,-73.993148,https://www.yelp.com/biz/fish-tales-brooklyn?adjust_creative=-uBzzloii2ivvF3N0jkhKQ&utm_campaign=yelp_api_v3&utm_medium=api_v3_business_search&utm_source=-uBzzloii2ivvF3N0jkhKQ,hudzJdIGMoXmxBO0KsJiFQ
187,Osakana,Seafood Markets,4.0,$$,290 Graham Ave,40.71224,-73.94376,https://www.yelp.com/biz/osakana-brooklyn?adjust_creative=-uBzzloii2ivvF3N0jkhKQ&utm_campaign=yelp_api_v3&utm_medium=api_v3_business_search&utm_source=-uBzzloii2ivvF3N0jkhKQ,EG8MnctXEOXkm7b_yge7Pw
188,Sea Breeze Fish Market,Seafood Markets,4.0,$$,541 9th Ave,40.75731,-73.99367,https://www.yelp.com/biz/sea-breeze-fish-market-new-york?adjust_creative=-uBzzloii2ivvF3N0jkhKQ&utm_campaign=yelp_api_v3&utm_medium=api_v3_business_search&utm_source=-uBzzloii2ivvF3N0jkhKQ,IXqVZN2ox9yrEhi_o3dVqA
189,The Lobster Place,Seafood Markets,4.0,$$,75 9th Ave,40.7427413905213,-74.0060118057704,https://www.yelp.com/biz/the-lobster-place-new-york-2?adjust_creative=-uBzzloii2ivvF3N0jkhKQ&utm_campaign=yelp_api_v3&utm_medium=api_v3_business_search&utm_source=-uBzzloii2ivvF3N0jkhKQ,zfiXI8AwYBRfWjPyv6oh3w
190,Jordan Lobster Farms,Seafood Markets,4.0,$$,1 Pettit Pl,40.596329,-73.654675,https://www.yelp.com/biz/jordan-lobster-farms-island-park?adjust_creative=-uBzzloii2ivvF3N0jkhKQ&utm_campaign=yelp_api_v3&utm_medium=api_v3_business_search&utm_source=-uBzzloii2ivvF3N0jkhKQ,xDIBaJfpmAkUjt0vsTgRHQ
191,Acme Smoked Fish,Seafood Markets,5.0,$$,30 Gem St,40.72542,-73.95662,https://www.yelp.com/biz/acme-smoked-fish-brooklyn?adjust_creative=-uBzzloii2ivvF3N0jkhKQ&utm_campaign=yelp_api_v3&utm_medium=api_v3_business_search&utm_source=-uBzzloii2ivvF3N0jkhKQ,XpAZBiSrLNi0t332tWxYcQ
192,El Born,Spanish,4.5,$$,651 Manhattan Ave,40.7243479163883,-73.9512226101037,https://www.yelp.com/biz/el-born-brooklyn?adjust_creative=-uBzzloii2ivvF3N0jkhKQ&utm_campaign=yelp_api_v3&utm_medium=api_v3_business_search&utm_source=-uBzzloii2ivvF3N0jkhKQ,gvMYV5E3HyzhN_MYFIMGzg
193,Carne Mare,Steakhouses,,,89 South St,40.70634,-74.00383,,
194,Somtum Der Redhook,Thai,,,380 Van Brunt St,40.67707,-74.01343,,
195,Pinto,Thai,4.0,$$,128 Montague St,40.69467724943562,-73.99423425339312,https://www.yelp.com/biz/pinto-brooklyn-3?adjust_creative=-uBzzloii2ivvF3N0jkhKQ&utm_campaign=yelp_api_v3&utm_medium=api_v3_business_search&utm_source=-uBzzloii2ivvF3N0jkhKQ,RrPIJvmje1qb9iaYd6jH0g
196,Liman Restaurant,Turkish,4.0,$$$$,2710 Emmons Ave,40.58356,-73.94114,https://www.yelp.com/biz/liman-restaurant-brooklyn?adjust_creative=-uBzzloii2ivvF3N0jkhKQ&utm_campaign=yelp_api_v3&utm_medium=api_v3_business_search&utm_source=-uBzzloii2ivvF3N0jkhKQ,OhUwfEt_scdr6tiptSI8NQ
197,The Poni Room,Wine Bars,,,316 Bowery,40.72521,-73.99247,,
198,Lighthouse,Wine Bars,4.0,$$,145 Borinquen Pl,40.7104080536563,-73.9539040490168,https://www.yelp.com/biz/lighthouse-brooklyn-2?adjust_creative=-uBzzloii2ivvF3N0jkhKQ&utm_campaign=yelp_api_v3&utm_medium=api_v3_business_search&utm_source=-uBzzloii2ivvF3N0jkhKQ,DhBhEWMVLDxYF14a1znUvA
199,St Tropez West Village,Wine Bars,4.5,$$,304 W 4th St,40.73704,-74.00386,https://www.yelp.com/biz/st-tropez-west-village-new-york-3?adjust_creative=-uBzzloii2ivvF3N0jkhKQ&utm_campaign=yelp_api_v3&utm_medium=api_v3_business_search&utm_source=-uBzzloii2ivvF3N0jkhKQ,CcxreLJbZsO6Z775-hMWpw
