,Restaurant,Type,Rating,Price,Address,Lat,Lng,url,ID
0,Otis,American (New),5.0,$$,18 Harrison Pl,40.706011,-73.932598,https://www.yelp.com/biz/otis-brooklyn-2?adjust_creative=-uBzzloii2ivvF3N0jkhKQ&utm_campaign=yelp_api_v3&utm_medium=api_v3_business_search&utm_source=-uBzzloii2ivvF3N0jkhKQ,RfxOtJ4SQmEeVX_XjFLWUQ
1,LaRina Pastificio & Vino,Bars,4.0,$$,387 Myrtle Ave,40.6933631896973,-73.9704132080078,https://www.yelp.com/biz/larina-pastificio-and-vino-brooklyn?adjust_creative=-uBzzloii2ivvF3N0jkhKQ&utm_campaign=yelp_api_v3&utm_medium=api_v3_business_search&utm_source=-uBzzloii2ivvF3N0jkhKQ,vhqFa_0SG9M7Ra1OTmfB9A
2,Santa Panza,Bars,4.5,$$,1079 Broadway,40.6947,-73.93068,https://www.yelp.com/biz/santa-panza-brooklyn?adjust_creative=-uBzzloii2ivvF3N0jkhKQ&utm_campaign=yelp_api_v3&utm_medium=api_v3_business_search&utm_source=-uBzzloii2ivvF3N0jkhKQ,eTneVbjPKdo4gD9HfkDGdA
3,Tarallucci e Vino - East Village,Bars,4.0,$$,163 1st Ave,40.72896,-73.98454,https://www.yelp.com/biz/tarallucci-e-vino-east-village-new-york-5?adjust_creative=-uBzzloii2ivvF3N0jkhKQ&utm_campaign=yelp_api_v3&utm_medium=api_v3_business_search&utm_source=-uBzzloii2ivvF3N0jkhKQ,gqTikTCIS01E2m20PzHoDQ
4,Savelli,Bars,,,195 Smith St,40.685074,-73.991272,,
5,Lillo Cucina Italiana,Cafes,5.0,$$,331 Henry St,40.69023,-73.99634,https://www.yelp.com/biz/lillo-cucina-italiana-brooklyn?adjust_creative=-uBzzloii2ivvF3N0jkhKQ&utm_campaign=yelp_api_v3&utm_medium=api_v3_business_search&utm_source=-uBzzloii2ivvF3N0jkhKQ,qgY41g_eg0eNzewCXmKcaA
6,Ammazzacaffè,Cocktail Bars,4.5,$$,702 Grand St,40.7113172,-73.9446243,https://www.yelp.com/biz/ammazzacaff%C3%A8-brooklyn?adjust_creative=-uBzzloii2ivvF3N0jkhKQ&utm_campaign=yelp_api_v3&utm_medium=api_v3_business_search&utm_source=-uBzzloii2ivvF3N0jkhKQ,eMSTTuOUlKEnSOr8lPp3Xg
7,Dante West Village,Cocktail Bars,,,551 Hudson St,40.735202,-74.006251,,
8,Dante,Cocktail Bars,4.0,$$,79-81 Macdougal St,40.72879,-74.00165,https://www.yelp.com/biz/dante-new-york?adjust_creative=-uBzzloii2ivvF3N0jkhKQ&utm_campaign=yelp_api_v3&utm_medium=api_v3_business_search&utm_source=-uBzzloii2ivvF3N0jkhKQ,bW3mY-voyav37nU0uaLmNQ
9,Boucherie West Village,French,4.5,$$$,99 7th Ave S,40.733063,-74.0028772,https://www.yelp.com/biz/boucherie-west-village-new-york-3?adjust_creative=-uBzzloii2ivvF3N0jkhKQ&utm_campaign=yelp_api_v3&utm_medium=api_v3_business_search&utm_source=-uBzzloii2ivvF3N0jkhKQ,s3jou_L_LVYGkNHiuhjlew
10,Osteria 57,Italian,4.5,$$$,57 W 10th St,40.73467,-73.99786,https://www.yelp.com/biz/osteria-57-new-york?adjust_creative=-uBzzloii2ivvF3N0jkhKQ&utm_campaign=yelp_api_v3&utm_medium=api_v3_business_search&utm_source=-uBzzloii2ivvF3N0jkhKQ,T-RXDLq_VEv7s1_SooYIYQ
11,Briciola,Italian,4.0,$$,370 W 51st St,40.7637997047278,-73.9880919456482,https://www.yelp.com/biz/briciola-new-york?adjust_creative=-uBzzloii2ivvF3N0jkhKQ&utm_campaign=yelp_api_v3&utm_medium=api_v3_business_search&utm_source=-uBzzloii2ivvF3N0jkhKQ,MOwB9YYd-Ko6nVgSB-ltQw
12,Angeletto Restaurant,Italian,4.5,$$,890 2nd Ave,40.753188,-73.969365,https://www.yelp.com/biz/angeletto-restaurant-new-york?adjust_creative=-uBzzloii2ivvF3N0jkhKQ&utm_campaign=yelp_api_v3&utm_medium=api_v3_business_search&utm_source=-uBzzloii2ivvF3N0jkhKQ,7cjT33LfYSk7vrRdEaSr4w
13,Allora Ristorante,Italian,4.5,$$$,145 E 47th St,40.75433,-73.97277,https://www.yelp.com/biz/allora-ristorante-new-york-2?adjust_creative=-uBzzloii2ivvF3N0jkhKQ&utm_campaign=yelp_api_v3&utm_medium=api_v3_business_search&utm_source=-uBzzloii2ivvF3N0jkhKQ,z7H9ApIGopnDnQaglnPTzg
14,Ciccio,Italian,4.5,$$,190 6th Ave,40.7263263267119,-74.0034471165676,https://www.yelp.com/biz/ciccio-new-york-11?adjust_creative=-uBzzloii2ivvF3N0jkhKQ&utm_campaign=yelp_api_v3&utm_medium=api_v3_business_search&utm_source=-uBzzloii2ivvF3N0jkhKQ,eWMuXtaBzf0H5u0Vf_zpjw
15,Antica Ristorante,Italian,4.5,$$$,8 Stone St,40.7039355145338,-74.0121731758117,https://www.yelp.com/biz/antica-ristorante-new-york?adjust_creative=-uBzzloii2ivvF3N0jkhKQ&utm_campaign=yelp_api_v3&utm_medium=api_v3_business_search&utm_source=-uBzzloii2ivvF3N0jkhKQ,0Tvwk0hvgaY0QVIsZGTZKQ
16,Rubirosa,Italian,4.5,$$,235 Mulberry St,40.722766,-73.996233,https://www.yelp.com/biz/rubirosa-new-york-2?adjust_creative=-uBzzloii2ivvF3N0jkhKQ&utm_campaign=yelp_api_v3&utm_medium=api_v3_business_search&utm_source=-uBzzloii2ivvF3N0jkhKQ,WG639VkTjmK5dzydd1BBJA
17,Isabella,Italian,,,110 St Marks Pl,40.726966,-73.984334,,
18,Cotto,Italian,,,112 W 25th St,40.74442,-73.99266,,
19,Al Di La Trattoria,Italian,4.0,$$$,248 5th Ave,40.675332643247,-73.981340475038,https://www.yelp.com/biz/al-di-la-trattoria-brooklyn?adjust_creative=-uBzzloii2ivvF3N0jkhKQ&utm_campaign=yelp_api_v3&utm_medium=api_v3_business_search&utm_source=-uBzzloii2ivvF3N0jkhKQ,aSprnLY-6GkMk1cuv0TMeA
20,Piccoli Trattoria,Italian,4.5,$$,522 6th Ave,40.66518,-73.9865,https://www.yelp.com/biz/piccoli-trattoria-brooklyn?adjust_creative=-uBzzloii2ivvF3N0jkhKQ&utm_campaign=yelp_api_v3&utm_medium=api_v3_business_search&utm_source=-uBzzloii2ivvF3N0jkhKQ,XvEz60Y0NbLxooK9AmRU8g
21,Lavagna,Italian,4.0,$$$,545 E 5th St,40.72406,-73.98226,https://www.yelp.com/biz/lavagna-new-york?adjust_creative=-uBzzloii2ivvF3N0jkhKQ&utm_campaign=yelp_api_v3&utm_medium=api_v3_business_search&utm_source=-uBzzloii2ivvF3N0jkhKQ,jku9Fg8JsUbv_LQzg6PK4g
22,Da Toscano,Italian,,,24 Minetta Ln,40.730508,-74.001238,,
23,Maialino,Italian,4.0,$$$,2 Lexington Ave,40.738437,-73.985686,https://www.yelp.com/biz/maialino-new-york?adjust_creative=-uBzzloii2ivvF3N0jkhKQ&utm_campaign=yelp_api_v3&utm_medium=api_v3_business_search&utm_source=-uBzzloii2ivvF3N0jkhKQ,yi6jIxzHo-nbAOG4KWuqcw
24,Il Cantinori,Italian,4.0,$$$,32 E 10th St,40.7322779619352,-73.9929321762328,https://www.yelp.com/biz/il-cantinori-new-york?adjust_creative=-uBzzloii2ivvF3N0jkhKQ&utm_campaign=yelp_api_v3&utm_medium=api_v3_business_search&utm_source=-uBzzloii2ivvF3N0jkhKQ,idxD3X7WfLFPZMoFnCRIQQ
25,Bocca di Bacco,Italian,,,635 9th Ave,40.76021745303923,-73.99156281784906,,
26,Osteria Carlina,Italian,,,455 Hudson St,40.731409,-74.006984,,
27,Patrizia's Pizza and Pasta,Italian,4.0,$$,462-466 2nd Ave,40.7398415,-73.9792862,https://www.yelp.com/biz/patrizias-pizza-and-pasta-new-york?adjust_creative=-uBzzloii2ivvF3N0jkhKQ&utm_campaign=yelp_api_v3&utm_medium=api_v3_business_search&utm_source=-uBzzloii2ivvF3N0jkhKQ,kIm0oeOaVfC9-2flLPVklA
28,Via Carota,Italian,4.0,$$$,51 Grove St,40.733148231901204,-74.00366777251583,https://www.yelp.com/biz/via-carota-new-york?adjust_creative=-uBzzloii2ivvF3N0jkhKQ&utm_campaign=yelp_api_v3&utm_medium=api_v3_business_search&utm_source=-uBzzloii2ivvF3N0jkhKQ,jnHbdsqlTKlPcmJ8BCP9-g
29,Il Buco Alimentari & Vineria,Italian,4.0,$$$,47 Bond St,40.72583,-73.99299,https://www.yelp.com/biz/il-buco-alimentari-and-vineria-new-york-3?adjust_creative=-uBzzloii2ivvF3N0jkhKQ&utm_campaign=yelp_api_v3&utm_medium=api_v3_business_search&utm_source=-uBzzloii2ivvF3N0jkhKQ,lwfCl81r5a0mjxDNxNGC9w
30,Emilio's Ballato,Italian,4.0,$$$,55 E Houston St,40.7244923,-73.9944022,https://www.yelp.com/biz/emilios-ballato-new-york?adjust_creative=-uBzzloii2ivvF3N0jkhKQ&utm_campaign=yelp_api_v3&utm_medium=api_v3_business_search&utm_source=-uBzzloii2ivvF3N0jkhKQ,l7Z0p-PkSwIDPLPY1TRl8A
31,IL Tavolo di’ Palmisano,Italian,4.5,$$,700 Clinton St,40.74571,-74.03346,https://www.yelp.com/biz/il-tavolo-di-palmisano-hoboken-2?adjust_creative=-uBzzloii2ivvF3N0jkhKQ&utm_campaign=yelp_api_v3&utm_medium=api_v3_business_search&utm_source=-uBzzloii2ivvF3N0jkhKQ,muX5xoh3aOleCrSja_T_FA
32,Tre,Italian,4.0,$$,173 Ludlow St,40.72184,-73.987714,https://www.yelp.com/biz/tre-new-york?adjust_creative=-uBzzloii2ivvF3N0jkhKQ&utm_campaign=yelp_api_v3&utm_medium=api_v3_business_search&utm_source=-uBzzloii2ivvF3N0jkhKQ,VqnPcfqYltgxAkIuTaGkYg
33,Misirizzi,Italian,4.5,$$,36 E 4th St,40.7272,-73.99228,https://www.yelp.com/biz/misirizzi-new-york?adjust_creative=-uBzzloii2ivvF3N0jkhKQ&utm_campaign=yelp_api_v3&utm_medium=api_v3_business_search&utm_source=-uBzzloii2ivvF3N0jkhKQ,hDj_0pbi4mFR5p1H1w6igw
34,Tavola,Italian,4.0,$$,488 9th Ave,40.755403,-73.994516,https://www.yelp.com/biz/tavola-new-york?adjust_creative=-uBzzloii2ivvF3N0jkhKQ&utm_campaign=yelp_api_v3&utm_medium=api_v3_business_search&utm_source=-uBzzloii2ivvF3N0jkhKQ,V3USzFEGhuoXez4G2Rk11A
35,Piccola Cucina Estiatorio,Italian,4.5,$$,75 Thompson St,40.7246,-74.0029799,https://www.yelp.com/biz/piccola-cucina-estiatorio-new-york?adjust_creative=-uBzzloii2ivvF3N0jkhKQ&utm_campaign=yelp_api_v3&utm_medium=api_v3_business_search&utm_source=-uBzzloii2ivvF3N0jkhKQ,FRp1NwIyp6tkDU986cJkXQ
36,Cent'Anni,Italian,3.5,$$,742 Franklin Ave,40.6730907423467,-73.9573492245369,https://www.yelp.com/biz/centanni-brooklyn?adjust_creative=-uBzzloii2ivvF3N0jkhKQ&utm_campaign=yelp_api_v3&utm_medium=api_v3_business_search&utm_source=-uBzzloii2ivvF3N0jkhKQ,TO9IICJjvcg1QhLVnap9fA
37,Mercato,Italian,4.0,$$,352 W 39th St,40.75619,-73.9937,https://www.yelp.com/biz/mercato-new-york?adjust_creative=-uBzzloii2ivvF3N0jkhKQ&utm_campaign=yelp_api_v3&utm_medium=api_v3_business_search&utm_source=-uBzzloii2ivvF3N0jkhKQ,Ve6GVzzJpR5QIIPdcn6ViQ
38,Coppola's East,Italian,4.0,$$,378 3rd Ave,40.74165,-73.98154,https://www.yelp.com/biz/coppolas-east-new-york-4?adjust_creative=-uBzzloii2ivvF3N0jkhKQ&utm_campaign=yelp_api_v3&utm_medium=api_v3_business_search&utm_source=-uBzzloii2ivvF3N0jkhKQ,77llOAEwInvK-oC2AHZ4nQ
39,Taverna Di Bacco,Italian,4.0,$$,175 Ludlow St,40.72191,-73.98768,https://www.yelp.com/biz/taverna-di-bacco-new-york?adjust_creative=-uBzzloii2ivvF3N0jkhKQ&utm_campaign=yelp_api_v3&utm_medium=api_v3_business_search&utm_source=-uBzzloii2ivvF3N0jkhKQ,Be1Y-vAEMgo7lqL5alXgDA
40,Cacio E Pepe,Italian,,,1479 York Ave,40.77095763153376,-73.95095177321691,,
41,Tableside Italian Cook Shoppe,Italian,4.5,$$$,345 E 6th St,40.7266287,-73.9863384,https://www.yelp.com/biz/tableside-italian-cook-shoppe-new-york?adjust_creative=-uBzzloii2ivvF3N0jkhKQ&utm_campaign=yelp_api_v3&utm_medium=api_v3_business_search&utm_source=-uBzzloii2ivvF3N0jkhKQ,Pu09oBx1ekEZiFt90PsSIw
42,Noodle Pudding,Italian,4.0,$$,38 Henry St,40.69979,-73.99203,https://www.yelp.com/biz/noodle-pudding-brooklyn?adjust_creative=-uBzzloii2ivvF3N0jkhKQ&utm_campaign=yelp_api_v3&utm_medium=api_v3_business_search&utm_source=-uBzzloii2ivvF3N0jkhKQ,_N92SH1Zi-Hbxn_bNHFz0Q
43,Tarallucci E Vino - Nomad,Italian,4.0,$$,44 E 28th St,40.7436553,-73.9852171,https://www.yelp.com/biz/tarallucci-e-vino-nomad-new-york?adjust_creative=-uBzzloii2ivvF3N0jkhKQ&utm_campaign=yelp_api_v3&utm_medium=api_v3_business_search&utm_source=-uBzzloii2ivvF3N0jkhKQ,FNxOWxts63oDRKwy9Pbfzw
44,Forlini's Restaurant,Italian,4.5,$$,93 Baxter St,40.71695,-73.99957,https://www.yelp.com/biz/forlinis-restaurant-new-york?adjust_creative=-uBzzloii2ivvF3N0jkhKQ&utm_campaign=yelp_api_v3&utm_medium=api_v3_business_search&utm_source=-uBzzloii2ivvF3N0jkhKQ,bdKc4CSJPv-XLgxVwrtPrg
45,L' Angolo Tribeca,Italian,3.5,$$,190-A Duane St,40.71734,-74.01044,https://www.yelp.com/biz/l-angolo-tribeca-new-york?adjust_creative=-uBzzloii2ivvF3N0jkhKQ&utm_campaign=yelp_api_v3&utm_medium=api_v3_business_search&utm_source=-uBzzloii2ivvF3N0jkhKQ,H_TGP2AgX3IUmzq8Aml79Q
46,Il Corso,Italian,4.5,$$$,54 W 55th St,40.762441,-73.977206,https://www.yelp.com/biz/il-corso-new-york?adjust_creative=-uBzzloii2ivvF3N0jkhKQ&utm_campaign=yelp_api_v3&utm_medium=api_v3_business_search&utm_source=-uBzzloii2ivvF3N0jkhKQ,JLpEKUYAtzBRQwsUL3RPIA
47,Pomp & Circumstance Dining,Italian,5.0,$$,577 Lorimer St,40.714166,-73.949612,https://www.yelp.com/biz/pomp-and-circumstance-dining-williamsburg?adjust_creative=-uBzzloii2ivvF3N0jkhKQ&utm_campaign=yelp_api_v3&utm_medium=api_v3_business_search&utm_source=-uBzzloii2ivvF3N0jkhKQ,QQpQujXQGbZBK6BeAokzDA
48,Zero Otto Nove,Italian,4.0,$$,15 W 21st St,40.7407551035259,-73.9914887388588,https://www.yelp.com/biz/zero-otto-nove-new-york-3?adjust_creative=-uBzzloii2ivvF3N0jkhKQ&utm_campaign=yelp_api_v3&utm_medium=api_v3_business_search&utm_source=-uBzzloii2ivvF3N0jkhKQ,32VbG_XgkZIuye0PV-BxaA
49,Osteria Cotta,Italian,4.0,$$,513 Columbus Ave,40.78554,-73.97263,https://www.yelp.com/biz/osteria-cotta-new-york?adjust_creative=-uBzzloii2ivvF3N0jkhKQ&utm_campaign=yelp_api_v3&utm_medium=api_v3_business_search&utm_source=-uBzzloii2ivvF3N0jkhKQ,Q1_UvNyONsaVS_VC1mD9Dw
50,Monte's Trattoria,Italian,4.0,$$,97 Macdougal St,40.72959,-74.0011,https://www.yelp.com/biz/montes-trattoria-new-york-2?adjust_creative=-uBzzloii2ivvF3N0jkhKQ&utm_campaign=yelp_api_v3&utm_medium=api_v3_business_search&utm_source=-uBzzloii2ivvF3N0jkhKQ,XfOa_KyrV7JSFJMOKckGMg
51,Arco Cafe,Italian,4.5,$$,886 Amsterdam Ave,40.7988462,-73.967065,https://www.yelp.com/biz/arco-cafe-new-york?adjust_creative=-uBzzloii2ivvF3N0jkhKQ&utm_campaign=yelp_api_v3&utm_medium=api_v3_business_search&utm_source=-uBzzloii2ivvF3N0jkhKQ,f_1BjTChf6bobreSRpqhsw
52,Caffe Buon Gusto,Italian,4.0,$$,236 E 77th St,40.77249,-73.95713,https://www.yelp.com/biz/caffe-buon-gusto-new-york-4?adjust_creative=-uBzzloii2ivvF3N0jkhKQ&utm_campaign=yelp_api_v3&utm_medium=api_v3_business_search&utm_source=-uBzzloii2ivvF3N0jkhKQ,d5ya04K-2A_hI3Xzqe1HeA
53,Malaparte,Italian,4.0,$$,753 Washington St,40.73687,-74.00812,https://www.yelp.com/biz/malaparte-new-york?adjust_creative=-uBzzloii2ivvF3N0jkhKQ&utm_campaign=yelp_api_v3&utm_medium=api_v3_business_search&utm_source=-uBzzloii2ivvF3N0jkhKQ,o5mMVFk4Hcpk2FuKfgTgdg
54,Gnocco,Italian,3.5,$$,337 E 10th St,40.72713,-73.9802799,https://www.yelp.com/biz/gnocco-new-york?adjust_creative=-uBzzloii2ivvF3N0jkhKQ&utm_campaign=yelp_api_v3&utm_medium=api_v3_business_search&utm_source=-uBzzloii2ivvF3N0jkhKQ,JSexQM-wn8HvWmfxu_m5ZA
55,Bar Pitti,Italian,3.5,$$,268 Ave Of The Americas,40.729047,-74.002153,https://www.yelp.com/biz/bar-pitti-new-york?adjust_creative=-uBzzloii2ivvF3N0jkhKQ&utm_campaign=yelp_api_v3&utm_medium=api_v3_business_search&utm_source=-uBzzloii2ivvF3N0jkhKQ,cGqMEMQFtkB3hIGfLy2R3A
56,Pasta Louise,Italian,4.5,$$,803 8th Ave,40.666091,-73.9787254,https://www.yelp.com/biz/pasta-louise-brooklyn?adjust_creative=-uBzzloii2ivvF3N0jkhKQ&utm_campaign=yelp_api_v3&utm_medium=api_v3_business_search&utm_source=-uBzzloii2ivvF3N0jkhKQ,dhKZRnt3DwfSu48OdPDdvA
57,Sergimmo Salumeria,Italian,4.0,$$,456 9th Ave,40.754296,-73.995498,https://www.yelp.com/biz/sergimmo-salumeria-new-york?adjust_creative=-uBzzloii2ivvF3N0jkhKQ&utm_campaign=yelp_api_v3&utm_medium=api_v3_business_search&utm_source=-uBzzloii2ivvF3N0jkhKQ,9iC39Z1YjZKbrrCANgzBXg
58,IL Triangolo Restaurant,Italian,4.5,$$,96-01 Corona Ave,40.742278,-73.8672901,https://www.yelp.com/biz/il-triangolo-restaurant-corona-3?adjust_creative=-uBzzloii2ivvF3N0jkhKQ&utm_campaign=yelp_api_v3&utm_medium=api_v3_business_search&utm_source=-uBzzloii2ivvF3N0jkhKQ,0SakkRuHhECsDsZ8mRkisQ
59,Scalini Fedeli,Italian,4.5,$$$$,165 Duane St,40.7173964385114,-74.0093277537459,https://www.yelp.com/biz/scalini-fedeli-new-york?adjust_creative=-uBzzloii2ivvF3N0jkhKQ&utm_campaign=yelp_api_v3&utm_medium=api_v3_business_search&utm_source=-uBzzloii2ivvF3N0jkhKQ,WYhRkUATHRyXZrE55MArbA
60,Rezdôra,Italian,,,27 E 20th St,40.73901,-73.9891,,
61,Locanda Vini e Olii,Italian,4.0,$$$,129 Gates Ave,40.685007,-73.962943,https://www.yelp.com/biz/locanda-vini-e-olii-brooklyn-4?adjust_creative=-uBzzloii2ivvF3N0jkhKQ&utm_campaign=yelp_api_v3&utm_medium=api_v3_business_search&utm_source=-uBzzloii2ivvF3N0jkhKQ,53ZNJNrT91VgvrI0LFjLNQ
62,Arturo's,Italian,4.0,$$,106 W Houston St,40.7273563342024,-74.0004944801331,https://www.yelp.com/biz/arturos-new-york?adjust_creative=-uBzzloii2ivvF3N0jkhKQ&utm_campaign=yelp_api_v3&utm_medium=api_v3_business_search&utm_source=-uBzzloii2ivvF3N0jkhKQ,BgGz5IdV53bGb4o7opR5zg
63,Frank,Italian,3.5,$$,88 2nd Ave,40.7268483205383,-73.9887172038649,https://www.yelp.com/biz/frank-new-york?adjust_creative=-uBzzloii2ivvF3N0jkhKQ&utm_campaign=yelp_api_v3&utm_medium=api_v3_business_search&utm_source=-uBzzloii2ivvF3N0jkhKQ,EL5Y6BSinmUte5VW4Eh54Q
64,Augustino's,Italian,4.0,$$$,1104 Washington St,40.75024,-74.02732,https://www.yelp.com/biz/augustinos-hoboken?adjust_creative=-uBzzloii2ivvF3N0jkhKQ&utm_campaign=yelp_api_v3&utm_medium=api_v3_business_search&utm_source=-uBzzloii2ivvF3N0jkhKQ,QhRQE6nOMLd00kV2k-IsbQ
65,Rucola,Italian,4.0,$$,190 Dean St,40.68562,-73.98587,https://www.yelp.com/biz/rucola-brooklyn?adjust_creative=-uBzzloii2ivvF3N0jkhKQ&utm_campaign=yelp_api_v3&utm_medium=api_v3_business_search&utm_source=-uBzzloii2ivvF3N0jkhKQ,Ry9w-jFALWYhazi6jjyIKw
66,Faun,Italian,4.0,$$$,606 Vanderbilt Ave,40.678271,-73.968883,https://www.yelp.com/biz/faun-brooklyn?adjust_creative=-uBzzloii2ivvF3N0jkhKQ&utm_campaign=yelp_api_v3&utm_medium=api_v3_business_search&utm_source=-uBzzloii2ivvF3N0jkhKQ,Tgi-rDD3mxFi9uGybZxdaQ
67,Cremini's,Italian,,,521 Court St,40.674968,-73.999242,,
68,Bar B,Italian,4.5,$$,84 7th Ave,40.7395804,-73.999118,https://www.yelp.com/biz/bar-b-new-york?adjust_creative=-uBzzloii2ivvF3N0jkhKQ&utm_campaign=yelp_api_v3&utm_medium=api_v3_business_search&utm_source=-uBzzloii2ivvF3N0jkhKQ,5MpWHGQ6Qc-M4q1KL_nioA
69,Trattoria Zero Otto Nove,Italian,4.0,$$,2357 Arthur Ave,40.854779,-73.888474,https://www.yelp.com/biz/trattoria-zero-otto-nove-bronx?adjust_creative=-uBzzloii2ivvF3N0jkhKQ&utm_campaign=yelp_api_v3&utm_medium=api_v3_business_search&utm_source=-uBzzloii2ivvF3N0jkhKQ,tLZfepIfSf0a80zHQTbTGQ
70,San Marino Ristorante,Italian,4.5,$$,66 Charlton St,40.72697,-74.00611,https://www.yelp.com/biz/san-marino-ristorante-new-york-2?adjust_creative=-uBzzloii2ivvF3N0jkhKQ&utm_campaign=yelp_api_v3&utm_medium=api_v3_business_search&utm_source=-uBzzloii2ivvF3N0jkhKQ,9mawr6QwVHm5q8JRXPFjPA
71,Piccola Strada,Italian,4.5,$$,77 E 4th St,40.72662,-73.99019,https://www.yelp.com/biz/piccola-strada-new-york?adjust_creative=-uBzzloii2ivvF3N0jkhKQ&utm_campaign=yelp_api_v3&utm_medium=api_v3_business_search&utm_source=-uBzzloii2ivvF3N0jkhKQ,25npnVAlhRjguunYS8zy8w
72,Terre,Italian,4.5,$$,341 5th Ave,40.671949831792,-73.9837719490146,https://www.yelp.com/biz/terre-brooklyn?adjust_creative=-uBzzloii2ivvF3N0jkhKQ&utm_campaign=yelp_api_v3&utm_medium=api_v3_business_search&utm_source=-uBzzloii2ivvF3N0jkhKQ,X9f5HH4x3Mi7lo4ph9efvQ
73,Quality Italian,Italian,4.0,$$$,57 W 57th St,40.7644044527436,-73.9767805051616,https://www.yelp.com/biz/quality-italian-new-york?adjust_creative=-uBzzloii2ivvF3N0jkhKQ&utm_campaign=yelp_api_v3&utm_medium=api_v3_business_search&utm_source=-uBzzloii2ivvF3N0jkhKQ,dc3hkLkAqCSxDWQzrx-g9A
74,SESTINA,Italian,,,67 2nd Ave,40.726191,-73.989755,,
75,Tony's Di Napoli,Italian,4.0,$$,1081 3rd Ave,40.76441,-73.96427,https://www.yelp.com/biz/tonys-di-napoli-new-york-7?adjust_creative=-uBzzloii2ivvF3N0jkhKQ&utm_campaign=yelp_api_v3&utm_medium=api_v3_business_search&utm_source=-uBzzloii2ivvF3N0jkhKQ,l7OsDvMOO3ji3fg0nT0QzA
76,Le Fanfare,Italian,4.0,$$,1103 Manhattan Ave,40.736202,-73.955558,https://www.yelp.com/biz/le-fanfare-brooklyn-4?adjust_creative=-uBzzloii2ivvF3N0jkhKQ&utm_campaign=yelp_api_v3&utm_medium=api_v3_business_search&utm_source=-uBzzloii2ivvF3N0jkhKQ,t-Pm38_XhMnGfOYgkhaNRA
77,Becco,Italian,3.5,$$$,355 W 46th St,40.76083,-73.98981,https://www.yelp.com/biz/becco-new-york-4?adjust_creative=-uBzzloii2ivvF3N0jkhKQ&utm_campaign=yelp_api_v3&utm_medium=api_v3_business_search&utm_source=-uBzzloii2ivvF3N0jkhKQ,QObHX0yR6zd0WfksRDbJTA
78,Cotenna,Italian,4.0,$$,21 Bedford St,40.72903,-74.00357,https://www.yelp.com/biz/cotenna-new-york?adjust_creative=-uBzzloii2ivvF3N0jkhKQ&utm_campaign=yelp_api_v3&utm_medium=api_v3_business_search&utm_source=-uBzzloii2ivvF3N0jkhKQ,aJJlY5xvqS180wtRIHEWqA
79,Rosemary’s,Italian,,,350 1st Ave,40.73512,-73.97965,,
80,Barbuto,Italian,,,113 Horatio St,40.73885,-74.00932,,
81,Trattoria L'incontro,Italian,4.5,$$$,21-76 31st St,40.77648209257472,-73.91059675544598,https://www.yelp.com/biz/trattoria-l-incontro-astoria-6?adjust_creative=-uBzzloii2ivvF3N0jkhKQ&utm_campaign=yelp_api_v3&utm_medium=api_v3_business_search&utm_source=-uBzzloii2ivvF3N0jkhKQ,1ZKbUeFAs0ltSnAYq4ELKw
82,Bamonte's,Italian,4.0,$$,32 Withers St,40.716579,-73.951174,https://www.yelp.com/biz/bamontes-brooklyn?adjust_creative=-uBzzloii2ivvF3N0jkhKQ&utm_campaign=yelp_api_v3&utm_medium=api_v3_business_search&utm_source=-uBzzloii2ivvF3N0jkhKQ,tJxAlyeT5PRbUIyJ2wsv-A
83,Mille Nonne,Italian,,,88 Essex St,40.71821,-73.98815,,
84,Da Nico Ristorante,Italian,4.0,$$,164 Mulberry St,40.71963,-73.99691,https://www.yelp.com/biz/da-nico-ristorante-new-york?adjust_creative=-uBzzloii2ivvF3N0jkhKQ&utm_campaign=yelp_api_v3&utm_medium=api_v3_business_search&utm_source=-uBzzloii2ivvF3N0jkhKQ,iEUXrUUqGfUhpgYYSr5Zig
85,Bevacco,Italian,3.5,$$,60 Henry St,40.6992683,-73.9923096,https://www.yelp.com/biz/bevacco-brooklyn?adjust_creative=-uBzzloii2ivvF3N0jkhKQ&utm_campaign=yelp_api_v3&utm_medium=api_v3_business_search&utm_source=-uBzzloii2ivvF3N0jkhKQ,acXWoQ2wZnpzRV-0V58YTQ
86,Vic's,Italian,4.0,$$,31 Great Jones St,40.72693,-73.99319,https://www.yelp.com/biz/vics-new-york?adjust_creative=-uBzzloii2ivvF3N0jkhKQ&utm_campaign=yelp_api_v3&utm_medium=api_v3_business_search&utm_source=-uBzzloii2ivvF3N0jkhKQ,xbrQ2dHuQoFJmNxAuOky4A
87,Lucciola Italian Restaurant,Italian,,,621 Amsterdam Ave,40.790362,-73.972629,,
88,Fausto,Italian,4.0,$$$,348 Flatbush Ave,40.67597,-73.97181,https://www.yelp.com/biz/fausto-brooklyn?adjust_creative=-uBzzloii2ivvF3N0jkhKQ&utm_campaign=yelp_api_v3&utm_medium=api_v3_business_search&utm_source=-uBzzloii2ivvF3N0jkhKQ,rtivWWzG0XjUuhSrwusTgQ
89,Gnoccheria By Luzzo's,Italian,4.0,$$,234 E 4th St,40.723315,-73.983139,https://www.yelp.com/biz/gnoccheria-by-luzzos-new-york?adjust_creative=-uBzzloii2ivvF3N0jkhKQ&utm_campaign=yelp_api_v3&utm_medium=api_v3_business_search&utm_source=-uBzzloii2ivvF3N0jkhKQ,YFvF4r2D-wJOgJAOvanaZQ
90,Rafele Ristorante,Italian,4.0,$$$,29 7th Ave S,40.7309471231405,-74.0041171779098,https://www.yelp.com/biz/rafele-ristorante-new-york?adjust_creative=-uBzzloii2ivvF3N0jkhKQ&utm_campaign=yelp_api_v3&utm_medium=api_v3_business_search&utm_source=-uBzzloii2ivvF3N0jkhKQ,PajKY49h4SpvSr-TW3lwCQ
91,Osteria Brooklyn,Italian,,,458 Myrtle Ave,40.693154,-73.967177,,
92,Emporio,Italian,4.0,$$,231 Mott St,40.722647,-73.995246,https://www.yelp.com/biz/emporio-new-york?adjust_creative=-uBzzloii2ivvF3N0jkhKQ&utm_campaign=yelp_api_v3&utm_medium=api_v3_business_search&utm_source=-uBzzloii2ivvF3N0jkhKQ,LTi4_wcCVmqQeJ_jgTEbOQ
93,A Pasta Bar,Italian,4.0,$$,330 W Broadway,40.72229,-74.00403,https://www.yelp.com/biz/a-pasta-bar-new-york?adjust_creative=-uBzzloii2ivvF3N0jkhKQ&utm_campaign=yelp_api_v3&utm_medium=api_v3_business_search&utm_source=-uBzzloii2ivvF3N0jkhKQ,2Nwmd7-1d1rI6lb9QSSYYA
94,Basta Pasta,Italian,4.0,$$,37 W 17th St,40.73881,-73.99407,https://www.yelp.com/biz/basta-pasta-new-york?adjust_creative=-uBzzloii2ivvF3N0jkhKQ&utm_campaign=yelp_api_v3&utm_medium=api_v3_business_search&utm_source=-uBzzloii2ivvF3N0jkhKQ,5Akss-swwfyoSVeIsDBbvw
95,Aunt Jake's,Italian,4.0,$$,133 Mulberry St,40.7186467,-73.9979241,https://www.yelp.com/biz/aunt-jakes-new-york?adjust_creative=-uBzzloii2ivvF3N0jkhKQ&utm_campaign=yelp_api_v3&utm_medium=api_v3_business_search&utm_source=-uBzzloii2ivvF3N0jkhKQ,I2lgw_7DUnwD92ND4PN-Ow
96,Bacaro,Italian,4.0,$$$,136 Division St,40.71456,-73.99154,https://www.yelp.com/biz/bacaro-new-york?adjust_creative=-uBzzloii2ivvF3N0jkhKQ&utm_campaign=yelp_api_v3&utm_medium=api_v3_business_search&utm_source=-uBzzloii2ivvF3N0jkhKQ,3D6UAhoKnF3A03rX_v5ngA
97,Carbone,Italian,4.0,$$$$,181 Thompson St,40.728,-74.0001497,https://www.yelp.com/biz/carbone-new-york?adjust_creative=-uBzzloii2ivvF3N0jkhKQ&utm_campaign=yelp_api_v3&utm_medium=api_v3_business_search&utm_source=-uBzzloii2ivvF3N0jkhKQ,7_hGsGEkHrjgAiYVjrCFnw
98,Bigoi Venezia,Italian,4.5,$$,1415 2nd Ave,40.770036,-73.9577755,https://www.yelp.com/biz/bigoi-venezia-new-york?adjust_creative=-uBzzloii2ivvF3N0jkhKQ&utm_campaign=yelp_api_v3&utm_medium=api_v3_business_search&utm_source=-uBzzloii2ivvF3N0jkhKQ,JBthOvTegHbrLDiVaCAy5Q
99,Babbo,Italian,4.0,$$$$,110 Waverly Pl,40.732283,-73.999284,https://www.yelp.com/biz/babbo-new-york?adjust_creative=-uBzzloii2ivvF3N0jkhKQ&utm_campaign=yelp_api_v3&utm_medium=api_v3_business_search&utm_source=-uBzzloii2ivvF3N0jkhKQ,-hUvO0C0A-pGZdiSKvjoFw
100,Uva,Italian,4.0,$$,1486 2nd Ave,40.7722,-73.95566,https://www.yelp.com/biz/uva-new-york?adjust_creative=-uBzzloii2ivvF3N0jkhKQ&utm_campaign=yelp_api_v3&utm_medium=api_v3_business_search&utm_source=-uBzzloii2ivvF3N0jkhKQ,OAqsZMbjv66nOMqlimnYuQ
101,Gersi,Italian,4.5,$$,316 Court St,40.683438,-73.995711,https://www.yelp.com/biz/gersi-brooklyn?adjust_creative=-uBzzloii2ivvF3N0jkhKQ&utm_campaign=yelp_api_v3&utm_medium=api_v3_business_search&utm_source=-uBzzloii2ivvF3N0jkhKQ,hpRrYBbKUqv8ewFKDjbjoA
102,Scalino,Italian,4.5,$$,659 Manhattan Ave,40.7244699,-73.95151,https://www.yelp.com/biz/scalino-brooklyn-2?adjust_creative=-uBzzloii2ivvF3N0jkhKQ&utm_campaign=yelp_api_v3&utm_medium=api_v3_business_search&utm_source=-uBzzloii2ivvF3N0jkhKQ,ry0nAQiUn8bpNAruY_5wfw
103,Lena's Italian Kitchen,Italian,4.5,$$,551 2nd Ave,40.742664,-73.977783,https://www.yelp.com/biz/lenas-italian-kitchen-new-york?adjust_creative=-uBzzloii2ivvF3N0jkhKQ&utm_campaign=yelp_api_v3&utm_medium=api_v3_business_search&utm_source=-uBzzloii2ivvF3N0jkhKQ,r2nIYBSyXny1-7XvsL2PVg
104,L'Angeletto,Italian,,,327 2nd Ave,40.73541417,-73.982956,,
105,Da Claudio,Italian,4.5,$$,21 Ann St,40.71087,-74.00753,https://www.yelp.com/biz/da-claudio-new-york?adjust_creative=-uBzzloii2ivvF3N0jkhKQ&utm_campaign=yelp_api_v3&utm_medium=api_v3_business_search&utm_source=-uBzzloii2ivvF3N0jkhKQ,f8ipr8Wdy1_wHhw7JgNqPQ
106,Frankies 457 Spuntino,Italian,4.0,$$,457 Court St,40.677328,-73.997972,https://www.yelp.com/biz/frankies-457-spuntino-brooklyn-3?adjust_creative=-uBzzloii2ivvF3N0jkhKQ&utm_campaign=yelp_api_v3&utm_medium=api_v3_business_search&utm_source=-uBzzloii2ivvF3N0jkhKQ,LfRiA6RORToZUSJUHkZBVA
107,Trapizzino,Italian,4.5,$$,144 Orchard St,40.72043,-73.98894,https://www.yelp.com/biz/trapizzino-new-york?adjust_creative=-uBzzloii2ivvF3N0jkhKQ&utm_campaign=yelp_api_v3&utm_medium=api_v3_business_search&utm_source=-uBzzloii2ivvF3N0jkhKQ,Sp-vnk-waTvKblG_88M4TA
108,Carmine's Italian Restaurant - Times Square,Italian,4.0,$$,200 W 44th St,40.75749,-73.98662,https://www.yelp.com/biz/carmines-italian-restaurant-times-square-new-york-5?adjust_creative=-uBzzloii2ivvF3N0jkhKQ&utm_campaign=yelp_api_v3&utm_medium=api_v3_business_search&utm_source=-uBzzloii2ivvF3N0jkhKQ,22nKUyCIbpnzR6R3_g1ptQ
109,Evelina,Italian,4.5,$$$,211 Dekalb Ave,40.689722,-73.971003,https://www.yelp.com/biz/evelina-brooklyn-2?adjust_creative=-uBzzloii2ivvF3N0jkhKQ&utm_campaign=yelp_api_v3&utm_medium=api_v3_business_search&utm_source=-uBzzloii2ivvF3N0jkhKQ,mPHPVJ2-8mOR-lFHafrc6w
110,Lupa,Italian,4.0,$$$,170 Thompson St,40.7276,-74.000045,https://www.yelp.com/biz/lupa-new-york?adjust_creative=-uBzzloii2ivvF3N0jkhKQ&utm_campaign=yelp_api_v3&utm_medium=api_v3_business_search&utm_source=-uBzzloii2ivvF3N0jkhKQ,yZJbealagfujEkgesAl2hA
111,La Nonna Ristorante & Bar,Italian,4.0,$$,184 Kent Ave,40.718468787527,-73.9639185527139,https://www.yelp.com/biz/la-nonna-ristorante-and-bar-brooklyn?adjust_creative=-uBzzloii2ivvF3N0jkhKQ&utm_campaign=yelp_api_v3&utm_medium=api_v3_business_search&utm_source=-uBzzloii2ivvF3N0jkhKQ,s5nPO911cYB2chdwqSqT9g
112,Sotto 13,Italian,4.0,$$,140 W 13th St,40.7372,-73.99919,https://www.yelp.com/biz/sotto-13-new-york-7?adjust_creative=-uBzzloii2ivvF3N0jkhKQ&utm_campaign=yelp_api_v3&utm_medium=api_v3_business_search&utm_source=-uBzzloii2ivvF3N0jkhKQ,yc4vsT-Q4Ej1_9hr94DxkQ
113,Locanda Verde,Italian,4.0,$$$,377 Greenwich St,40.7198601300801,-74.010039072422,https://www.yelp.com/biz/locanda-verde-new-york?adjust_creative=-uBzzloii2ivvF3N0jkhKQ&utm_campaign=yelp_api_v3&utm_medium=api_v3_business_search&utm_source=-uBzzloii2ivvF3N0jkhKQ,pk89jzL1RsE9U0thf_z6tw
114,La Lanterna Di Vittorio,Italian,4.0,$$,129 MacDougal St,40.73069,-74.00015,https://www.yelp.com/biz/la-lanterna-di-vittorio-new-york?adjust_creative=-uBzzloii2ivvF3N0jkhKQ&utm_campaign=yelp_api_v3&utm_medium=api_v3_business_search&utm_source=-uBzzloii2ivvF3N0jkhKQ,V-FCEicobl5Su-R7EVJQNA
115,Risotteria Melotti NYC,Italian,4.5,$$,309 E 5th St,40.726673363853,-73.9880919456482,https://www.yelp.com/biz/risotteria-melotti-nyc-new-york-3?adjust_creative=-uBzzloii2ivvF3N0jkhKQ&utm_campaign=yelp_api_v3&utm_medium=api_v3_business_search&utm_source=-uBzzloii2ivvF3N0jkhKQ,RXCCofQw1EjTcSN0ZeXfRA
116,AlMar,Italian,4.0,$$,111 Front St,40.702662,-73.989177,https://www.yelp.com/biz/almar-brooklyn-2?adjust_creative=-uBzzloii2ivvF3N0jkhKQ&utm_campaign=yelp_api_v3&utm_medium=api_v3_business_search&utm_source=-uBzzloii2ivvF3N0jkhKQ,nHMDOIX32dGbfpuNUwsLNQ
117,La Pecora Bianca,Italian,4.0,$$,1133 Broadway,40.74358,-73.9892,https://www.yelp.com/biz/la-pecora-bianca-new-york?adjust_creative=-uBzzloii2ivvF3N0jkhKQ&utm_campaign=yelp_api_v3&utm_medium=api_v3_business_search&utm_source=-uBzzloii2ivvF3N0jkhKQ,HiNUBUR1hFwScd_OvVLQAg
118,Don Angie,Italian,4.5,$$$,103 Greenwich Ave,40.73778,-74.00197,https://www.yelp.com/biz/don-angie-new-york?adjust_creative=-uBzzloii2ivvF3N0jkhKQ&utm_campaign=yelp_api_v3&utm_medium=api_v3_business_search&utm_source=-uBzzloii2ivvF3N0jkhKQ,h37t9rA06Sr4EetJjKrfzw
119,Aurora,Italian,4.0,$$,70 Grand St,40.715621,-73.964757,https://www.yelp.com/biz/aurora-brooklyn?adjust_creative=-uBzzloii2ivvF3N0jkhKQ&utm_campaign=yelp_api_v3&utm_medium=api_v3_business_search&utm_source=-uBzzloii2ivvF3N0jkhKQ,a4WZUTKn90dOkeY38JHNjQ
120,Aita,Italian,4.0,$$,132 Greene Ave,40.686412,-73.966629,https://www.yelp.com/biz/aita-brooklyn?adjust_creative=-uBzzloii2ivvF3N0jkhKQ&utm_campaign=yelp_api_v3&utm_medium=api_v3_business_search&utm_source=-uBzzloii2ivvF3N0jkhKQ,4j_n7nPaZrp6_lEInZaA8Q
121,Celeste Restaurant,Italian,3.5,$$,502 Amsterdam Ave,40.78666,-73.97599,https://www.yelp.com/biz/celeste-restaurant-new-york-4?adjust_creative=-uBzzloii2ivvF3N0jkhKQ&utm_campaign=yelp_api_v3&utm_medium=api_v3_business_search&utm_source=-uBzzloii2ivvF3N0jkhKQ,rJJiGJx3kfMAxtD7P7okHQ
122,IL Brigante,Italian,4.0,$$,214 Front St,40.707492,-74.002571,https://www.yelp.com/biz/il-brigante-new-york?adjust_creative=-uBzzloii2ivvF3N0jkhKQ&utm_campaign=yelp_api_v3&utm_medium=api_v3_business_search&utm_source=-uBzzloii2ivvF3N0jkhKQ,xeC9vn3dxVVzAMR_aFwfXg
123,Scarpetta,Italian,4.0,$$$,88 Madison Ave,40.744509,-73.9856,https://www.yelp.com/biz/scarpetta-new-york?adjust_creative=-uBzzloii2ivvF3N0jkhKQ&utm_campaign=yelp_api_v3&utm_medium=api_v3_business_search&utm_source=-uBzzloii2ivvF3N0jkhKQ,raqwXUBlnc0e8c7CYmxEJQ
124,Cecconi's Dumbo,Italian,3.5,$$$,55 Water St,40.7033063330116,-73.9916549604523,https://www.yelp.com/biz/cecconis-dumbo-brooklyn?adjust_creative=-uBzzloii2ivvF3N0jkhKQ&utm_campaign=yelp_api_v3&utm_medium=api_v3_business_search&utm_source=-uBzzloii2ivvF3N0jkhKQ,-Gc5sTFxoXM3Tiv_dkSJZg
125,Malatesta Trattoria,Italian,4.0,$$,649 Washington St,40.73285,-74.00847,https://www.yelp.com/biz/malatesta-trattoria-new-york?adjust_creative=-uBzzloii2ivvF3N0jkhKQ&utm_campaign=yelp_api_v3&utm_medium=api_v3_business_search&utm_source=-uBzzloii2ivvF3N0jkhKQ,IErfGS0DASSJfYU73m0Sqg
126,Fragole Ristorante,Italian,4.5,$$,394 Court St,40.68087,-73.99688,https://www.yelp.com/biz/fragole-ristorante-brooklyn?adjust_creative=-uBzzloii2ivvF3N0jkhKQ&utm_campaign=yelp_api_v3&utm_medium=api_v3_business_search&utm_source=-uBzzloii2ivvF3N0jkhKQ,74zaTegd7fnS6llTesn_Dg
127,Sauce,Italian,4.0,$$,78 Rivington St,40.7204716,-73.9893263,https://www.yelp.com/biz/sauce-new-york-3?adjust_creative=-uBzzloii2ivvF3N0jkhKQ&utm_campaign=yelp_api_v3&utm_medium=api_v3_business_search&utm_source=-uBzzloii2ivvF3N0jkhKQ,M4pCWzdBCkp2g_d834a7Hw
128,Misi,Italian,4.0,$$$,329 Kent Ave,40.71341,-73.96662,https://www.yelp.com/biz/misi-brooklyn?adjust_creative=-uBzzloii2ivvF3N0jkhKQ&utm_campaign=yelp_api_v3&utm_medium=api_v3_business_search&utm_source=-uBzzloii2ivvF3N0jkhKQ,5k_jwjhdFMPUNWhouGNzuA
129,Osteria Del Porto,Italian,,,212 Front St,40.70737443140159,-74.00270427364536,,
130,Palma,Italian,4.0,$$$,28 Cornelia St,40.73115,-74.00233,https://www.yelp.com/biz/palma-new-york?adjust_creative=-uBzzloii2ivvF3N0jkhKQ&utm_campaign=yelp_api_v3&utm_medium=api_v3_business_search&utm_source=-uBzzloii2ivvF3N0jkhKQ,6Z5OWpaeGGazJHR4LfThsw
131,Marea,Italian,4.0,$$$,240 Central Park S,40.7674213694566,-73.9810554368179,https://www.yelp.com/biz/marea-new-york?adjust_creative=-uBzzloii2ivvF3N0jkhKQ&utm_campaign=yelp_api_v3&utm_medium=api_v3_business_search&utm_source=-uBzzloii2ivvF3N0jkhKQ,H_KyiRhwho8rdlw_R93_0Q
132,Osteria Morini,Italian,4.0,$$$,218 Lafayette St,40.7219179851303,-73.9976472073402,https://www.yelp.com/biz/osteria-morini-new-york-3?adjust_creative=-uBzzloii2ivvF3N0jkhKQ&utm_campaign=yelp_api_v3&utm_medium=api_v3_business_search&utm_source=-uBzzloii2ivvF3N0jkhKQ,KCBfW6sWl9Gx-LvMff08jg
133,Forsythia,Italian,,,9 Stanton St,40.7225353,-73.992492,,
134,Eataly Flatiron,Italian,4.0,$$,200 5th Ave,40.74195877796,-73.989716662832,https://www.yelp.com/biz/eataly-flatiron-new-york?adjust_creative=-uBzzloii2ivvF3N0jkhKQ&utm_campaign=yelp_api_v3&utm_medium=api_v3_business_search&utm_source=-uBzzloii2ivvF3N0jkhKQ,a0IET3_yCFcO36OqGSsisg
135,Barolo East,Italian,,,214 E 49th St,40.75481,-73.97059,,
136,Gelso & Grand,Italian,4.5,$$,186 Grand St,40.7194089547259,-73.9973777877722,https://www.yelp.com/biz/gelso-and-grand-new-york?adjust_creative=-uBzzloii2ivvF3N0jkhKQ&utm_campaign=yelp_api_v3&utm_medium=api_v3_business_search&utm_source=-uBzzloii2ivvF3N0jkhKQ,MphfKkYFEe0BDQ6hZ0A5fA
137,Galli,Italian,4.0,$$,45 Mercer St,40.72161,-74.00127,https://www.yelp.com/biz/galli-new-york-5?adjust_creative=-uBzzloii2ivvF3N0jkhKQ&utm_campaign=yelp_api_v3&utm_medium=api_v3_business_search&utm_source=-uBzzloii2ivvF3N0jkhKQ,twHJyFgUSd7wzioKQjE7Jw
138,Gran Morsi,Italian,4.5,$$$,22 Warren St,40.7142052394856,-74.0077535494539,https://www.yelp.com/biz/gran-morsi-new-york?adjust_creative=-uBzzloii2ivvF3N0jkhKQ&utm_campaign=yelp_api_v3&utm_medium=api_v3_business_search&utm_source=-uBzzloii2ivvF3N0jkhKQ,xKIv_b2L2pUHmsoJ-xOepg
139,Trattoria Trecolori,Italian,4.0,$$,254 West 47th St,40.759876,-73.986767,https://www.yelp.com/biz/trattoria-trecolori-new-york?adjust_creative=-uBzzloii2ivvF3N0jkhKQ&utm_campaign=yelp_api_v3&utm_medium=api_v3_business_search&utm_source=-uBzzloii2ivvF3N0jkhKQ,DoSU8IPq-Py_YV3kYmXPfQ
140,San Marzano Pasta Fresca,Italian,4.0,$$,117 Second Ave,40.727966,-73.988382,https://www.yelp.com/biz/san-marzano-pasta-fresca-new-york?adjust_creative=-uBzzloii2ivvF3N0jkhKQ&utm_campaign=yelp_api_v3&utm_medium=api_v3_business_search&utm_source=-uBzzloii2ivvF3N0jkhKQ,k5fd-RSdG4IuXnnGSQ5oOw
141,Paesano of Mulberry Street,Italian,4.0,$$,136 Mulberry St,40.718554,-73.997447,https://www.yelp.com/biz/paesano-of-mulberry-street-new-york?adjust_creative=-uBzzloii2ivvF3N0jkhKQ&utm_campaign=yelp_api_v3&utm_medium=api_v3_business_search&utm_source=-uBzzloii2ivvF3N0jkhKQ,OCTiJwvjoK81WoDwsTkFvA
142,L'Artusi,Italian,4.5,$$$,228 W 10th St,40.73372,-74.00513,https://www.yelp.com/biz/l-artusi-new-york?adjust_creative=-uBzzloii2ivvF3N0jkhKQ&utm_campaign=yelp_api_v3&utm_medium=api_v3_business_search&utm_source=-uBzzloii2ivvF3N0jkhKQ,rp8S7scxOkVVeG7dNneMGQ
143,Supper,Italian,4.0,$$,156 E 2nd St,40.7229,-73.98527,https://www.yelp.com/biz/supper-new-york?adjust_creative=-uBzzloii2ivvF3N0jkhKQ&utm_campaign=yelp_api_v3&utm_medium=api_v3_business_search&utm_source=-uBzzloii2ivvF3N0jkhKQ,Vs8kQ4R381y27AH018gLpg
144,Spaghetti Incident,Italian,4.0,$$,231 Eldridge St,40.7223153441439,-73.9899454318763,https://www.yelp.com/biz/spaghetti-incident-new-york-2?adjust_creative=-uBzzloii2ivvF3N0jkhKQ&utm_campaign=yelp_api_v3&utm_medium=api_v3_business_search&utm_source=-uBzzloii2ivvF3N0jkhKQ,XHhRAKq6DArQXYhkgvwaow
145,Naked Dog,Italian,4.5,$$,47 Java St,40.7312720665479,-73.9593493647979,https://www.yelp.com/biz/naked-dog-brooklyn-2?adjust_creative=-uBzzloii2ivvF3N0jkhKQ&utm_campaign=yelp_api_v3&utm_medium=api_v3_business_search&utm_source=-uBzzloii2ivvF3N0jkhKQ,OwDRIugcA4LkUuTRqpJsog
146,Graziella's,Italian,4.0,$$,232 Vanderbilt Ave,40.6904563903809,-73.9696273803711,https://www.yelp.com/biz/graziellas-brooklyn-11?adjust_creative=-uBzzloii2ivvF3N0jkhKQ&utm_campaign=yelp_api_v3&utm_medium=api_v3_business_search&utm_source=-uBzzloii2ivvF3N0jkhKQ,St8a2de1vfyCxwIySBUWbA
147,Piccolo Angolo Restaurant,Italian,4.0,$$,621 Hudson St,40.7378601855952,-74.0058052539825,https://www.yelp.com/biz/piccolo-angolo-restaurant-new-york?adjust_creative=-uBzzloii2ivvF3N0jkhKQ&utm_campaign=yelp_api_v3&utm_medium=api_v3_business_search&utm_source=-uBzzloii2ivvF3N0jkhKQ,ZVa3-O6LMxZXSpKG0J1h-w
148,Carmine's Italian Restaurant - Upper West Side,Italian,4.0,$$$,2450 Broadway,40.791077,-73.973763,https://www.yelp.com/biz/carmines-italian-restaurant-upper-west-side-new-york?adjust_creative=-uBzzloii2ivvF3N0jkhKQ&utm_campaign=yelp_api_v3&utm_medium=api_v3_business_search&utm_source=-uBzzloii2ivvF3N0jkhKQ,mTWlEiCUEBlxBAkIikkB1A
149,Testo,Italian,4.5,$$,141 Leonard St,40.708337,-73.946965,https://www.yelp.com/biz/testo-brooklyn?adjust_creative=-uBzzloii2ivvF3N0jkhKQ&utm_campaign=yelp_api_v3&utm_medium=api_v3_business_search&utm_source=-uBzzloii2ivvF3N0jkhKQ,1mp7uP6Kz_Zz4UClVfnjFQ
150,Rao's,Italian,4.5,$$$$,455 E 114th St,40.79392,-73.93427,https://www.yelp.com/biz/raos-new-york?adjust_creative=-uBzzloii2ivvF3N0jkhKQ&utm_campaign=yelp_api_v3&utm_medium=api_v3_business_search&utm_source=-uBzzloii2ivvF3N0jkhKQ,zo4JHfD2nWPUiqgsgDOaHQ
151,Giano Restaurant,Italian,4.5,$$,126 E 7th St,40.7262256596862,-73.9840574049125,https://www.yelp.com/biz/giano-restaurant-new-york?adjust_creative=-uBzzloii2ivvF3N0jkhKQ&utm_campaign=yelp_api_v3&utm_medium=api_v3_business_search&utm_source=-uBzzloii2ivvF3N0jkhKQ,dh5r9-SbN8xJ76XvnayWLQ
152,Il Corallo Trattoria,Italian,4.0,$$,176 Prince St,40.7262073,-74.0018919,https://www.yelp.com/biz/il-corallo-trattoria-new-york?adjust_creative=-uBzzloii2ivvF3N0jkhKQ&utm_campaign=yelp_api_v3&utm_medium=api_v3_business_search&utm_source=-uBzzloii2ivvF3N0jkhKQ,J0OeDwmh5JBhid0A5GvltA
153,Norma,Italian,4.5,$$,438 3rd Ave,40.743553,-73.980026,https://www.yelp.com/biz/norma-new-york-5?adjust_creative=-uBzzloii2ivvF3N0jkhKQ&utm_campaign=yelp_api_v3&utm_medium=api_v3_business_search&utm_source=-uBzzloii2ivvF3N0jkhKQ,vVVmHacu2YAxKfpIjhfd1g
154,Barbalu Restaurant,Italian,4.0,$$,225-227 Front St,40.7074747,-74.0020404,https://www.yelp.com/biz/barbalu-restaurant-new-york?adjust_creative=-uBzzloii2ivvF3N0jkhKQ&utm_campaign=yelp_api_v3&utm_medium=api_v3_business_search&utm_source=-uBzzloii2ivvF3N0jkhKQ,b42PcC1nCP602fiXF0a9Xg
155,Monte's,Italian,4.0,$$,451 Carroll St,40.6775499,-73.98724,https://www.yelp.com/biz/montes-brooklyn-26?adjust_creative=-uBzzloii2ivvF3N0jkhKQ&utm_campaign=yelp_api_v3&utm_medium=api_v3_business_search&utm_source=-uBzzloii2ivvF3N0jkhKQ,jj_SCEzBi_CdZWMTjTwf_Q
156,Montesacro Pinseria Brooklyn,Italian,4.5,$$,432 Union Ave,40.71338,-73.95136,https://www.yelp.com/biz/montesacro-pinseria-brooklyn-brooklyn?adjust_creative=-uBzzloii2ivvF3N0jkhKQ&utm_campaign=yelp_api_v3&utm_medium=api_v3_business_search&utm_source=-uBzzloii2ivvF3N0jkhKQ,CFR-HzVHKWRMpMAR3LAhzg
157,Piccola Cucina Osteria,Italian,4.5,$$,196 Spring St,40.72506,-74.00322,https://www.yelp.com/biz/piccola-cucina-osteria-new-york-city?adjust_creative=-uBzzloii2ivvF3N0jkhKQ&utm_campaign=yelp_api_v3&utm_medium=api_v3_business_search&utm_source=-uBzzloii2ivvF3N0jkhKQ,qBGKigOGn_flCx1apxPzlA
158,Leuca,Italian,4.0,$$$,111 N 12th St,40.722121,-73.956678,https://www.yelp.com/biz/leuca-brooklyn?adjust_creative=-uBzzloii2ivvF3N0jkhKQ&utm_campaign=yelp_api_v3&utm_medium=api_v3_business_search&utm_source=-uBzzloii2ivvF3N0jkhKQ,fH8DkdRerw5LJ7fZZHRfeA
159,Il Posto Accanto,Italian,4.5,$$$,190 E 2nd St,40.72238,-73.98403,https://www.yelp.com/biz/il-posto-accanto-new-york?adjust_creative=-uBzzloii2ivvF3N0jkhKQ&utm_campaign=yelp_api_v3&utm_medium=api_v3_business_search&utm_source=-uBzzloii2ivvF3N0jkhKQ,kr5fRwdHtVwPPwSJxm9Fkg
160,Oregano,Italian,4.0,$$,102 Berry St,40.7190165,-73.9586248,https://www.yelp.com/biz/oregano-brooklyn?adjust_creative=-uBzzloii2ivvF3N0jkhKQ&utm_campaign=yelp_api_v3&utm_medium=api_v3_business_search&utm_source=-uBzzloii2ivvF3N0jkhKQ,uPWyvfh5qSrVbujhjsDiiw
161,Da Gennaro,Italian,4.0,$$$,129 Mulberry St,40.71832,-73.99794,https://www.yelp.com/biz/da-gennaro-new-york?adjust_creative=-uBzzloii2ivvF3N0jkhKQ&utm_campaign=yelp_api_v3&utm_medium=api_v3_business_search&utm_source=-uBzzloii2ivvF3N0jkhKQ,JyXn_GCGM2DsNYIzgzQrDw
162,Forno Rosso,Italian,4.0,$$,327 Gold St,40.694467,-73.98293,https://www.yelp.com/biz/forno-rosso-brooklyn?adjust_creative=-uBzzloii2ivvF3N0jkhKQ&utm_campaign=yelp_api_v3&utm_medium=api_v3_business_search&utm_source=-uBzzloii2ivvF3N0jkhKQ,ZTsN8TdMXl8SW_AKd_ablw
163,Tony's Di Napoli,Italian,4.0,$$,147 W 43rd St,40.75641,-73.98547,https://www.yelp.com/biz/tonys-di-napoli-new-york-4?adjust_creative=-uBzzloii2ivvF3N0jkhKQ&utm_campaign=yelp_api_v3&utm_medium=api_v3_business_search&utm_source=-uBzzloii2ivvF3N0jkhKQ,5TX0X8w5ssIACU_pnBEq6g
164,Lilia,Italian,4.0,$$$,567 Union Ave,40.71757,-73.95236,https://www.yelp.com/biz/lilia-brooklyn?adjust_creative=-uBzzloii2ivvF3N0jkhKQ&utm_campaign=yelp_api_v3&utm_medium=api_v3_business_search&utm_source=-uBzzloii2ivvF3N0jkhKQ,zwOAiVT4pAmpNGXzj-t5MA
165,Loreto Italian Kitchen & Bar,Lounges,,,280 Ashland Pl,40.687037,-73.978577,,
166,La Pecora Bianca,Mediterranean,,,54 Prince St,40.72346,-73.9963118,,
167,Forma Pasta Factory,Pasta Shops,4.5,$$,14 Bedford Ave,40.72371,-73.95157,https://www.yelp.com/biz/forma-pasta-factory-brooklyn?adjust_creative=-uBzzloii2ivvF3N0jkhKQ&utm_campaign=yelp_api_v3&utm_medium=api_v3_business_search&utm_source=-uBzzloii2ivvF3N0jkhKQ,HodL0fXoF08C3Ir-kLeTtw
168,Faro,Pasta Shops,4.0,$$$,436 Jefferson St,40.707407,-73.922839,https://www.yelp.com/biz/faro-brooklyn?adjust_creative=-uBzzloii2ivvF3N0jkhKQ&utm_campaign=yelp_api_v3&utm_medium=api_v3_business_search&utm_source=-uBzzloii2ivvF3N0jkhKQ,clOFor0bFSjse7EUfdRacg
169,Posto,Pizza,4.0,$$,310 2nd Ave,40.73483,-73.98282,https://www.yelp.com/biz/posto-new-york-4?adjust_creative=-uBzzloii2ivvF3N0jkhKQ&utm_campaign=yelp_api_v3&utm_medium=api_v3_business_search&utm_source=-uBzzloii2ivvF3N0jkhKQ,X8Hl9OezX-Yr9Jir3fsF7g
170,Lil Frankie's,Pizza,4.0,$$,19 1st Ave,40.723625,-73.988555,https://www.yelp.com/biz/lil-frankies-new-york?adjust_creative=-uBzzloii2ivvF3N0jkhKQ&utm_campaign=yelp_api_v3&utm_medium=api_v3_business_search&utm_source=-uBzzloii2ivvF3N0jkhKQ,TWH4MjLtN1fKlF-7n6YXHg
171,Olio e Piú,Pizza,4.5,$$,3 Greenwich Ave,40.733798036104304,-73.99977392649927,https://www.yelp.com/biz/olio-e-pi%C3%BA-new-york-city?adjust_creative=-uBzzloii2ivvF3N0jkhKQ&utm_campaign=yelp_api_v3&utm_medium=api_v3_business_search&utm_source=-uBzzloii2ivvF3N0jkhKQ,16ZnHpuaaBt92XWeJHCC5A
172,Grimaldi's Pizzeria,Pizza,3.5,$$,1 Front St,40.702583,-73.9932413,https://www.yelp.com/biz/grimaldis-pizzeria-brooklyn-4?adjust_creative=-uBzzloii2ivvF3N0jkhKQ&utm_campaign=yelp_api_v3&utm_medium=api_v3_business_search&utm_source=-uBzzloii2ivvF3N0jkhKQ,2ggi1luerd3Mf_C82JvCYg
173,Song E Napule,Pizza,4.5,$$,146 W Houston St,40.72813,-74.00188,https://www.yelp.com/biz/song-e-napule-new-york?adjust_creative=-uBzzloii2ivvF3N0jkhKQ&utm_campaign=yelp_api_v3&utm_medium=api_v3_business_search&utm_source=-uBzzloii2ivvF3N0jkhKQ,15k7iqFbhf4h8L01yggLqg
174,Gino's Restaurant,Pizza,4.0,$$,7414 5th Ave,40.63,-74.02274,https://www.yelp.com/biz/ginos-restaurant-brooklyn-2?adjust_creative=-uBzzloii2ivvF3N0jkhKQ&utm_campaign=yelp_api_v3&utm_medium=api_v3_business_search&utm_source=-uBzzloii2ivvF3N0jkhKQ,AAQDZdKhtcX7otmOfOF9nw
175,Marta,Pizza,4.0,$$$,29 E 29th St,40.7445882,-73.9847936,https://www.yelp.com/biz/marta-new-york-7?adjust_creative=-uBzzloii2ivvF3N0jkhKQ&utm_campaign=yelp_api_v3&utm_medium=api_v3_business_search&utm_source=-uBzzloii2ivvF3N0jkhKQ,rZ9OFoSqy8u4WECfh--ylg
176,Roberta's,Pizza,4.0,$$,261 Moore St,40.70493,-73.93399,https://www.yelp.com/biz/robertas-brooklyn-2?adjust_creative=-uBzzloii2ivvF3N0jkhKQ&utm_campaign=yelp_api_v3&utm_medium=api_v3_business_search&utm_source=-uBzzloii2ivvF3N0jkhKQ,FhXjAc6nKLf414KxYujUHw
177,Il Porto Ristorante,Pizza,4.0,$$,37 Washington Ave,40.6974427,-73.9675197,https://www.yelp.com/biz/il-porto-ristorante-brooklyn?adjust_creative=-uBzzloii2ivvF3N0jkhKQ&utm_campaign=yelp_api_v3&utm_medium=api_v3_business_search&utm_source=-uBzzloii2ivvF3N0jkhKQ,hFmz7HH2og9hn7xNNv20yw
178,Lucali,Pizza,4.0,$$,575 Henry St,40.6818,-74.00024,https://www.yelp.com/biz/lucali-brooklyn-3?adjust_creative=-uBzzloii2ivvF3N0jkhKQ&utm_campaign=yelp_api_v3&utm_medium=api_v3_business_search&utm_source=-uBzzloii2ivvF3N0jkhKQ,Q9F2ocrmYuGt1yn3M7MOBw
179,Mama Mia 44 SW,Pizza,4.0,$$,621 9th Ave,40.759761,-73.992065,https://www.yelp.com/biz/mama-mia-44-sw-new-york-2?adjust_creative=-uBzzloii2ivvF3N0jkhKQ&utm_campaign=yelp_api_v3&utm_medium=api_v3_business_search&utm_source=-uBzzloii2ivvF3N0jkhKQ,h4VCnZ2aZ33mdenS_ZI7jQ
180,Saraghina,Pizza,4.0,$$,350 Lewis Ave,40.6837407,-73.9353473,https://www.yelp.com/biz/saraghina-brooklyn?adjust_creative=-uBzzloii2ivvF3N0jkhKQ&utm_campaign=yelp_api_v3&utm_medium=api_v3_business_search&utm_source=-uBzzloii2ivvF3N0jkhKQ,fU22eRTnKLT2C-OFJ6eUGQ
181,Patrizia's - Williamsburg,Pizza,4.0,$$,35 Broadway,40.7109154314181,-73.9673637711639,https://www.yelp.com/biz/patrizias-williamsburg-brooklyn?adjust_creative=-uBzzloii2ivvF3N0jkhKQ&utm_campaign=yelp_api_v3&utm_medium=api_v3_business_search&utm_source=-uBzzloii2ivvF3N0jkhKQ,LRgB2kEKtBxqIxNksTO_PQ
182,Piacere,Pizza,4.0,$$,351 Broome St,40.7196979,-73.9951175,https://www.yelp.com/biz/piacere-new-york?adjust_creative=-uBzzloii2ivvF3N0jkhKQ&utm_campaign=yelp_api_v3&utm_medium=api_v3_business_search&utm_source=-uBzzloii2ivvF3N0jkhKQ,Z67mgMkN3RfdPEX5mXsyYA
183,Lombardi's Pizza,Pizza,4.0,$$,32 Spring St,40.7215934960083,-73.9955956044561,https://www.yelp.com/biz/lombardis-pizza-new-york-4?adjust_creative=-uBzzloii2ivvF3N0jkhKQ&utm_campaign=yelp_api_v3&utm_medium=api_v3_business_search&utm_source=-uBzzloii2ivvF3N0jkhKQ,WIhm0W9197f_rRtDziq5qQ
184,Lombardo's of Bay Ridge,Pizza,5.0,$$,279 71st St,40.634741,-74.0284259,https://www.yelp.com/biz/lombardos-of-bay-ridge-brooklyn-2?adjust_creative=-uBzzloii2ivvF3N0jkhKQ&utm_campaign=yelp_api_v3&utm_medium=api_v3_business_search&utm_source=-uBzzloii2ivvF3N0jkhKQ,qoBcWhGwlcUsKIQ2nB22vA
185,Barano,Pizza,4.5,$$$,26 Broadway,40.710372,-73.96794,https://www.yelp.com/biz/barano-brooklyn?adjust_creative=-uBzzloii2ivvF3N0jkhKQ&utm_campaign=yelp_api_v3&utm_medium=api_v3_business_search&utm_source=-uBzzloii2ivvF3N0jkhKQ,rJfGgBleDYCVq2rkBr_w-Q
186,Baci & Abbracci,Pizza,4.0,$$,204 Grand St,40.7139015197754,-73.96044921875,https://www.yelp.com/biz/baci-and-abbracci-brooklyn?adjust_creative=-uBzzloii2ivvF3N0jkhKQ&utm_campaign=yelp_api_v3&utm_medium=api_v3_business_search&utm_source=-uBzzloii2ivvF3N0jkhKQ,15d_Y6TVOQFD2KRVkxuAjw
187,L & B Spumoni Gardens,Pizza,4.0,$,2725 86th St,40.594715,-73.981316,https://www.yelp.com/biz/l-and-b-spumoni-gardens-brooklyn?adjust_creative=-uBzzloii2ivvF3N0jkhKQ&utm_campaign=yelp_api_v3&utm_medium=api_v3_business_search&utm_source=-uBzzloii2ivvF3N0jkhKQ,vyoA8dxwScuMV_AsTcjQcg
188,Juliana's,Pizza,4.5,$$,19 Old Fulton St,40.70274718768062,-73.99343490196397,https://www.yelp.com/biz/julianas-brooklyn-3?adjust_creative=-uBzzloii2ivvF3N0jkhKQ&utm_campaign=yelp_api_v3&utm_medium=api_v3_business_search&utm_source=-uBzzloii2ivvF3N0jkhKQ,ysqgdbSrezXgVwER2kQWKA
189,DOC Wine Bar,Sardinian,4.0,$$,83 N 7th St,40.71966,-73.96046,https://www.yelp.com/biz/doc-wine-bar-brooklyn-2?adjust_creative=-uBzzloii2ivvF3N0jkhKQ&utm_campaign=yelp_api_v3&utm_medium=api_v3_business_search&utm_source=-uBzzloii2ivvF3N0jkhKQ,x6_1vzeCH9YvbvIBmSr2iA
190,Piccola Cucina Uptown,Sicilian,,,106 E 60th St,40.763174,-73.969046,,
191,Raffetto's,Specialty Food,4.5,$,144 W Houston St,40.72816,-74.00172,https://www.yelp.com/biz/raffettos-new-york-2?adjust_creative=-uBzzloii2ivvF3N0jkhKQ&utm_campaign=yelp_api_v3&utm_medium=api_v3_business_search&utm_source=-uBzzloii2ivvF3N0jkhKQ,Ei5qjq0qmfNLkdVoO-S5Tw
192,Carne Mare,Steakhouses,,,89 South St,40.70634,-74.00383,,
193,Fiaschetteria Pistoia,Tuscan,4.0,$$,647 E 11th St,40.72666,-73.9773,https://www.yelp.com/biz/fiaschetteria-pistoia-new-york?adjust_creative=-uBzzloii2ivvF3N0jkhKQ&utm_campaign=yelp_api_v3&utm_medium=api_v3_business_search&utm_source=-uBzzloii2ivvF3N0jkhKQ,q3_FgDWWuXcVGiNuo_OPBQ
194,Da Andrea,Tuscan,4.0,$$,35 W 13th St,40.736218,-73.99597,https://www.yelp.com/biz/da-andrea-new-york?adjust_creative=-uBzzloii2ivvF3N0jkhKQ&utm_campaign=yelp_api_v3&utm_medium=api_v3_business_search&utm_source=-uBzzloii2ivvF3N0jkhKQ,hdiuRS9sVZSMReZm4oV5SA
195,Fiaschetteria Pistoia,Tuscan,,,114 Christopher St,40.73316,-74.00537,,
196,Fradei Bistro,Wine Bars,,,99 South Portland Ave,40.686579,-73.974191,,
197,Have & Meyer,Wine Bars,4.0,$$,103 Havemeyer St,40.7132687751084,-73.9564743950496,https://www.yelp.com/biz/have-and-meyer-brooklyn?adjust_creative=-uBzzloii2ivvF3N0jkhKQ&utm_campaign=yelp_api_v3&utm_medium=api_v3_business_search&utm_source=-uBzzloii2ivvF3N0jkhKQ,JU5d81TYm7IJHWqOqJWMqw
198,Follia NYC,Wine Bars,4.0,$$,179 3rd Ave,40.7349243164062,-73.9855880737305,https://www.yelp.com/biz/follia-nyc-new-york?adjust_creative=-uBzzloii2ivvF3N0jkhKQ&utm_campaign=yelp_api_v3&utm_medium=api_v3_business_search&utm_source=-uBzzloii2ivvF3N0jkhKQ,78TCGIG1eHMYdyvMpFdDbQ
199,Felice,Wine Bars,4.0,$$,15 Gold St,40.70789,-74.00712,https://www.yelp.com/biz/felice-new-york-6?adjust_creative=-uBzzloii2ivvF3N0jkhKQ&utm_campaign=yelp_api_v3&utm_medium=api_v3_business_search&utm_source=-uBzzloii2ivvF3N0jkhKQ,fuS39acPaRi38DhSSwEI4Q
