,Restaurant,Type,Rating,Price,Address,Lat,Lng,url,ID
0,The Bar Room,American (New),4.0,$$,117 E 60th St,40.763409,-73.968449,https://www.yelp.com/biz/the-bar-room-new-york?adjust_creative=-uBzzloii2ivvF3N0jkhKQ&utm_campaign=yelp_api_v3&utm_medium=api_v3_business_search&utm_source=-uBzzloii2ivvF3N0jkhKQ,MyQV4i518ZO4CLudtR8gLA
1,Employees Only,American (New),4.0,$$$,510 Hudson St,40.73343,-74.00617,https://www.yelp.com/biz/employees-only-new-york?adjust_creative=-uBzzloii2ivvF3N0jkhKQ&utm_campaign=yelp_api_v3&utm_medium=api_v3_business_search&utm_source=-uBzzloii2ivvF3N0jkhKQ,SjG7CnTIuUBIo9T4BThkGQ
2,Hold Fast Kitchen & Spirits,American (New),5.0,$$,364 W 46th St,40.76064,-73.99023,https://www.yelp.com/biz/hold-fast-kitchen-and-spirits-new-york?adjust_creative=-uBzzloii2ivvF3N0jkhKQ&utm_campaign=yelp_api_v3&utm_medium=api_v3_business_search&utm_source=-uBzzloii2ivvF3N0jkhKQ,VLGmFHE4s0Sfu0piMVQa1Q
3,The Flower Shop,American (New),4.0,$$,107 Eldridge St,40.71807,-73.99213,https://www.yelp.com/biz/the-flower-shop-new-york-2?adjust_creative=-uBzzloii2ivvF3N0jkhKQ&utm_campaign=yelp_api_v3&utm_medium=api_v3_business_search&utm_source=-uBzzloii2ivvF3N0jkhKQ,vkQSMwAf5yqDw9HfEQYgzw
4,The Horny Ram,American (New),4.0,$$,951 2nd Ave,40.75528,-73.96857,https://www.yelp.com/biz/the-horny-ram-new-york-2?adjust_creative=-uBzzloii2ivvF3N0jkhKQ&utm_campaign=yelp_api_v3&utm_medium=api_v3_business_search&utm_source=-uBzzloii2ivvF3N0jkhKQ,6hKJePanmG9AxK4dfwgyyg
5,Henry's Rooftop Bar,American (New),4.0,$$,501 Lexington Ave,40.754799,-73.97314,https://www.yelp.com/biz/henrys-rooftop-bar-new-york?adjust_creative=-uBzzloii2ivvF3N0jkhKQ&utm_campaign=yelp_api_v3&utm_medium=api_v3_business_search&utm_source=-uBzzloii2ivvF3N0jkhKQ,Q_bI2gY7LtMCXkzkakPUkg
6,The Wild Son,American (New),4.5,$$,132 First Ave,40.727424,-73.985201,https://www.yelp.com/biz/the-wild-son-new-york?adjust_creative=-uBzzloii2ivvF3N0jkhKQ&utm_campaign=yelp_api_v3&utm_medium=api_v3_business_search&utm_source=-uBzzloii2ivvF3N0jkhKQ,N5UY113nNpeKdLPv0cbMjQ
7,DumboLuv,American (New),,,54 Jay St,40.7032593,-73.9866501,,
8,Atrium Dumbo,American (New),4.0,$$,15 Main St,40.7033899,-73.9904923,https://www.yelp.com/biz/atrium-dumbo-brooklyn?adjust_creative=-uBzzloii2ivvF3N0jkhKQ&utm_campaign=yelp_api_v3&utm_medium=api_v3_business_search&utm_source=-uBzzloii2ivvF3N0jkhKQ,hmdm-dO72hLsMQwQRcGEUQ
9,The Spaniard,American (New),4.0,$$,190 W 4th St,40.7327497,-74.0021829,https://www.yelp.com/biz/the-spaniard-new-york?adjust_creative=-uBzzloii2ivvF3N0jkhKQ&utm_campaign=yelp_api_v3&utm_medium=api_v3_business_search&utm_source=-uBzzloii2ivvF3N0jkhKQ,XO3yD87rTPz9o6Dy9qRaJg
10,The Cabin NYC,American (New),4.0,$$,205 E 4th St,40.72393,-73.98383,https://www.yelp.com/biz/the-cabin-nyc-new-york-2?adjust_creative=-uBzzloii2ivvF3N0jkhKQ&utm_campaign=yelp_api_v3&utm_medium=api_v3_business_search&utm_source=-uBzzloii2ivvF3N0jkhKQ,J3NT61-AH5d5Gu5tFJhYSw
11,OTB,American (New),4.5,$$,141 Broadway,40.710484,-73.963408,https://www.yelp.com/biz/otb-brooklyn?adjust_creative=-uBzzloii2ivvF3N0jkhKQ&utm_campaign=yelp_api_v3&utm_medium=api_v3_business_search&utm_source=-uBzzloii2ivvF3N0jkhKQ,GpWXEpVyehmKP2WQsD_Y8g
12,The Leroy House,American (New),4.5,$$$,430 Hudson St,40.73063,-74.00661,https://www.yelp.com/biz/the-leroy-house-new-york-5?adjust_creative=-uBzzloii2ivvF3N0jkhKQ&utm_campaign=yelp_api_v3&utm_medium=api_v3_business_search&utm_source=-uBzzloii2ivvF3N0jkhKQ,AA9wpuJRhkSHUePAiv3otA
13,The Highwater,American (New),4.0,$$,3420 Broadway,40.76033,-73.92245,https://www.yelp.com/biz/the-highwater-astoria?adjust_creative=-uBzzloii2ivvF3N0jkhKQ&utm_campaign=yelp_api_v3&utm_medium=api_v3_business_search&utm_source=-uBzzloii2ivvF3N0jkhKQ,k5bGHJbAXDw9g_uP42QqDw
14,JoJo,American (New),4.0,$$$,160 E 64th St,40.76506,-73.96571,https://www.yelp.com/biz/jojo-new-york-3?adjust_creative=-uBzzloii2ivvF3N0jkhKQ&utm_campaign=yelp_api_v3&utm_medium=api_v3_business_search&utm_source=-uBzzloii2ivvF3N0jkhKQ,uq5rHbGtBFwCwPkokIkKvQ
15,Kimoto Rooftop,Asian Fusion,3.5,$$,228 Duffield St,40.6915156530047,-73.9846554,https://www.yelp.com/biz/kimoto-rooftop-brooklyn-5?adjust_creative=-uBzzloii2ivvF3N0jkhKQ&utm_campaign=yelp_api_v3&utm_medium=api_v3_business_search&utm_source=-uBzzloii2ivvF3N0jkhKQ,nnSyjwIkhbJIBMiBtch_BQ
16,Superfine,Bars,3.5,$$,126 Front St,40.702236,-73.987426,https://www.yelp.com/biz/superfine-brooklyn?adjust_creative=-uBzzloii2ivvF3N0jkhKQ&utm_campaign=yelp_api_v3&utm_medium=api_v3_business_search&utm_source=-uBzzloii2ivvF3N0jkhKQ,I4LSdJd2Z8M6VNLhbX3aLA
17,Local 138,Bars,4.0,$,181 Orchard St,40.72191,-73.98841,https://www.yelp.com/biz/local-138-new-york?adjust_creative=-uBzzloii2ivvF3N0jkhKQ&utm_campaign=yelp_api_v3&utm_medium=api_v3_business_search&utm_source=-uBzzloii2ivvF3N0jkhKQ,EDFfoyXTsHPBW6mNWLVoig
18,Cookies,Bars,,,748 Myrtle Ave,40.69485,-73.95285,,
19,All Night Skate,Bars,,,54 Rockaway Ave,40.68192,-73.9116856,,
20,Juke Bar,Bars,4.5,$$,196 2nd Ave,40.731098,-73.985611,https://www.yelp.com/biz/juke-bar-new-york?adjust_creative=-uBzzloii2ivvF3N0jkhKQ&utm_campaign=yelp_api_v3&utm_medium=api_v3_business_search&utm_source=-uBzzloii2ivvF3N0jkhKQ,kt77PF-PfvsY5aGv0UGeNA
21,Four Five Six,Bars,4.5,$$,199 Richardson St,40.719181,-73.943149,https://www.yelp.com/biz/four-five-six-brooklyn?adjust_creative=-uBzzloii2ivvF3N0jkhKQ&utm_campaign=yelp_api_v3&utm_medium=api_v3_business_search&utm_source=-uBzzloii2ivvF3N0jkhKQ,HuU2IGPfQ23FTOGDQg0Ieg
22,Baba Cool,Bars,,,47 Withers St,40.717015,-73.950737,,
23,Cardiff Giant,Bars,4.0,$$,415 Myrtle Ave,40.69324,-73.96923,https://www.yelp.com/biz/cardiff-giant-brooklyn?adjust_creative=-uBzzloii2ivvF3N0jkhKQ&utm_campaign=yelp_api_v3&utm_medium=api_v3_business_search&utm_source=-uBzzloii2ivvF3N0jkhKQ,XyulGZ5P9VhtNcK7zN2R9g
24,Hidden Lane Bar,Bars,,,129 E 15th St,40.734579,-73.987684,,
25,The Woods,Bars,3.0,$$,48 S 4th St,40.712818,-73.966659,https://www.yelp.com/biz/the-woods-brooklyn?adjust_creative=-uBzzloii2ivvF3N0jkhKQ&utm_campaign=yelp_api_v3&utm_medium=api_v3_business_search&utm_source=-uBzzloii2ivvF3N0jkhKQ,TRWTCtNQYxiBU_7OvnhAvw
26,68 Jay St Bar,Bars,3.0,$,68 Jay St,40.70300059165199,-73.9868171822155,https://www.yelp.com/biz/68-jay-st-bar-brooklyn?adjust_creative=-uBzzloii2ivvF3N0jkhKQ&utm_campaign=yelp_api_v3&utm_medium=api_v3_business_search&utm_source=-uBzzloii2ivvF3N0jkhKQ,ne1sjzU07jRQZSFO0K9l9Q
27,Clinton Hall,Bars,3.5,$$,90 Washington St,40.70803,-74.014869,https://www.yelp.com/biz/clinton-hall-new-york?adjust_creative=-uBzzloii2ivvF3N0jkhKQ&utm_campaign=yelp_api_v3&utm_medium=api_v3_business_search&utm_source=-uBzzloii2ivvF3N0jkhKQ,nm5rcWNmfevNXLNQAITi5w
28,Doris,Bars,4.0,$$,1088 Fulton St,40.68121,-73.957436,https://www.yelp.com/biz/doris-brooklyn?adjust_creative=-uBzzloii2ivvF3N0jkhKQ&utm_campaign=yelp_api_v3&utm_medium=api_v3_business_search&utm_source=-uBzzloii2ivvF3N0jkhKQ,kLxfxcs8DPVjeOt9jvPwrw
29,Copper & Oak,Bars,4.5,$$$,157 Allen St,40.721065,-73.98986,https://www.yelp.com/biz/copper-and-oak-new-york-5?adjust_creative=-uBzzloii2ivvF3N0jkhKQ&utm_campaign=yelp_api_v3&utm_medium=api_v3_business_search&utm_source=-uBzzloii2ivvF3N0jkhKQ,ajdv6_mWIkAXzn71CUdpkw
30,Brass Monkey,Bars,3.0,$$,55 Little W 12th St,40.7406584244867,-74.0085168948392,https://www.yelp.com/biz/brass-monkey-new-york?adjust_creative=-uBzzloii2ivvF3N0jkhKQ&utm_campaign=yelp_api_v3&utm_medium=api_v3_business_search&utm_source=-uBzzloii2ivvF3N0jkhKQ,VYHY4LbrRWZCoZzW25zynQ
31,The Dead Poet,Bars,4.0,$$,450 Amsterdam Ave,40.78499,-73.97735,https://www.yelp.com/biz/the-dead-poet-new-york?adjust_creative=-uBzzloii2ivvF3N0jkhKQ&utm_campaign=yelp_api_v3&utm_medium=api_v3_business_search&utm_source=-uBzzloii2ivvF3N0jkhKQ,bkIMbvXOcztDVz8bpyhMzQ
32,Dick and Jane's,Bars,4.0,$$,266 Adelphi St,40.68987,-73.97136,https://www.yelp.com/biz/dick-and-janes-brooklyn?adjust_creative=-uBzzloii2ivvF3N0jkhKQ&utm_campaign=yelp_api_v3&utm_medium=api_v3_business_search&utm_source=-uBzzloii2ivvF3N0jkhKQ,5usxLwlQ2rF0UwuOEd3aOQ
33,Mr Fong's,Bars,3.5,$$,40 Market St,40.7122732860015,-73.9942900257959,https://www.yelp.com/biz/mr-fongs-new-york?adjust_creative=-uBzzloii2ivvF3N0jkhKQ&utm_campaign=yelp_api_v3&utm_medium=api_v3_business_search&utm_source=-uBzzloii2ivvF3N0jkhKQ,GiP7os-JQVWuSRoX1BHcpA
34,The Wren,Bars,4.0,$$,344 Bowery,40.7263350655,-73.9920476876,https://www.yelp.com/biz/the-wren-new-york?adjust_creative=-uBzzloii2ivvF3N0jkhKQ&utm_campaign=yelp_api_v3&utm_medium=api_v3_business_search&utm_source=-uBzzloii2ivvF3N0jkhKQ,lhEzTykkqFz92Vq2uILtyw
35,Mika,Bars,,,25 Thames St,40.705116,-73.931991,,
36,Livingston Manor,Bars,4.0,$$,42 Hoyt St,40.68937,-73.98603,https://www.yelp.com/biz/livingston-manor-brooklyn?adjust_creative=-uBzzloii2ivvF3N0jkhKQ&utm_campaign=yelp_api_v3&utm_medium=api_v3_business_search&utm_source=-uBzzloii2ivvF3N0jkhKQ,2DJjJu3sqaBCN7w4CwR5Dw
37,Luckydog,Bars,4.0,$,303 Bedford Ave,40.71348,-73.96166,https://www.yelp.com/biz/luckydog-brooklyn?adjust_creative=-uBzzloii2ivvF3N0jkhKQ&utm_campaign=yelp_api_v3&utm_medium=api_v3_business_search&utm_source=-uBzzloii2ivvF3N0jkhKQ,3Uzy1yp1SXq3FG-i2hEcyA
38,Elsewhere Rooftop,Bars,4.0,$$,599 Johnson Ave,40.70950450588652,-73.92319045977891,https://www.yelp.com/biz/elsewhere-rooftop-brooklyn?adjust_creative=-uBzzloii2ivvF3N0jkhKQ&utm_campaign=yelp_api_v3&utm_medium=api_v3_business_search&utm_source=-uBzzloii2ivvF3N0jkhKQ,OmrD9neOHhfmJIoP6erJjA
39,Botanica Bar,Bars,4.0,$,47 E Houston St,40.72459,-73.99478,https://www.yelp.com/biz/botanica-bar-new-york?adjust_creative=-uBzzloii2ivvF3N0jkhKQ&utm_campaign=yelp_api_v3&utm_medium=api_v3_business_search&utm_source=-uBzzloii2ivvF3N0jkhKQ,zvxUXRQOqzsyFiCKS09_JQ
40,Paradise Club,Bars,,,701 7th Ave 20 Times Square,40.75923,-73.9841,,
41,Queen Bee's Tavern,Bars,4.5,$,3023 Church Ave,40.65098,-73.94874,https://www.yelp.com/biz/queen-bees-tavern-brooklyn?adjust_creative=-uBzzloii2ivvF3N0jkhKQ&utm_campaign=yelp_api_v3&utm_medium=api_v3_business_search&utm_source=-uBzzloii2ivvF3N0jkhKQ,zFhfTMtWW6ZHU5rhpyZjrw
42,Public Records,Bars,3.5,$$,233 Butler St,40.6821609392503,-73.986539662892,https://www.yelp.com/biz/public-records-brooklyn?adjust_creative=-uBzzloii2ivvF3N0jkhKQ&utm_campaign=yelp_api_v3&utm_medium=api_v3_business_search&utm_source=-uBzzloii2ivvF3N0jkhKQ,1VFAJtFoeTSwGCXVWBQEIg
43,Someday Bar,Bars,4.5,$$,364 Atlantic Ave,40.68736,-73.98633,https://www.yelp.com/biz/someday-bar-brooklyn?adjust_creative=-uBzzloii2ivvF3N0jkhKQ&utm_campaign=yelp_api_v3&utm_medium=api_v3_business_search&utm_source=-uBzzloii2ivvF3N0jkhKQ,036OHcA8Au0yTOrrcj5SEQ
44,Basement,Bars,4.5,$$,45 Mott St,40.71526,-73.99883,https://www.yelp.com/biz/basement-new-york-3?adjust_creative=-uBzzloii2ivvF3N0jkhKQ&utm_campaign=yelp_api_v3&utm_medium=api_v3_business_search&utm_source=-uBzzloii2ivvF3N0jkhKQ,kLEx49YQZZYhtf57YEvQIg
45,Travel Bar,Bars,5.0,$$,520 Court St,40.6761536,-73.9991514612044,https://www.yelp.com/biz/travel-bar-carroll-gardens?adjust_creative=-uBzzloii2ivvF3N0jkhKQ&utm_campaign=yelp_api_v3&utm_medium=api_v3_business_search&utm_source=-uBzzloii2ivvF3N0jkhKQ,okF1w-7gZNy2OB73SsjuYw
46,Frying Pan,Bars,4.0,$$,207 12th Avenue,40.7521174043978,-74.0090024471283,https://www.yelp.com/biz/frying-pan-new-york?adjust_creative=-uBzzloii2ivvF3N0jkhKQ&utm_campaign=yelp_api_v3&utm_medium=api_v3_business_search&utm_source=-uBzzloii2ivvF3N0jkhKQ,bEloKDe-QVkwakAwmFKbbA
47,"Summerly at The Hoxton, Williamsburg",Bars,,,97 Wythe Ave,40.72077,-73.95873,,
48,Sally’s,Bars,,,151 Tompkins Ave,40.694143,-73.945805,,
49,Skinny Dennis,Bars,4.0,$,152 Metropolitan Ave,40.715863,-73.962168,https://www.yelp.com/biz/skinny-dennis-brooklyn?adjust_creative=-uBzzloii2ivvF3N0jkhKQ&utm_campaign=yelp_api_v3&utm_medium=api_v3_business_search&utm_source=-uBzzloii2ivvF3N0jkhKQ,S81cNOF-SslUCcBQgWPO-g
50,Carmelo's,Bars,3.5,$$,1544 Dekalb Ave,40.70282,-73.92054,https://www.yelp.com/biz/carmelos-brooklyn?adjust_creative=-uBzzloii2ivvF3N0jkhKQ&utm_campaign=yelp_api_v3&utm_medium=api_v3_business_search&utm_source=-uBzzloii2ivvF3N0jkhKQ,sMQv00tw4hR654VC5d63CA
51,The Hideaway Seaport,Bars,4.0,$$,22 Peck Slip,40.7080634,-74.002083,https://www.yelp.com/biz/the-hideaway-seaport-new-york?adjust_creative=-uBzzloii2ivvF3N0jkhKQ&utm_campaign=yelp_api_v3&utm_medium=api_v3_business_search&utm_source=-uBzzloii2ivvF3N0jkhKQ,7szsAtxOkGJ2ady3Qx7v4w
52,Runaway Roof,Bars,,,321 Starr St,40.708074,-73.9205073,,
53,Garden Bar,Bars,,,19 Fulton St,40.70701,-74.00356,,
54,Forgtmenot,Bars,4.0,$$,138 Division St,40.714498871349,-73.9915559401866,https://www.yelp.com/biz/forgtmenot-new-york-2?adjust_creative=-uBzzloii2ivvF3N0jkhKQ&utm_campaign=yelp_api_v3&utm_medium=api_v3_business_search&utm_source=-uBzzloii2ivvF3N0jkhKQ,YKfj-CUjgb9xQ1kN_bhNLg
55,"Floyd, NY",Bars,4.0,$,131 Atlantic Ave,40.6907799,-73.9957,https://www.yelp.com/biz/floyd-ny-brooklyn-2?adjust_creative=-uBzzloii2ivvF3N0jkhKQ&utm_campaign=yelp_api_v3&utm_medium=api_v3_business_search&utm_source=-uBzzloii2ivvF3N0jkhKQ,YL1LxYufuwX5sq4RwW-2Gw
56,Pata Paplean,Bars,4.0,$$,76-21 Woodside Ave,40.7435901462143,-73.8880684963577,https://www.yelp.com/biz/pata-paplean-elmhurst?adjust_creative=-uBzzloii2ivvF3N0jkhKQ&utm_campaign=yelp_api_v3&utm_medium=api_v3_business_search&utm_source=-uBzzloii2ivvF3N0jkhKQ,IHLGmtOkqm8Qm3Ny8yjfVA
57,Fresh Salt,Bars,4.0,$$,146 Beekman St,40.70707,-74.00244,https://www.yelp.com/biz/fresh-salt-new-york?adjust_creative=-uBzzloii2ivvF3N0jkhKQ&utm_campaign=yelp_api_v3&utm_medium=api_v3_business_search&utm_source=-uBzzloii2ivvF3N0jkhKQ,kDJbzzmCEjFbyDQ-lSygvw
58,TØRST,Beer Bar,4.5,$$,615 Manhattan Ave,40.7233949,-73.950856,https://www.yelp.com/biz/t%C3%B8rst-brooklyn?adjust_creative=-uBzzloii2ivvF3N0jkhKQ&utm_campaign=yelp_api_v3&utm_medium=api_v3_business_search&utm_source=-uBzzloii2ivvF3N0jkhKQ,TDyu1-6XF7r1jc13j7nDNA
59,Seven Bridges,Beer Bar,,,249 4th Ave,40.67626,-73.98356,,
60,Proletariat,Beer Bar,4.0,$$,102 St Marks Pl,40.7272506368689,-73.9845192432404,https://www.yelp.com/biz/proletariat-new-york?adjust_creative=-uBzzloii2ivvF3N0jkhKQ&utm_campaign=yelp_api_v3&utm_medium=api_v3_business_search&utm_source=-uBzzloii2ivvF3N0jkhKQ,Cw8g99c6ybhsbrTCgI5S_Q
61,Clinton Hall,Beer Gardens,4.0,$$,16 W 36th St,40.75009,-73.98471,https://www.yelp.com/biz/clinton-hall-new-york-13?adjust_creative=-uBzzloii2ivvF3N0jkhKQ&utm_campaign=yelp_api_v3&utm_medium=api_v3_business_search&utm_source=-uBzzloii2ivvF3N0jkhKQ,bpjDo7svAFD10eszaOPQHw
62,Rule of Thirds,Breakfast & Brunch,,,171 Banker St,40.7246328,-73.9551096,,
63,1803,Cajun/Creole,4.5,$$,82 Reade St,40.715498,-74.007178,https://www.yelp.com/biz/1803-new-york?adjust_creative=-uBzzloii2ivvF3N0jkhKQ&utm_campaign=yelp_api_v3&utm_medium=api_v3_business_search&utm_source=-uBzzloii2ivvF3N0jkhKQ,3xTQT7qjZJIxc-eBiFMerQ
64,The Moonlight Mile,Cocktail Bars,5.0,$$,200 Franklin St,40.7321141,-73.9578424,https://www.yelp.com/biz/the-moonlight-mile-brooklyn?adjust_creative=-uBzzloii2ivvF3N0jkhKQ&utm_campaign=yelp_api_v3&utm_medium=api_v3_business_search&utm_source=-uBzzloii2ivvF3N0jkhKQ,_7-wGQfXNgbr-WDIMzUvZw
65,Oldies,Cocktail Bars,4.5,$$,269 36th St,40.656173689036,-74.0069703165711,https://www.yelp.com/biz/oldies-brooklyn-2?adjust_creative=-uBzzloii2ivvF3N0jkhKQ&utm_campaign=yelp_api_v3&utm_medium=api_v3_business_search&utm_source=-uBzzloii2ivvF3N0jkhKQ,cs6FZeHRFOO_QRpEQ5vgAQ
66,Barely Disfigured,Cocktail Bars,4.5,$$,257 Smith St,40.68309,-73.9928,https://www.yelp.com/biz/barely-disfigured-brooklyn-3?adjust_creative=-uBzzloii2ivvF3N0jkhKQ&utm_campaign=yelp_api_v3&utm_medium=api_v3_business_search&utm_source=-uBzzloii2ivvF3N0jkhKQ,P9x0uX9nmPCph1mWM3k4vg
67,The Dancer,Cocktail Bars,,,202 Clinton St,40.714,-73.98705,,
68,The Garret,Cocktail Bars,3.5,$$,296 Bleecker St,40.73238,-74.0038457,https://www.yelp.com/biz/the-garret-new-york?adjust_creative=-uBzzloii2ivvF3N0jkhKQ&utm_campaign=yelp_api_v3&utm_medium=api_v3_business_search&utm_source=-uBzzloii2ivvF3N0jkhKQ,dJoWkpVxWcvdqNRo7w622w
69,Mood Ring,Cocktail Bars,4.0,$$,1260 Myrtle Ave,40.69779,-73.92698,https://www.yelp.com/biz/mood-ring-brooklyn-2?adjust_creative=-uBzzloii2ivvF3N0jkhKQ&utm_campaign=yelp_api_v3&utm_medium=api_v3_business_search&utm_source=-uBzzloii2ivvF3N0jkhKQ,YLneWqE-Mixh9BCwnS5QBA
70,Joyface,Cocktail Bars,,,104 Avenue C,40.72394,-73.97878,,
71,Library of Distilled Spirits,Cocktail Bars,4.0,$$,80 13th St,40.7335489,-73.9901842,https://www.yelp.com/biz/library-of-distilled-spirits-new-york?adjust_creative=-uBzzloii2ivvF3N0jkhKQ&utm_campaign=yelp_api_v3&utm_medium=api_v3_business_search&utm_source=-uBzzloii2ivvF3N0jkhKQ,RwwUgOdJ6rTF7MSSwujjlQ
72,The Crown,Cocktail Bars,3.0,$$,50 Bowery,40.71599,-73.99683,https://www.yelp.com/biz/the-crown-new-york-2?adjust_creative=-uBzzloii2ivvF3N0jkhKQ&utm_campaign=yelp_api_v3&utm_medium=api_v3_business_search&utm_source=-uBzzloii2ivvF3N0jkhKQ,beSULYnLPVj2HAOCWmvpjw
73,Maison Pickle,Cocktail Bars,4.0,$$,2315 Broadway,40.7870473,-73.9781361,https://www.yelp.com/biz/maison-pickle-new-york?adjust_creative=-uBzzloii2ivvF3N0jkhKQ&utm_campaign=yelp_api_v3&utm_medium=api_v3_business_search&utm_source=-uBzzloii2ivvF3N0jkhKQ,XsElXaLxUPKquI78poB8yw
74,Mister Paradise,Cocktail Bars,,,105 1st Ave,40.72676,-73.98617,,
75,LLoHi Roof Bar,Cocktail Bars,,,314 Scholes St,40.709106,-73.935238,,
76,Cedar Local,Cocktail Bars,4.0,$$,25 Cedar St,40.7068528,-74.0076058,https://www.yelp.com/biz/cedar-local-new-york?adjust_creative=-uBzzloii2ivvF3N0jkhKQ&utm_campaign=yelp_api_v3&utm_medium=api_v3_business_search&utm_source=-uBzzloii2ivvF3N0jkhKQ,6ZYJ5iiTi6KqRCOigqY7iw
77,Bandits,Cocktail Bars,,,44 Bedford St,40.730425,-74.004121,,
78,Katana Kitten,Cocktail Bars,4.0,$$,531 Hudson St,40.73425,-74.00639,https://www.yelp.com/biz/katana-kitten-new-york-2?adjust_creative=-uBzzloii2ivvF3N0jkhKQ&utm_campaign=yelp_api_v3&utm_medium=api_v3_business_search&utm_source=-uBzzloii2ivvF3N0jkhKQ,kIzVGUWS2b5H_b-G0Q0-0g
79,Butterfly Bar,Cocktail Bars,,,60 Thompson St,40.72399,-74.00316,,
80,Diamond Reef,Cocktail Bars,4.0,$$,1057 Atlantic Ave,40.6796758019517,-73.9566367333384,https://www.yelp.com/biz/diamond-reef-brooklyn-3?adjust_creative=-uBzzloii2ivvF3N0jkhKQ&utm_campaign=yelp_api_v3&utm_medium=api_v3_business_search&utm_source=-uBzzloii2ivvF3N0jkhKQ,9ZcGTKa8jXxHe-wPWXK6nA
81,Analogue,Cocktail Bars,4.0,$$$,19 W 8th St,40.732688,-73.997467,https://www.yelp.com/biz/analogue-new-york?adjust_creative=-uBzzloii2ivvF3N0jkhKQ&utm_campaign=yelp_api_v3&utm_medium=api_v3_business_search&utm_source=-uBzzloii2ivvF3N0jkhKQ,igbXdpEil8ZTcridxpBlLg
82,Crown Alley,Cocktail Bars,,,263 West 19th St,40.742835593003456,-73.99978804723622,,
83,Sandbar Rooftop,Cocktail Bars,,,152 W 26th St,40.745537,-73.993771,,
84,Roof At Park South,Cocktail Bars,3.5,$$$,125 E 27th St,40.74234,-73.98343,https://www.yelp.com/biz/roof-at-park-south-new-york?adjust_creative=-uBzzloii2ivvF3N0jkhKQ&utm_campaign=yelp_api_v3&utm_medium=api_v3_business_search&utm_source=-uBzzloii2ivvF3N0jkhKQ,LZvmeRaHF2469Re1Uc9ElQ
85,Mama Tried,Cocktail Bars,4.5,$$,147 27th St,40.66046,-74.00082,https://www.yelp.com/biz/mama-tried-brooklyn-2?adjust_creative=-uBzzloii2ivvF3N0jkhKQ&utm_campaign=yelp_api_v3&utm_medium=api_v3_business_search&utm_source=-uBzzloii2ivvF3N0jkhKQ,U3d5QB5a8Q37Csj7L1aBXA
86,cloudM Rooftop Bar Bowery,Cocktail Bars,4.0,$$,189 Bowery,40.72069,-73.99366,https://www.yelp.com/biz/cloudm-rooftop-bar-bowery-new-york?adjust_creative=-uBzzloii2ivvF3N0jkhKQ&utm_campaign=yelp_api_v3&utm_medium=api_v3_business_search&utm_source=-uBzzloii2ivvF3N0jkhKQ,l8um5IoiMqV5RGgtFGwOkA
87,Tanner Smiths,Cocktail Bars,4.5,$$,204 W 55th St,40.76442,-73.98169,https://www.yelp.com/biz/tanner-smiths-new-york-2?adjust_creative=-uBzzloii2ivvF3N0jkhKQ&utm_campaign=yelp_api_v3&utm_medium=api_v3_business_search&utm_source=-uBzzloii2ivvF3N0jkhKQ,z5hRX3iJ5Ty_S38iG_WY3Q
88,Oscar Wilde,Cocktail Bars,4.0,$$,45 W 27th St,40.74514,-73.9900399,https://www.yelp.com/biz/oscar-wilde-new-york-2?adjust_creative=-uBzzloii2ivvF3N0jkhKQ&utm_campaign=yelp_api_v3&utm_medium=api_v3_business_search&utm_source=-uBzzloii2ivvF3N0jkhKQ,vGS5X12NYXCl8NpynlxRuw
89,W XYZ Bar,Cocktail Bars,4.5,$$,216 Duffield St,40.6913942,-73.9844709,https://www.yelp.com/biz/w-xyz-bar-brooklyn-2?adjust_creative=-uBzzloii2ivvF3N0jkhKQ&utm_campaign=yelp_api_v3&utm_medium=api_v3_business_search&utm_source=-uBzzloii2ivvF3N0jkhKQ,-JFi2vYrS-CqL44o3fsf1A
90,Dutch Freds,Cocktail Bars,4.5,$$,307 W 47th St,40.760835,-73.987823,https://www.yelp.com/biz/dutch-freds-new-york-2?adjust_creative=-uBzzloii2ivvF3N0jkhKQ&utm_campaign=yelp_api_v3&utm_medium=api_v3_business_search&utm_source=-uBzzloii2ivvF3N0jkhKQ,SaYTVG7wHCMDBofHCgXPaA
91,Pink Metal,Cocktail Bars,,,253 Bushwick Ave,40.707266,-73.9395446,,
92,Blue Quarter,Cocktail Bars,4.5,$$,92 2nd Ave,40.72697,-73.98863,https://www.yelp.com/biz/blue-quarter-new-york?adjust_creative=-uBzzloii2ivvF3N0jkhKQ&utm_campaign=yelp_api_v3&utm_medium=api_v3_business_search&utm_source=-uBzzloii2ivvF3N0jkhKQ,Gxvx-U8i5zja38WKUaiuqA
93,Jackdaw,Cocktail Bars,4.5,$$,213 2nd Ave,40.73183,-73.98557,https://www.yelp.com/biz/jackdaw-new-york-2?adjust_creative=-uBzzloii2ivvF3N0jkhKQ&utm_campaign=yelp_api_v3&utm_medium=api_v3_business_search&utm_source=-uBzzloii2ivvF3N0jkhKQ,-9MLyUR2SyI2zXBBvksj3A
94,Goodnight Sonny,Cocktail Bars,4.0,$$,134 1st Ave,40.72768,-73.98502,https://www.yelp.com/biz/goodnight-sonny-new-york-3?adjust_creative=-uBzzloii2ivvF3N0jkhKQ&utm_campaign=yelp_api_v3&utm_medium=api_v3_business_search&utm_source=-uBzzloii2ivvF3N0jkhKQ,nGyffNA23K4sO08rKB2E5g
95,Super Power,Cocktail Bars,4.5,$$,722 Nostrand Ave,40.6739268745309,-73.9503274715026,https://www.yelp.com/biz/super-power-brooklyn?adjust_creative=-uBzzloii2ivvF3N0jkhKQ&utm_campaign=yelp_api_v3&utm_medium=api_v3_business_search&utm_source=-uBzzloii2ivvF3N0jkhKQ,iBv3jR8lxH2e9dV42Sca0g
96,Bar Donna,Cocktail Bars,,,365 1st Ave,40.735967,-73.979625,,
97,The Up & Up,Cocktail Bars,4.0,$$,116 MacDougal St,40.7295104447158,-74.0006693438721,https://www.yelp.com/biz/the-up-and-up-new-york-2?adjust_creative=-uBzzloii2ivvF3N0jkhKQ&utm_campaign=yelp_api_v3&utm_medium=api_v3_business_search&utm_source=-uBzzloii2ivvF3N0jkhKQ,zWrZBXj5F2V_0UknnTfqbw
98,The Long Island Bar,Cocktail Bars,4.0,$$,110 Atlantic Ave,40.6906586,-73.9964447,https://www.yelp.com/biz/the-long-island-bar-new-york?adjust_creative=-uBzzloii2ivvF3N0jkhKQ&utm_campaign=yelp_api_v3&utm_medium=api_v3_business_search&utm_source=-uBzzloii2ivvF3N0jkhKQ,6ZIGSGKlc16hR9JUGTYjNA
99,Ophelia,Cocktail Bars,4.0,$$$,3 Mitchell Pl,40.75319,-73.96598,https://www.yelp.com/biz/ophelia-new-york?adjust_creative=-uBzzloii2ivvF3N0jkhKQ&utm_campaign=yelp_api_v3&utm_medium=api_v3_business_search&utm_source=-uBzzloii2ivvF3N0jkhKQ,fmG6BTunLXI2cN61NuLHiw
100,Elsa,Cocktail Bars,4.5,$$,136 Atlantic Ave,40.69035,-73.99531,https://www.yelp.com/biz/elsa-brooklyn?adjust_creative=-uBzzloii2ivvF3N0jkhKQ&utm_campaign=yelp_api_v3&utm_medium=api_v3_business_search&utm_source=-uBzzloii2ivvF3N0jkhKQ,PcF_ebeELn7mg6vqVnHjIg
101,Endswell Bar & Bistro,Cocktail Bars,4.5,$$,773 Fulton St,40.68618,-73.97377,https://www.yelp.com/biz/endswell-bar-and-bistro-brooklyn?adjust_creative=-uBzzloii2ivvF3N0jkhKQ&utm_campaign=yelp_api_v3&utm_medium=api_v3_business_search&utm_source=-uBzzloii2ivvF3N0jkhKQ,PszZvrDqzgPpl6SQuk3K9Q
102,Amor y Amargo,Cocktail Bars,4.0,$$,443 E 6th St,40.72572,-73.98428,https://www.yelp.com/biz/amor-y-amargo-new-york?adjust_creative=-uBzzloii2ivvF3N0jkhKQ&utm_campaign=yelp_api_v3&utm_medium=api_v3_business_search&utm_source=-uBzzloii2ivvF3N0jkhKQ,6qnWAPjJ7UER4QLCtotyBw
103,The NoMad Bar,Cocktail Bars,4.5,$$$,10 W 28th St,40.7449365409844,-73.9885197632294,https://www.yelp.com/biz/the-nomad-bar-new-york-2?adjust_creative=-uBzzloii2ivvF3N0jkhKQ&utm_campaign=yelp_api_v3&utm_medium=api_v3_business_search&utm_source=-uBzzloii2ivvF3N0jkhKQ,NMDrXW5_qnme1hcJrXNP9Q
104,The Happiest Hour,Cocktail Bars,3.5,$$,121 W 10th St,40.734883,-73.999742,https://www.yelp.com/biz/the-happiest-hour-new-york?adjust_creative=-uBzzloii2ivvF3N0jkhKQ&utm_campaign=yelp_api_v3&utm_medium=api_v3_business_search&utm_source=-uBzzloii2ivvF3N0jkhKQ,huOYFLpe3EQKFeDVoxk6Hw
105,Straylight,Cocktail Bars,4.5,$$$,32 Mulberry St,40.71461,-73.99939,https://www.yelp.com/biz/straylight-new-york?adjust_creative=-uBzzloii2ivvF3N0jkhKQ&utm_campaign=yelp_api_v3&utm_medium=api_v3_business_search&utm_source=-uBzzloii2ivvF3N0jkhKQ,PcwfZzwdQx-hO5pEQyjSXA
106,Mace,Cocktail Bars,4.5,$$,35 W 8th St,40.733138,-73.998044,https://www.yelp.com/biz/mace-new-york-5?adjust_creative=-uBzzloii2ivvF3N0jkhKQ&utm_campaign=yelp_api_v3&utm_medium=api_v3_business_search&utm_source=-uBzzloii2ivvF3N0jkhKQ,WaUuOzaY7WnmBer2nTLPUQ
107,grand republic cocktail club,Cocktail Bars,4.5,$$,19 Greenpoint Ave,40.7297031651375,-73.9598640528719,https://www.yelp.com/biz/grand-republic-cocktail-club-brooklyn-2?adjust_creative=-uBzzloii2ivvF3N0jkhKQ&utm_campaign=yelp_api_v3&utm_medium=api_v3_business_search&utm_source=-uBzzloii2ivvF3N0jkhKQ,RBwPxrKQESBdXuWELAD-YA
108,The Wayland,Cocktail Bars,4.5,$$,700 E 9th St,40.7251,-73.9778,https://www.yelp.com/biz/the-wayland-new-york?adjust_creative=-uBzzloii2ivvF3N0jkhKQ&utm_campaign=yelp_api_v3&utm_medium=api_v3_business_search&utm_source=-uBzzloii2ivvF3N0jkhKQ,j8cKSxr6aQ8qTx23FLyyiA
109,Dante,Cocktail Bars,4.0,$$,79-81 Macdougal St,40.72879,-74.00165,https://www.yelp.com/biz/dante-new-york?adjust_creative=-uBzzloii2ivvF3N0jkhKQ&utm_campaign=yelp_api_v3&utm_medium=api_v3_business_search&utm_source=-uBzzloii2ivvF3N0jkhKQ,bW3mY-voyav37nU0uaLmNQ
110,Jungle Bird,Cocktail Bars,4.0,$$,174 8th Ave,40.74262,-74.00021,https://www.yelp.com/biz/jungle-bird-new-york-3?adjust_creative=-uBzzloii2ivvF3N0jkhKQ&utm_campaign=yelp_api_v3&utm_medium=api_v3_business_search&utm_source=-uBzzloii2ivvF3N0jkhKQ,EDOUZDqwvD4UzOy0doER0g
111,Happy Be,Cocktail Bars,,,26 Cortlandt Aly,40.7182107,-74.0021064,,
112,Velvet Brooklyn,Cocktail Bars,4.5,$$,174 Broadway,40.7100847891067,-73.9625787734985,https://www.yelp.com/biz/velvet-brooklyn-brooklyn-2?adjust_creative=-uBzzloii2ivvF3N0jkhKQ&utm_campaign=yelp_api_v3&utm_medium=api_v3_business_search&utm_source=-uBzzloii2ivvF3N0jkhKQ,_l40VhhS3pNm55yZTLgLuw
113,Bohemien Bar,Cocktail Bars,4.5,$$,97 Atlantic Ave,40.691171,-73.99704,https://www.yelp.com/biz/bohemien-bar-brooklyn?adjust_creative=-uBzzloii2ivvF3N0jkhKQ&utm_campaign=yelp_api_v3&utm_medium=api_v3_business_search&utm_source=-uBzzloii2ivvF3N0jkhKQ,KenUip4W38fN4Ua9WxsohA
114,Jupiter Disco,Cocktail Bars,4.0,$$,1237 Flushing Ave,40.70814,-73.92352,https://www.yelp.com/biz/jupiter-disco-brooklyn?adjust_creative=-uBzzloii2ivvF3N0jkhKQ&utm_campaign=yelp_api_v3&utm_medium=api_v3_business_search&utm_source=-uBzzloii2ivvF3N0jkhKQ,BPLhZ4FildfaCiKLNd0dsA
115,Porchlight,Cocktail Bars,3.5,$$,271 11th Ave,40.7518044,-74.0050735,https://www.yelp.com/biz/porchlight-new-york?adjust_creative=-uBzzloii2ivvF3N0jkhKQ&utm_campaign=yelp_api_v3&utm_medium=api_v3_business_search&utm_source=-uBzzloii2ivvF3N0jkhKQ,WqfWUXT66Q6SaoT9x2adzw
116,Subject,Cocktail Bars,4.5,$$,188 Suffolk St,40.72147,-73.9847,https://www.yelp.com/biz/subject-new-york-4?adjust_creative=-uBzzloii2ivvF3N0jkhKQ&utm_campaign=yelp_api_v3&utm_medium=api_v3_business_search&utm_source=-uBzzloii2ivvF3N0jkhKQ,q4oqvj0o8DQIDiOICjBraQ
117,Ampersand,Cocktail Bars,4.5,$$,294 3rd Ave,40.7386178790617,-73.9834206895483,https://www.yelp.com/biz/ampersand-new-york-2?adjust_creative=-uBzzloii2ivvF3N0jkhKQ&utm_campaign=yelp_api_v3&utm_medium=api_v3_business_search&utm_source=-uBzzloii2ivvF3N0jkhKQ,ePqKbqXFBCbwBaWiN2Jo9w
118,V,Cocktail Bars,,,281 Park Ave S,40.739248,-73.9867219,,
119,CloudM Rooftop Bar,Cocktail Bars,,,218 W 50th St,40.76168,-73.98488,,
120,Pilot,Cocktail Bars,4.0,$$$,Pier 6 Brooklyn Bridge Park,40.696432423661,-73.9890010861378,https://www.yelp.com/biz/pilot-brooklyn?adjust_creative=-uBzzloii2ivvF3N0jkhKQ&utm_campaign=yelp_api_v3&utm_medium=api_v3_business_search&utm_source=-uBzzloii2ivvF3N0jkhKQ,zyxI5ko5Dpkqi9q5oSGa9w
121,Angel's Share,Cocktail Bars,4.5,$$,8 Stuyvesant St,40.7297097529882,-73.9891492245369,https://www.yelp.com/biz/angels-share-new-york?adjust_creative=-uBzzloii2ivvF3N0jkhKQ&utm_campaign=yelp_api_v3&utm_medium=api_v3_business_search&utm_source=-uBzzloii2ivvF3N0jkhKQ,ZD22cMZvSmfNsXS9vKizGA
122,The Dead Rabbit,Cocktail Bars,4.0,$$,30 Water St,40.70329,-74.01102,https://www.yelp.com/biz/the-dead-rabbit-new-york?adjust_creative=-uBzzloii2ivvF3N0jkhKQ&utm_campaign=yelp_api_v3&utm_medium=api_v3_business_search&utm_source=-uBzzloii2ivvF3N0jkhKQ,RemvTpxalDjSew5HwmNzUQ
123,Pineapple Club,Cocktail Bars,4.5,$$,509 E 6th St,40.72529189450972,-73.98324323292351,https://www.yelp.com/biz/pineapple-club-new-york?adjust_creative=-uBzzloii2ivvF3N0jkhKQ&utm_campaign=yelp_api_v3&utm_medium=api_v3_business_search&utm_source=-uBzzloii2ivvF3N0jkhKQ,wTQYOTh9_JPI2I8s6Xc-Cw
124,The Tyger,Cocktail Bars,,,1 Howard St,40.71888,-73.99951,,
125,Congress Bar,Cocktail Bars,4.0,$$,208 Court St,40.68694,-73.99383,https://www.yelp.com/biz/congress-bar-brooklyn?adjust_creative=-uBzzloii2ivvF3N0jkhKQ&utm_campaign=yelp_api_v3&utm_medium=api_v3_business_search&utm_source=-uBzzloii2ivvF3N0jkhKQ,dYyd66STjtwdO9_02SgLDg
126,The Cabinet,Cocktail Bars,5.0,$$,649 East 9th St,40.72546,-73.97816,https://www.yelp.com/biz/the-cabinet-new-york-2?adjust_creative=-uBzzloii2ivvF3N0jkhKQ&utm_campaign=yelp_api_v3&utm_medium=api_v3_business_search&utm_source=-uBzzloii2ivvF3N0jkhKQ,vyRQGK3qABg1HSWNpMbmtg
127,Attaboy,Cocktail Bars,4.0,$$,134 Eldridge St,40.71887,-73.99134,https://www.yelp.com/biz/attaboy-new-york?adjust_creative=-uBzzloii2ivvF3N0jkhKQ&utm_campaign=yelp_api_v3&utm_medium=api_v3_business_search&utm_source=-uBzzloii2ivvF3N0jkhKQ,H7S7-vF2z_HfaLo6BGPetw
128,Thyme Bar,Cocktail Bars,,,20 W 23rd St Cellar,40.741672,-73.990594,,
129,Fresh Kills Bar,Cocktail Bars,4.5,$$,161 Grand St,40.7147999,-73.96151,https://www.yelp.com/biz/fresh-kills-bar-brooklyn?adjust_creative=-uBzzloii2ivvF3N0jkhKQ&utm_campaign=yelp_api_v3&utm_medium=api_v3_business_search&utm_source=-uBzzloii2ivvF3N0jkhKQ,d6mslo1LlpkNPgb2HWOlEg
130,We Got Company,Cocktail Bars,,,441 Metropolitan Ave,40.7142,-73.95389,,
131,Peachy's,Cocktail Bars,,,5 Doyers St,40.71433,-73.99804,,
132,Pokito,Cocktail Bars,4.5,$$,155 S 4th St,40.71162,-73.96184,https://www.yelp.com/biz/pokito-brooklyn-2?adjust_creative=-uBzzloii2ivvF3N0jkhKQ&utm_campaign=yelp_api_v3&utm_medium=api_v3_business_search&utm_source=-uBzzloii2ivvF3N0jkhKQ,iJUoxnxbCtVDMek4keHJFQ
133,Vineapple Cafe,Coffee & Tea,4.5,$$,71 Pineapple St,40.698296727787,-73.99307556416,https://www.yelp.com/biz/vineapple-cafe-brooklyn?adjust_creative=-uBzzloii2ivvF3N0jkhKQ&utm_campaign=yelp_api_v3&utm_medium=api_v3_business_search&utm_source=-uBzzloii2ivvF3N0jkhKQ,xxiV3-0t_gO1Ojo3xo73TQ
134,Penthouse Lounge Bar,Comedy Clubs,,,2027 Emmons Ave,40.583995,-73.94697,,
135,The Little Shop,Convenience Stores,,,252 Front St,40.708333,-74.000908,,
136,Barrow’s Intense Tasting Room,Distilleries,4.5,$$,86 34th St,40.6568712,-74.0060622,https://www.yelp.com/biz/barrow-s-intense-tasting-room-brooklyn-2?adjust_creative=-uBzzloii2ivvF3N0jkhKQ&utm_campaign=yelp_api_v3&utm_medium=api_v3_business_search&utm_source=-uBzzloii2ivvF3N0jkhKQ,46gT-bvsj5sXDMLAAcybzQ
137,Boobie Trap,Dive Bars,4.0,$,308 Bleecker St,40.7001991,-73.9160156,https://www.yelp.com/biz/boobie-trap-brooklyn?adjust_creative=-uBzzloii2ivvF3N0jkhKQ&utm_campaign=yelp_api_v3&utm_medium=api_v3_business_search&utm_source=-uBzzloii2ivvF3N0jkhKQ,SBkebBPuX2mRUQ9VaQ91NQ
138,Dolly's Swing & Dive,Dive Bars,,,101 Kent Ave,40.72073,-73.96111,,
139,The Library,Dive Bars,3.5,$,7 Ave A,40.7226142883301,-73.9863433837891,https://www.yelp.com/biz/the-library-new-york?adjust_creative=-uBzzloii2ivvF3N0jkhKQ&utm_campaign=yelp_api_v3&utm_medium=api_v3_business_search&utm_source=-uBzzloii2ivvF3N0jkhKQ,H8mnryiCI02N00g9vuFDLg
140,Strangelove,Dive Bars,4.5,$,229 E 53rd St,40.7574,-73.96809,https://www.yelp.com/biz/strangelove-new-york?adjust_creative=-uBzzloii2ivvF3N0jkhKQ&utm_campaign=yelp_api_v3&utm_medium=api_v3_business_search&utm_source=-uBzzloii2ivvF3N0jkhKQ,pf5JBOPUBHbY6F4s15lk6g
141,Santiago's Beer Garden,Dominican,4.5,$$,2337 1st Ave,40.79849,-73.93382,https://www.yelp.com/biz/santiagos-beer-garden-new-york?adjust_creative=-uBzzloii2ivvF3N0jkhKQ&utm_campaign=yelp_api_v3&utm_medium=api_v3_business_search&utm_source=-uBzzloii2ivvF3N0jkhKQ,MtcgW0RCTm44PuA-HAq49g
142,La Grande Boucherie,French,4.5,$$$,145 W 53rd St,40.7626274,-73.98084109999999,https://www.yelp.com/biz/la-grande-boucherie-new-york-2?adjust_creative=-uBzzloii2ivvF3N0jkhKQ&utm_campaign=yelp_api_v3&utm_medium=api_v3_business_search&utm_source=-uBzzloii2ivvF3N0jkhKQ,DGhWO1sUWydVeR5j5ZZaMw
143,The Penrose,Gastropubs,4.0,$$,1590 2nd Ave,40.775427,-73.953115,https://www.yelp.com/biz/the-penrose-new-york?adjust_creative=-uBzzloii2ivvF3N0jkhKQ&utm_campaign=yelp_api_v3&utm_medium=api_v3_business_search&utm_source=-uBzzloii2ivvF3N0jkhKQ,mWS4umRg2AyykyAClMrIRw
144,The Alcove,Gastropubs,5.0,$$,41-11 49th St,40.7459065,-73.915103,https://www.yelp.com/biz/the-alcove-sunnyside?adjust_creative=-uBzzloii2ivvF3N0jkhKQ&utm_campaign=yelp_api_v3&utm_medium=api_v3_business_search&utm_source=-uBzzloii2ivvF3N0jkhKQ,MNNpsRXe7Wt5m3Jla9Wk0w
145,The Warren,Gastropubs,4.0,$$,131 Christopher St,40.7331,-74.0067,https://www.yelp.com/biz/the-warren-new-york?adjust_creative=-uBzzloii2ivvF3N0jkhKQ&utm_campaign=yelp_api_v3&utm_medium=api_v3_business_search&utm_source=-uBzzloii2ivvF3N0jkhKQ,4LoroCI3VtQ17dyQa75-Rg
146,Lavender Lake,Gastropubs,3.5,$$,383 Carroll St,40.6786075,-73.9901923,https://www.yelp.com/biz/lavender-lake-brooklyn?adjust_creative=-uBzzloii2ivvF3N0jkhKQ&utm_campaign=yelp_api_v3&utm_medium=api_v3_business_search&utm_source=-uBzzloii2ivvF3N0jkhKQ,28q-EaDlKgYNeaF7-LXXqg
147,The Headless Widow,Gastropubs,,,99 1st Ave,40.72658,-73.9863,,
148,Itaewon Pocha,Gastropubs,4.5,$$,28 W 32nd St,40.7475125111924,-73.9867554408843,https://www.yelp.com/biz/itaewon-pocha-new-york?adjust_creative=-uBzzloii2ivvF3N0jkhKQ&utm_campaign=yelp_api_v3&utm_medium=api_v3_business_search&utm_source=-uBzzloii2ivvF3N0jkhKQ,LSTcQPMmoSdd68zur-aNdw
149,Bar B,Italian,4.5,$$,84 7th Ave,40.7395804,-73.999118,https://www.yelp.com/biz/bar-b-new-york?adjust_creative=-uBzzloii2ivvF3N0jkhKQ&utm_campaign=yelp_api_v3&utm_medium=api_v3_business_search&utm_source=-uBzzloii2ivvF3N0jkhKQ,5MpWHGQ6Qc-M4q1KL_nioA
150,AlMar,Italian,4.0,$$,111 Front St,40.702662,-73.989177,https://www.yelp.com/biz/almar-brooklyn-2?adjust_creative=-uBzzloii2ivvF3N0jkhKQ&utm_campaign=yelp_api_v3&utm_medium=api_v3_business_search&utm_source=-uBzzloii2ivvF3N0jkhKQ,nHMDOIX32dGbfpuNUwsLNQ
151,Maiden Korea,Korean,,,316 5th Ave,40.74712996071734,-73.98573998361826,,
152,The Maze,Korean,4.0,$$,32 W 32nd St,40.747846,-73.9872499,https://www.yelp.com/biz/the-maze-new-york-3?adjust_creative=-uBzzloii2ivvF3N0jkhKQ&utm_campaign=yelp_api_v3&utm_medium=api_v3_business_search&utm_source=-uBzzloii2ivvF3N0jkhKQ,iPc-zPgcpgeSo76xl5Jbpw
153,Soju Haus,Korean,4.0,$$,315 5th Ave,40.7468603,-73.9851724,https://www.yelp.com/biz/soju-haus-new-york?adjust_creative=-uBzzloii2ivvF3N0jkhKQ&utm_campaign=yelp_api_v3&utm_medium=api_v3_business_search&utm_source=-uBzzloii2ivvF3N0jkhKQ,wfGFM8zvdw9Zs-jxsTdjww
154,Leyenda,Latin American,4.0,$$,221 Smith St,40.68431,-73.99197,https://www.yelp.com/biz/leyenda-brooklyn?adjust_creative=-uBzzloii2ivvF3N0jkhKQ&utm_campaign=yelp_api_v3&utm_medium=api_v3_business_search&utm_source=-uBzzloii2ivvF3N0jkhKQ,uVfOB37NyYEGRs5FITM-nQ
155,Castell Rooftop Lounge,Lounges,4.0,$$$,260 W 40th St,40.75558,-73.99012,https://www.yelp.com/biz/castell-rooftop-lounge-new-york?adjust_creative=-uBzzloii2ivvF3N0jkhKQ&utm_campaign=yelp_api_v3&utm_medium=api_v3_business_search&utm_source=-uBzzloii2ivvF3N0jkhKQ,qLYloGaI-4OmLbNnr_wrGA
156,VAULT Manhattan,Lounges,,,410 W 16th St,40.7423311,-74.0049025,,
157,Cibar,Lounges,4.0,$$$,56 Irving Pl,40.73596,-73.98696,https://www.yelp.com/biz/cibar-new-york?adjust_creative=-uBzzloii2ivvF3N0jkhKQ&utm_campaign=yelp_api_v3&utm_medium=api_v3_business_search&utm_source=-uBzzloii2ivvF3N0jkhKQ,AlZYxW1hQ3S2sGbtNjo64w
158,Keybar,Lounges,4.0,$,432 E 13th St,40.7299112,-73.981883,https://www.yelp.com/biz/keybar-new-york?adjust_creative=-uBzzloii2ivvF3N0jkhKQ&utm_campaign=yelp_api_v3&utm_medium=api_v3_business_search&utm_source=-uBzzloii2ivvF3N0jkhKQ,iIixO6VbKitogJGBRIalYA
159,Apotheke,Lounges,4.0,$$$,9 Doyers St,40.71434,-73.99822,https://www.yelp.com/biz/apotheke-new-york-4?adjust_creative=-uBzzloii2ivvF3N0jkhKQ&utm_campaign=yelp_api_v3&utm_medium=api_v3_business_search&utm_source=-uBzzloii2ivvF3N0jkhKQ,P3NfoMjBy_o2BTNNZ-5okg
160,Harriet's Rooftop,Lounges,3.0,$$$,60 Furman St,40.70184,-73.9958147,https://www.yelp.com/biz/harriets-rooftop-brooklyn-2?adjust_creative=-uBzzloii2ivvF3N0jkhKQ&utm_campaign=yelp_api_v3&utm_medium=api_v3_business_search&utm_source=-uBzzloii2ivvF3N0jkhKQ,9sU8ceKHiqNrLBMRM-aUkg
161,Spare Lounge Bar & Social,Lounges,,,550 9th Ave,40.75727,-73.9932752,,
162,Raines Law Room,Lounges,4.5,$$$,48 W 17th St,40.73879,-73.99455,https://www.yelp.com/biz/raines-law-room-new-york?adjust_creative=-uBzzloii2ivvF3N0jkhKQ&utm_campaign=yelp_api_v3&utm_medium=api_v3_business_search&utm_source=-uBzzloii2ivvF3N0jkhKQ,J4pAppaiXwCkbLOGc4wHww
163,Little Branch,Lounges,4.0,$$$,22 7th Ave S,40.73013,-74.005046,https://www.yelp.com/biz/little-branch-new-york?adjust_creative=-uBzzloii2ivvF3N0jkhKQ&utm_campaign=yelp_api_v3&utm_medium=api_v3_business_search&utm_source=-uBzzloii2ivvF3N0jkhKQ,a8CdwY4uFIP4nXkl4V5EEg
164,MOON BAR Rooftop,Lounges,,,137-72 Northern Blvd,40.7635,-73.82844,,
165,Please Don't Tell,Lounges,4.0,$$$,113 St Marks Pl,40.727157,-73.983721,https://www.yelp.com/biz/please-dont-tell-new-york-2?adjust_creative=-uBzzloii2ivvF3N0jkhKQ&utm_campaign=yelp_api_v3&utm_medium=api_v3_business_search&utm_source=-uBzzloii2ivvF3N0jkhKQ,aiRctIzCj9J3UqBHd-Z3HQ
166,Refinery Rooftop,Lounges,3.5,$$$,63 W 38th St,40.7522605288633,-73.9853609711639,https://www.yelp.com/biz/refinery-rooftop-new-york?adjust_creative=-uBzzloii2ivvF3N0jkhKQ&utm_campaign=yelp_api_v3&utm_medium=api_v3_business_search&utm_source=-uBzzloii2ivvF3N0jkhKQ,wEb_fHmbMuzT1of_E9LT2g
167,The Flatiron Room,Lounges,4.5,$$$,37 W 26th St,40.74452,-73.99049,https://www.yelp.com/biz/the-flatiron-room-new-york-3?adjust_creative=-uBzzloii2ivvF3N0jkhKQ&utm_campaign=yelp_api_v3&utm_medium=api_v3_business_search&utm_source=-uBzzloii2ivvF3N0jkhKQ,3Ic4C60oSH1cV2jknUXSjQ
168,Anotheroom,Lounges,4.0,$$,249 W Broadway,40.719807787837276,-74.00539277019567,https://www.yelp.com/biz/anotheroom-new-york?adjust_creative=-uBzzloii2ivvF3N0jkhKQ&utm_campaign=yelp_api_v3&utm_medium=api_v3_business_search&utm_source=-uBzzloii2ivvF3N0jkhKQ,JnT3w2BDpaQpbBP76pyYew
169,The Press Lounge,Lounges,4.0,$$$,653 11th Ave,40.76452,-73.99586,https://www.yelp.com/biz/the-press-lounge-new-york-3?adjust_creative=-uBzzloii2ivvF3N0jkhKQ&utm_campaign=yelp_api_v3&utm_medium=api_v3_business_search&utm_source=-uBzzloii2ivvF3N0jkhKQ,nCH7SR7qXu0asO1GU3iqHw
170,Loopy Doopy Rooftop Bar,Lounges,3.5,$$$,102 N End Ave,40.715,-74.0158,https://www.yelp.com/biz/loopy-doopy-rooftop-bar-new-york?adjust_creative=-uBzzloii2ivvF3N0jkhKQ&utm_campaign=yelp_api_v3&utm_medium=api_v3_business_search&utm_source=-uBzzloii2ivvF3N0jkhKQ,2hHlAxt4gsfMUkG48pXXKw
171,The Upstairs at 66,Lounges,5.0,$$,46 Stone St,40.70418,-74.01048,https://www.yelp.com/biz/the-upstairs-at-66-new-york?adjust_creative=-uBzzloii2ivvF3N0jkhKQ&utm_campaign=yelp_api_v3&utm_medium=api_v3_business_search&utm_source=-uBzzloii2ivvF3N0jkhKQ,X0f9UYHoE4OxnuUq801vMg
172,Watermark,Lounges,3.5,$$,"Pier 15, 78 S St",40.7043789539783,-74.0029934983643,https://www.yelp.com/biz/watermark-new-york?adjust_creative=-uBzzloii2ivvF3N0jkhKQ&utm_campaign=yelp_api_v3&utm_medium=api_v3_business_search&utm_source=-uBzzloii2ivvF3N0jkhKQ,jEEb_EKKD2lx2mvTly_U6Q
173,Death & Co,Lounges,4.0,$$$,433 E 6th St,40.72589,-73.9847,https://www.yelp.com/biz/death-and-co-new-york-3?adjust_creative=-uBzzloii2ivvF3N0jkhKQ&utm_campaign=yelp_api_v3&utm_medium=api_v3_business_search&utm_source=-uBzzloii2ivvF3N0jkhKQ,H1QphdrrsaB472y9HXi2Ow
174,Cantina Rooftop,Lounges,3.0,$$,605 W 48th St,40.765101,-73.996046,https://www.yelp.com/biz/cantina-rooftop-new-york-6?adjust_creative=-uBzzloii2ivvF3N0jkhKQ&utm_campaign=yelp_api_v3&utm_medium=api_v3_business_search&utm_source=-uBzzloii2ivvF3N0jkhKQ,sul_ihulQ5VUPNbk9liWqA
175,Rooftop 93,Lounges,4.0,$$,93 Bowery,40.71705,-73.99522,https://www.yelp.com/biz/rooftop-93-new-york-5?adjust_creative=-uBzzloii2ivvF3N0jkhKQ&utm_campaign=yelp_api_v3&utm_medium=api_v3_business_search&utm_source=-uBzzloii2ivvF3N0jkhKQ,511OTzlr0FkL4esfBxMzIw
176,The Emerson,Lounges,4.0,$$,561 Myrtle Ave,40.69414,-73.961817,https://www.yelp.com/biz/the-emerson-brooklyn?adjust_creative=-uBzzloii2ivvF3N0jkhKQ&utm_campaign=yelp_api_v3&utm_medium=api_v3_business_search&utm_source=-uBzzloii2ivvF3N0jkhKQ,xGDGHg7G0Z6xvUo4xVXXVQ
177,The Otheroom,Lounges,4.0,$$,143 Perry St,40.734966,-74.008028,https://www.yelp.com/biz/the-otheroom-new-york-2?adjust_creative=-uBzzloii2ivvF3N0jkhKQ&utm_campaign=yelp_api_v3&utm_medium=api_v3_business_search&utm_source=-uBzzloii2ivvF3N0jkhKQ,aOdbXPdCPrckxo_it5xwSA
178,Lovers of Today,Lounges,4.0,$$,132 1/2 E 7th St,40.7258338928223,-73.9833755493164,https://www.yelp.com/biz/lovers-of-today-new-york?adjust_creative=-uBzzloii2ivvF3N0jkhKQ&utm_campaign=yelp_api_v3&utm_medium=api_v3_business_search&utm_source=-uBzzloii2ivvF3N0jkhKQ,_MjMpJ6fVQZbbTOZf8T2XA
179,Celestine,Mediterranean,4.0,$$$,1 John St,40.704676,-73.987975,https://www.yelp.com/biz/celestine-brooklyn?adjust_creative=-uBzzloii2ivvF3N0jkhKQ&utm_campaign=yelp_api_v3&utm_medium=api_v3_business_search&utm_source=-uBzzloii2ivvF3N0jkhKQ,4aF0F8w7yXX9o5_QFky_ig
180,Gran Electrica,Mexican,3.5,$$,5 Front St,40.7027,-73.99314,https://www.yelp.com/biz/gran-electrica-brooklyn-3?adjust_creative=-uBzzloii2ivvF3N0jkhKQ&utm_campaign=yelp_api_v3&utm_medium=api_v3_business_search&utm_source=-uBzzloii2ivvF3N0jkhKQ,f7g3GhoQs9nQVTJEL2p48Q
181,Sour Mouse,Pool Halls,4.5,$$,110 Delancey St,40.7188783,-73.988375,https://www.yelp.com/biz/sour-mouse-new-york?adjust_creative=-uBzzloii2ivvF3N0jkhKQ&utm_campaign=yelp_api_v3&utm_medium=api_v3_business_search&utm_source=-uBzzloii2ivvF3N0jkhKQ,3GO3jhLmY8E3qsvwOaHrKg
182,Moot Bar,Pubs,4.5,$,579 Myrtle Ave,40.6941986,-73.9609604,https://www.yelp.com/biz/moot-bar-brooklyn-2?adjust_creative=-uBzzloii2ivvF3N0jkhKQ&utm_campaign=yelp_api_v3&utm_medium=api_v3_business_search&utm_source=-uBzzloii2ivvF3N0jkhKQ,TE87BLxClCcIg62i0xVgMg
183,Cobble Fish,Seafood,,,89 South St,40.70530194592761,-74.00257774322735,,
184,Drift In,Seafood,,,389 W St,40.7329109,-74.0106435,,
185,Bathtub Gin,Speakeasies,3.5,$$,132 9th Ave,40.74364,-74.00319,https://www.yelp.com/biz/bathtub-gin-new-york?adjust_creative=-uBzzloii2ivvF3N0jkhKQ&utm_campaign=yelp_api_v3&utm_medium=api_v3_business_search&utm_source=-uBzzloii2ivvF3N0jkhKQ,89XYJZSPKt-dqjE1zyTIzQ
186,The Lingerie Shoppe aka Astoria’s Secret,Speakeasies,4.5,$$,28-53 Steinway St,40.76406,-73.9145,https://www.yelp.com/biz/the-lingerie-shoppe-aka-astoria-s-secret-astoria?adjust_creative=-uBzzloii2ivvF3N0jkhKQ&utm_campaign=yelp_api_v3&utm_medium=api_v3_business_search&utm_source=-uBzzloii2ivvF3N0jkhKQ,TI5dWiHdFn55WQDmvffu0Q
187,Patent Pending,Speakeasies,4.0,$$$,49 W 27th St,40.74526,-73.99032,https://www.yelp.com/biz/patent-pending-new-york-2?adjust_creative=-uBzzloii2ivvF3N0jkhKQ&utm_campaign=yelp_api_v3&utm_medium=api_v3_business_search&utm_source=-uBzzloii2ivvF3N0jkhKQ,VBjYIelQBlCK889IBVrWzQ
188,The Three Monkeys,Sports Bars,4.0,$$,236 W 54th St,40.764164,-73.98306,https://www.yelp.com/biz/the-three-monkeys-new-york-3?adjust_creative=-uBzzloii2ivvF3N0jkhKQ&utm_campaign=yelp_api_v3&utm_medium=api_v3_business_search&utm_source=-uBzzloii2ivvF3N0jkhKQ,IBgjj5VBu5JJvKgo9EzKrg
189,District Local,Tapas/Small Plates,4.5,$$,72 7th Ave,40.73917,-73.99946,https://www.yelp.com/biz/district-local-new-york-2?adjust_creative=-uBzzloii2ivvF3N0jkhKQ&utm_campaign=yelp_api_v3&utm_medium=api_v3_business_search&utm_source=-uBzzloii2ivvF3N0jkhKQ,vyyJNMgVo5b3Lyex5GawHg
190,The Lost Lady,Tiki Bars,4.5,$$,171 Avenue C,40.72631,-73.97756,https://www.yelp.com/biz/the-lost-lady-new-york?adjust_creative=-uBzzloii2ivvF3N0jkhKQ&utm_campaign=yelp_api_v3&utm_medium=api_v3_business_search&utm_source=-uBzzloii2ivvF3N0jkhKQ,1m6pfntylp2UL67hRPCbiw
191,Flatbush Zombie House,Tiki Bars,4.0,$$,734 Flatbush Ave,40.6550392260637,-73.9600387215614,https://www.yelp.com/biz/flatbush-zombie-house-brooklyn?adjust_creative=-uBzzloii2ivvF3N0jkhKQ&utm_campaign=yelp_api_v3&utm_medium=api_v3_business_search&utm_source=-uBzzloii2ivvF3N0jkhKQ,ZNEFXERBvl7i_QQojRoKNQ
192,Zombie Hut,Tiki Bars,4.0,$,273 Smith St,40.6825715,-73.993164,https://www.yelp.com/biz/zombie-hut-brooklyn?adjust_creative=-uBzzloii2ivvF3N0jkhKQ&utm_campaign=yelp_api_v3&utm_medium=api_v3_business_search&utm_source=-uBzzloii2ivvF3N0jkhKQ,rRPuX18uiYLEUGdJ9xQBEQ
193,Panorama Room,Venues & Event Spaces,3.5,$$$,22 N Loop Rd,40.7562653,-73.9554546,https://www.yelp.com/biz/panorama-room-new-york?adjust_creative=-uBzzloii2ivvF3N0jkhKQ&utm_campaign=yelp_api_v3&utm_medium=api_v3_business_search&utm_source=-uBzzloii2ivvF3N0jkhKQ,PTWQs2DE0CJJiN8q9pxmLw
194,Mayflower,Venues & Event Spaces,4.0,$$,132 Greene Ave,40.68643,-73.96662,https://www.yelp.com/biz/mayflower-brooklyn-2?adjust_creative=-uBzzloii2ivvF3N0jkhKQ&utm_campaign=yelp_api_v3&utm_medium=api_v3_business_search&utm_source=-uBzzloii2ivvF3N0jkhKQ,X9m0Z_fNmW26MgIMqTa8Ng
195,Dear Irving,Venues & Event Spaces,4.0,$$$,55 Irving Pl,40.7360568971331,-73.9872401005554,https://www.yelp.com/biz/dear-irving-new-york?adjust_creative=-uBzzloii2ivvF3N0jkhKQ&utm_campaign=yelp_api_v3&utm_medium=api_v3_business_search&utm_source=-uBzzloii2ivvF3N0jkhKQ,-dQexkmhlgbiKvZ94jBmjQ
196,Whiskey Tavern,Whiskey Bars,4.5,$$,79 Baxter St,40.71646,-73.99969,https://www.yelp.com/biz/whiskey-tavern-new-york?adjust_creative=-uBzzloii2ivvF3N0jkhKQ&utm_campaign=yelp_api_v3&utm_medium=api_v3_business_search&utm_source=-uBzzloii2ivvF3N0jkhKQ,c3Ww3pgeHjBi3ctkeUWrjQ
197,The Tippler,Wine Bars,4.0,$$,425 W 15th St,40.7423540864346,-74.0063398693085,https://www.yelp.com/biz/the-tippler-new-york?adjust_creative=-uBzzloii2ivvF3N0jkhKQ&utm_campaign=yelp_api_v3&utm_medium=api_v3_business_search&utm_source=-uBzzloii2ivvF3N0jkhKQ,-egltOQhAdo1kWlPSJfmvA
198,142 Sullivan Bar ,Wine Bars,4.5,$$,142 Sullivan St,40.72712,-74.0022,https://www.yelp.com/biz/142-sullivan-bar-new-york-2?adjust_creative=-uBzzloii2ivvF3N0jkhKQ&utm_campaign=yelp_api_v3&utm_medium=api_v3_business_search&utm_source=-uBzzloii2ivvF3N0jkhKQ,9itMlJoBaBDGjqgnyDem-w
199,Cork,Wine Bars,,,69 Thompson St,40.72464171265232,-74.00325882159193,,
