,Restaurant,Type,Rating,Price,Address,Lat,Lng,url,ID
0,Bar Bruno,American (New),4.0,$$,520 Henry St,40.6833674,-73.9997959,https://www.yelp.com/biz/bar-bruno-brooklyn-2?adjust_creative=-uBzzloii2ivvF3N0jkhKQ&utm_campaign=yelp_api_v3&utm_medium=api_v3_business_search&utm_source=-uBzzloii2ivvF3N0jkhKQ,zupIzmhdcH0U6vJQQxDBiQ
1,Taqueria Gramercy,Bars,,,218 3rd Ave,40.7363,-73.98531,,
2,Flats Fix Taqueria,Bars,3.5,$$,28 E 16th St,40.7365039,-73.9910582,https://www.yelp.com/biz/flats-fix-taqueria-new-york-3?adjust_creative=-uBzzloii2ivvF3N0jkhKQ&utm_campaign=yelp_api_v3&utm_medium=api_v3_business_search&utm_source=-uBzzloii2ivvF3N0jkhKQ,AnAZaBsEuBjYvzaPMTN0oQ
3,Lobo,Bars,3.5,$$,218 Court St,40.686588,-73.994155,https://www.yelp.com/biz/lobo-brooklyn?adjust_creative=-uBzzloii2ivvF3N0jkhKQ&utm_campaign=yelp_api_v3&utm_medium=api_v3_business_search&utm_source=-uBzzloii2ivvF3N0jkhKQ,bU0Ymp2m_6sq3NPw_rXGFw
4,La Palapa,Breakfast & Brunch,3.5,$$,77 St Mark's Pl,40.727969,-73.985604,https://www.yelp.com/biz/la-palapa-new-york?adjust_creative=-uBzzloii2ivvF3N0jkhKQ&utm_campaign=yelp_api_v3&utm_medium=api_v3_business_search&utm_source=-uBzzloii2ivvF3N0jkhKQ,frWu5KfSULdCHd0GmA-ytw
5,Calexico - East Village,Breakfast & Brunch,4.0,$$,99 2nd Ave,40.72732,-73.98883,https://www.yelp.com/biz/calexico-east-village-new-york?adjust_creative=-uBzzloii2ivvF3N0jkhKQ&utm_campaign=yelp_api_v3&utm_medium=api_v3_business_search&utm_source=-uBzzloii2ivvF3N0jkhKQ,UCcqDRcLO2MTyde0w0Wr3Q
6,Breakroom,Burgers,4.5,$$,83 Baxter St,40.7166907225542,-73.9999440120647,https://www.yelp.com/biz/breakroom-new-york?adjust_creative=-uBzzloii2ivvF3N0jkhKQ&utm_campaign=yelp_api_v3&utm_medium=api_v3_business_search&utm_source=-uBzzloii2ivvF3N0jkhKQ,MfbVI5reXLIIs8Cc2HwgQw
7,For All Things Good,Cafes,,,343 Franklin Ave,40.687630013555,-73.9568200707436,,
8,Bar San Miguel,Cocktail Bars,4.0,$$,307 Smith St,40.68134,-73.9938279,https://www.yelp.com/biz/bar-san-miguel-new-york?adjust_creative=-uBzzloii2ivvF3N0jkhKQ&utm_campaign=yelp_api_v3&utm_medium=api_v3_business_search&utm_source=-uBzzloii2ivvF3N0jkhKQ,2kPGo5wA33eBJj-OzA96tQ
9,Street Taco,Cocktail Bars,4.0,$$,358 3rd Ave,40.74097,-73.98202,https://www.yelp.com/biz/street-taco-new-york?adjust_creative=-uBzzloii2ivvF3N0jkhKQ&utm_campaign=yelp_api_v3&utm_medium=api_v3_business_search&utm_source=-uBzzloii2ivvF3N0jkhKQ,hKkPlYmHoS9Nb_UbGGqx8A
10,Las Catrinas Mexican Bar & Eatery,Cocktail Bars,4.0,$$,32-02 Broadway,40.7614214682633,-73.9246649456171,https://www.yelp.com/biz/las-catrinas-mexican-bar-and-eatery-astoria?adjust_creative=-uBzzloii2ivvF3N0jkhKQ&utm_campaign=yelp_api_v3&utm_medium=api_v3_business_search&utm_source=-uBzzloii2ivvF3N0jkhKQ,6AJwsgXr7YwsqneGVAdgzw
11,Conmigo,Cocktail Bars,4.0,$$,1685 1st Ave,40.77793,-73.94902,https://www.yelp.com/biz/conmigo-new-york?adjust_creative=-uBzzloii2ivvF3N0jkhKQ&utm_campaign=yelp_api_v3&utm_medium=api_v3_business_search&utm_source=-uBzzloii2ivvF3N0jkhKQ,cy0vBvZu2Eb4XtRFCp8Seg
12,Vida Verde,Cocktail Bars,4.5,$$,248 W 55th St,40.7649503286729,-73.9828372257363,https://www.yelp.com/biz/vida-verde-new-york?adjust_creative=-uBzzloii2ivvF3N0jkhKQ&utm_campaign=yelp_api_v3&utm_medium=api_v3_business_search&utm_source=-uBzzloii2ivvF3N0jkhKQ,Xjswj531-FkRZPpcccU6kQ
13,Toro Loco,Cocktail Bars,4.0,$$,15 Stone St,40.70421,-74.01208,https://www.yelp.com/biz/toro-loco-new-york?adjust_creative=-uBzzloii2ivvF3N0jkhKQ&utm_campaign=yelp_api_v3&utm_medium=api_v3_business_search&utm_source=-uBzzloii2ivvF3N0jkhKQ,nrwOQSXoRXfAYhkdjiUk8g
14,Pokito,Cocktail Bars,4.5,$$,155 S 4th St,40.71162,-73.96184,https://www.yelp.com/biz/pokito-brooklyn-2?adjust_creative=-uBzzloii2ivvF3N0jkhKQ&utm_campaign=yelp_api_v3&utm_medium=api_v3_business_search&utm_source=-uBzzloii2ivvF3N0jkhKQ,iJUoxnxbCtVDMek4keHJFQ
15,Cafe Habana,Cuban,4.0,$$,17 Prince St,40.722998,-73.994171,https://www.yelp.com/biz/cafe-habana-new-york-4?adjust_creative=-uBzzloii2ivvF3N0jkhKQ&utm_campaign=yelp_api_v3&utm_medium=api_v3_business_search&utm_source=-uBzzloii2ivvF3N0jkhKQ,NOh24SMS6k4pzNv8Ds7KDg
16,The Bear,Fast Food,4.5,$$,48 S 4th St,40.7128339,-73.9663587,https://www.yelp.com/biz/the-bear-brooklyn?adjust_creative=-uBzzloii2ivvF3N0jkhKQ&utm_campaign=yelp_api_v3&utm_medium=api_v3_business_search&utm_source=-uBzzloii2ivvF3N0jkhKQ,P5gcdU1DX9M1V4W-V9o-wg
17,Chinelos Tacos NYC,Food Trucks,,,4-09 Center Blvd,40.7423518016186,-73.9599615129021,,
18,AlMar,Italian,4.0,$$,111 Front St,40.702662,-73.989177,https://www.yelp.com/biz/almar-brooklyn-2?adjust_creative=-uBzzloii2ivvF3N0jkhKQ&utm_campaign=yelp_api_v3&utm_medium=api_v3_business_search&utm_source=-uBzzloii2ivvF3N0jkhKQ,nHMDOIX32dGbfpuNUwsLNQ
19,The Maze,Korean,4.0,$$,32 W 32nd St,40.747846,-73.9872499,https://www.yelp.com/biz/the-maze-new-york-3?adjust_creative=-uBzzloii2ivvF3N0jkhKQ&utm_campaign=yelp_api_v3&utm_medium=api_v3_business_search&utm_source=-uBzzloii2ivvF3N0jkhKQ,iPc-zPgcpgeSo76xl5Jbpw
20,La Esquina - SoHo,Latin American,3.5,$$,114 Kenmare St,40.721372,-73.997529,https://www.yelp.com/biz/la-esquina-soho-new-york?adjust_creative=-uBzzloii2ivvF3N0jkhKQ&utm_campaign=yelp_api_v3&utm_medium=api_v3_business_search&utm_source=-uBzzloii2ivvF3N0jkhKQ,boRM4i0UQswxQIp6CA9y_A
21,Counter & Bodega,Latin American,4.5,$$,216 7th Ave,40.74382731329241,-73.996272,https://www.yelp.com/biz/counter-and-bodega-new-york?adjust_creative=-uBzzloii2ivvF3N0jkhKQ&utm_campaign=yelp_api_v3&utm_medium=api_v3_business_search&utm_source=-uBzzloii2ivvF3N0jkhKQ,ddFY9PpygYagv7-jVduB2Q
22,Miti Miti,Latin American,4.0,$$,138 5th Ave,40.6786672454389,-73.9791200818081,https://www.yelp.com/biz/miti-miti-brooklyn-2?adjust_creative=-uBzzloii2ivvF3N0jkhKQ&utm_campaign=yelp_api_v3&utm_medium=api_v3_business_search&utm_source=-uBzzloii2ivvF3N0jkhKQ,trOfIBnEr_CxZuLRyGj9FQ
23,Yuca Bar,Latin American,4.0,$$,111 Avenue A,40.7262,-73.9836,https://www.yelp.com/biz/yuca-bar-new-york?adjust_creative=-uBzzloii2ivvF3N0jkhKQ&utm_campaign=yelp_api_v3&utm_medium=api_v3_business_search&utm_source=-uBzzloii2ivvF3N0jkhKQ,AgAkUVLN_axMY-bzbNCfCw
24,Leyenda,Latin American,4.0,$$,221 Smith St,40.68431,-73.99197,https://www.yelp.com/biz/leyenda-brooklyn?adjust_creative=-uBzzloii2ivvF3N0jkhKQ&utm_campaign=yelp_api_v3&utm_medium=api_v3_business_search&utm_source=-uBzzloii2ivvF3N0jkhKQ,uVfOB37NyYEGRs5FITM-nQ
25,Cantina Rooftop,Lounges,3.0,$$,605 W 48th St,40.765101,-73.996046,https://www.yelp.com/biz/cantina-rooftop-new-york-6?adjust_creative=-uBzzloii2ivvF3N0jkhKQ&utm_campaign=yelp_api_v3&utm_medium=api_v3_business_search&utm_source=-uBzzloii2ivvF3N0jkhKQ,sul_ihulQ5VUPNbk9liWqA
26,Mexicue,Mexican,4.0,$$,1440 Broadway,40.754109,-73.986015,https://www.yelp.com/biz/mexicue-new-york-4?adjust_creative=-uBzzloii2ivvF3N0jkhKQ&utm_campaign=yelp_api_v3&utm_medium=api_v3_business_search&utm_source=-uBzzloii2ivvF3N0jkhKQ,xGoSAOhQBNdJMJmPn7CMDQ
27,Jajaja Plantas Mexicana,Mexican,4.5,$$,63 Carmine St,40.72979,-74.00455,https://www.yelp.com/biz/jajaja-plantas-mexicana-new-york?adjust_creative=-uBzzloii2ivvF3N0jkhKQ&utm_campaign=yelp_api_v3&utm_medium=api_v3_business_search&utm_source=-uBzzloii2ivvF3N0jkhKQ,PHMkwS5nmo4IUXbcg0OcAg
28,The Little Taco House,Mexican,,,246 West 4th St,40.73475,-74.00321,,
29,El Vez Burrito Bar,Mexican,4.0,$$,259 Vesey St,40.7147356376792,-74.015635,https://www.yelp.com/biz/el-vez-burrito-bar-new-york?adjust_creative=-uBzzloii2ivvF3N0jkhKQ&utm_campaign=yelp_api_v3&utm_medium=api_v3_business_search&utm_source=-uBzzloii2ivvF3N0jkhKQ,L5eqJRy8Yx_4El6rUxWmBw
30,Mad Dog & Beans Mexican Cantina,Mexican,4.0,$$,5 E 38th St,40.75098,-73.98181,https://www.yelp.com/biz/mad-dog-and-beans-mexican-cantina-new-york?adjust_creative=-uBzzloii2ivvF3N0jkhKQ&utm_campaign=yelp_api_v3&utm_medium=api_v3_business_search&utm_source=-uBzzloii2ivvF3N0jkhKQ,xWLSJOiN1mMRHmBmHyjAfw
31,Cosme,Mexican,3.5,$$$,35 E 21st St,40.739691,-73.988428,https://www.yelp.com/biz/cosme-new-york?adjust_creative=-uBzzloii2ivvF3N0jkhKQ&utm_campaign=yelp_api_v3&utm_medium=api_v3_business_search&utm_source=-uBzzloii2ivvF3N0jkhKQ,1m6viubAWUgsTgguIrJT6A
32,El Santo Taqueria,Mexican,4.0,$$,1053 Flushing Ave,40.70427,-73.9302,https://www.yelp.com/biz/el-santo-taqueria-brooklyn?adjust_creative=-uBzzloii2ivvF3N0jkhKQ&utm_campaign=yelp_api_v3&utm_medium=api_v3_business_search&utm_source=-uBzzloii2ivvF3N0jkhKQ,l-ELX4tgoaNucr33ZvdzbQ
33,Charrito's Restaurant,Mexican,3.0,$$,974 Blvd E,40.77707,-74.0136,https://www.yelp.com/biz/charritos-restaurant-weehawken?adjust_creative=-uBzzloii2ivvF3N0jkhKQ&utm_campaign=yelp_api_v3&utm_medium=api_v3_business_search&utm_source=-uBzzloii2ivvF3N0jkhKQ,jB5fXguSmlX65asSB3KIfQ
34,Tacombi - Financial District,Mexican,4.0,$$,74 Broad St,40.704647,-74.011824,https://www.yelp.com/biz/tacombi-financial-district-new-york-4?adjust_creative=-uBzzloii2ivvF3N0jkhKQ&utm_campaign=yelp_api_v3&utm_medium=api_v3_business_search&utm_source=-uBzzloii2ivvF3N0jkhKQ,pcQ9ld7xuX9EXTCAoakkbQ
35,Rancho Tequileria,Mexican,,,718 Amsterdam Ave,40.793432,-73.971356,,
36,Los Cuernos,Mexican,3.5,$$,499 Washington Blvd,40.72598,-74.03594,https://www.yelp.com/biz/los-cuernos-jersey-city?adjust_creative=-uBzzloii2ivvF3N0jkhKQ&utm_campaign=yelp_api_v3&utm_medium=api_v3_business_search&utm_source=-uBzzloii2ivvF3N0jkhKQ,zT93JCAGIuHkLaD2YenUgQ
37,Taqueria Mexico 2000,Mexican,,,131 Grand St,40.71509,-73.96246,,
38,Taqueria Milear,Mexican,4.0,$,752A Nostrand Ave,40.6729835327648,-73.9503121359905,https://www.yelp.com/biz/taqueria-milear-crown-heights?adjust_creative=-uBzzloii2ivvF3N0jkhKQ&utm_campaign=yelp_api_v3&utm_medium=api_v3_business_search&utm_source=-uBzzloii2ivvF3N0jkhKQ,ipmOYDh9snm3ZUv546MACQ
39,La Superior,Mexican,3.5,$$,295 Berry St,40.71357,-73.96363,https://www.yelp.com/biz/la-superior-brooklyn?adjust_creative=-uBzzloii2ivvF3N0jkhKQ&utm_campaign=yelp_api_v3&utm_medium=api_v3_business_search&utm_source=-uBzzloii2ivvF3N0jkhKQ,zjnnccSIpMdx5fN-MxAr_w
40,Sobre Masa,Mexican,4.5,$$,,40.71217,-73.96372,https://www.yelp.com/biz/sobre-masa-brooklyn?adjust_creative=-uBzzloii2ivvF3N0jkhKQ&utm_campaign=yelp_api_v3&utm_medium=api_v3_business_search&utm_source=-uBzzloii2ivvF3N0jkhKQ,7A10pcvHWQhjIj_Nw81hNA
41,Oaxaca Taqueria,Mexican,3.0,$,75 Hoyt St,40.688233,-73.986593,https://www.yelp.com/biz/oaxaca-taqueria-brooklyn-3?adjust_creative=-uBzzloii2ivvF3N0jkhKQ&utm_campaign=yelp_api_v3&utm_medium=api_v3_business_search&utm_source=-uBzzloii2ivvF3N0jkhKQ,DjtjAuN5jWd_ukx0YWUFWw
42,Lolita's Kitchen,Mexican,4.0,$,1364 Lexington Ave,40.7824207446896,-73.9534502033954,https://www.yelp.com/biz/lolitas-kitchen-new-york?adjust_creative=-uBzzloii2ivvF3N0jkhKQ&utm_campaign=yelp_api_v3&utm_medium=api_v3_business_search&utm_source=-uBzzloii2ivvF3N0jkhKQ,skN-mgnOezFQr9YNh5G5TQ
43,Oso,Mexican,4.0,$$,1618 Amsterdam Ave At 140th St,40.82195,-73.9502399,https://www.yelp.com/biz/oso-new-york?adjust_creative=-uBzzloii2ivvF3N0jkhKQ&utm_campaign=yelp_api_v3&utm_medium=api_v3_business_search&utm_source=-uBzzloii2ivvF3N0jkhKQ,h8J10FpJGaU_4OvP2MgoKQ
44,Ruta Oaxaca Mexican Cuisine,Mexican,4.5,$$$,35-03 Broadway,40.760579,-73.921857,https://www.yelp.com/biz/ruta-oaxaca-mexican-cuisine-astoria?adjust_creative=-uBzzloii2ivvF3N0jkhKQ&utm_campaign=yelp_api_v3&utm_medium=api_v3_business_search&utm_source=-uBzzloii2ivvF3N0jkhKQ,YFL1rAdlv7J0cswHVhvCtQ
45,Pedro's Mexican Bar & Restaurant,Mexican,2.5,$$,73 Jay St,40.702523,-73.986503,https://www.yelp.com/biz/pedros-mexican-bar-and-restaurant-brooklyn?adjust_creative=-uBzzloii2ivvF3N0jkhKQ&utm_campaign=yelp_api_v3&utm_medium=api_v3_business_search&utm_source=-uBzzloii2ivvF3N0jkhKQ,zBORlLYwMqqJ_GOX6K31mw
46,Maya,Mexican,3.5,$$,1191 1st Ave,40.7632055528185,-73.9596225112209,https://www.yelp.com/biz/maya-new-york?adjust_creative=-uBzzloii2ivvF3N0jkhKQ&utm_campaign=yelp_api_v3&utm_medium=api_v3_business_search&utm_source=-uBzzloii2ivvF3N0jkhKQ,TgoYhgbPCYhLBNtpue3QHg
47,Alma Restaurant,Mexican,3.5,$$,187 Columbia St,40.68557,-74.00215,https://www.yelp.com/biz/alma-restaurant-brooklyn?adjust_creative=-uBzzloii2ivvF3N0jkhKQ&utm_campaign=yelp_api_v3&utm_medium=api_v3_business_search&utm_source=-uBzzloii2ivvF3N0jkhKQ,5SOM3bh1R5K3RZ9E20TxUg
48,Rosa Mexicano,Mexican,3.5,$$,9 E 18th St,40.7382067602025,-73.99086362045325,https://www.yelp.com/biz/rosa-mexicano-new-york-3?adjust_creative=-uBzzloii2ivvF3N0jkhKQ&utm_campaign=yelp_api_v3&utm_medium=api_v3_business_search&utm_source=-uBzzloii2ivvF3N0jkhKQ,dYWjNK07igws9jFNgQmhng
49,Taqueria Tepango,Mexican,4.0,$,568 Myrtle Ave,40.6937857,-73.9616331,https://www.yelp.com/biz/taqueria-tepango-brooklyn?adjust_creative=-uBzzloii2ivvF3N0jkhKQ&utm_campaign=yelp_api_v3&utm_medium=api_v3_business_search&utm_source=-uBzzloii2ivvF3N0jkhKQ,fJXCMGOhaS6rKGjoGldSSQ
50,Taqueria St. Marks Place,Mexican,4.0,$$,79 St Marks Pl,40.72788723475379,-73.98557625767012,https://www.yelp.com/biz/taqueria-st-marks-place-new-york?adjust_creative=-uBzzloii2ivvF3N0jkhKQ&utm_campaign=yelp_api_v3&utm_medium=api_v3_business_search&utm_source=-uBzzloii2ivvF3N0jkhKQ,DQuwci5xgJxXx7dxxp9FBA
51,Oaxaca Taqueria,Mexican,3.5,$$,1116 Bedford Ave,40.68634,-73.954767,https://www.yelp.com/biz/oaxaca-taqueria-brooklyn?adjust_creative=-uBzzloii2ivvF3N0jkhKQ&utm_campaign=yelp_api_v3&utm_medium=api_v3_business_search&utm_source=-uBzzloii2ivvF3N0jkhKQ,VREXC353INWXdSyTYvt8Lg
52,Pulqueria,Mexican,3.5,$$,11 Doyers St,40.71448,-73.99819,https://www.yelp.com/biz/pulqueria-new-york?adjust_creative=-uBzzloii2ivvF3N0jkhKQ&utm_campaign=yelp_api_v3&utm_medium=api_v3_business_search&utm_source=-uBzzloii2ivvF3N0jkhKQ,bbb6QZReetkrrubqGWJokQ
53,Frida Midtown,Mexican,,,214 E 52nd St,40.756610894855896,-73.96919065816803,,
54,MÉXology,Mexican,,,28-17 Jackson Ave,40.748981678811695,-73.93874363738132,,
55,Los Tacos NYC,Mexican,,,117 E 7th St,40.726629,-73.984279,,
56,Jolie Bistro,Mexican,4.0,$$,241 Smith St,40.6836,-73.99247,https://www.yelp.com/biz/jolie-bistro-brooklyn?adjust_creative=-uBzzloii2ivvF3N0jkhKQ&utm_campaign=yelp_api_v3&utm_medium=api_v3_business_search&utm_source=-uBzzloii2ivvF3N0jkhKQ,7KO4zcBtc2-2M5kJLfl0kw
57,La Contenta,Mexican,4.5,$$,102 Norfolk St,40.71873,-73.98691,https://www.yelp.com/biz/la-contenta-new-york?adjust_creative=-uBzzloii2ivvF3N0jkhKQ&utm_campaign=yelp_api_v3&utm_medium=api_v3_business_search&utm_source=-uBzzloii2ivvF3N0jkhKQ,6Ct7OeTRn4caY9g0swFBsw
58,Playa Betty’s,Mexican,3.5,$$,320 Amsterdam Ave,40.78075,-73.98032,https://www.yelp.com/biz/playa-bettys-new-york-2?adjust_creative=-uBzzloii2ivvF3N0jkhKQ&utm_campaign=yelp_api_v3&utm_medium=api_v3_business_search&utm_source=-uBzzloii2ivvF3N0jkhKQ,YsDmYRzJo3kiwZvIe1r0Fg
59,El Parador Cafe,Mexican,4.0,$$,325 E 34th St,40.7444599,-73.97472,https://www.yelp.com/biz/el-parador-cafe-new-york?adjust_creative=-uBzzloii2ivvF3N0jkhKQ&utm_campaign=yelp_api_v3&utm_medium=api_v3_business_search&utm_source=-uBzzloii2ivvF3N0jkhKQ,BdHWUmVFuo1R8Lctv4K1Ow
60,Baby Bo's Cantina,Mexican,4.0,$$,627 2nd Ave,40.74514,-73.97598,https://www.yelp.com/biz/baby-bos-cantina-new-york?adjust_creative=-uBzzloii2ivvF3N0jkhKQ&utm_campaign=yelp_api_v3&utm_medium=api_v3_business_search&utm_source=-uBzzloii2ivvF3N0jkhKQ,oSFL1AVZYouS4YrDjoLyLA
61,Casa Taqueria,Mexican,,,40 Gold St,40.70875,-74.00583,,
62,Guadalupe Restaurant,Mexican,4.0,$$,597 W 207th St,40.86739,-73.92083,https://www.yelp.com/biz/guadalupe-restaurant-new-york-3?adjust_creative=-uBzzloii2ivvF3N0jkhKQ&utm_campaign=yelp_api_v3&utm_medium=api_v3_business_search&utm_source=-uBzzloii2ivvF3N0jkhKQ,2IrwjU67gguqLqQqZ1nFPg
63,Vamos Al Tequila,Mexican,3.5,$$,162 Franklin St,40.73079,-73.95753,https://www.yelp.com/biz/vamos-al-tequila-brooklyn?adjust_creative=-uBzzloii2ivvF3N0jkhKQ&utm_campaign=yelp_api_v3&utm_medium=api_v3_business_search&utm_source=-uBzzloii2ivvF3N0jkhKQ,xlv_CcDXH1hkG4Wq5mECkQ
64,Calexico - Greenpoint,Mexican,3.5,$$,645 Manhattan Ave,40.72416,-73.95132,https://www.yelp.com/biz/calexico-greenpoint-brooklyn-2?adjust_creative=-uBzzloii2ivvF3N0jkhKQ&utm_campaign=yelp_api_v3&utm_medium=api_v3_business_search&utm_source=-uBzzloii2ivvF3N0jkhKQ,3DNtS1_3gobrYQBAwDx4DA
65,B'klyn Burro,Mexican,4.0,$$,922 Fulton St,40.6827188,-73.9640973,https://www.yelp.com/biz/bklyn-burro-brooklyn-5?adjust_creative=-uBzzloii2ivvF3N0jkhKQ&utm_campaign=yelp_api_v3&utm_medium=api_v3_business_search&utm_source=-uBzzloii2ivvF3N0jkhKQ,Ai2mbsb0cYZoMWC3DAAP3Q
66,Taqueria Santa Fe,Mexican,4.5,$,214 Stanhope St,40.700351,-73.920546,https://www.yelp.com/biz/taqueria-santa-fe-brooklyn?adjust_creative=-uBzzloii2ivvF3N0jkhKQ&utm_campaign=yelp_api_v3&utm_medium=api_v3_business_search&utm_source=-uBzzloii2ivvF3N0jkhKQ,hOLv0a65RSb5QvFd0FrYjw
67,Tortilleria Mexicana Los Hermanos,Mexican,4.0,$,271 Starr St,40.7066299,-73.92198,https://www.yelp.com/biz/tortilleria-mexicana-los-hermanos-brooklyn-2?adjust_creative=-uBzzloii2ivvF3N0jkhKQ&utm_campaign=yelp_api_v3&utm_medium=api_v3_business_search&utm_source=-uBzzloii2ivvF3N0jkhKQ,iK2jJQA72XRjf4nUD3cAnA
68,Tacuba,Mexican,4.0,$$,35-01 36th St,40.75609,-73.924441,https://www.yelp.com/biz/tacuba-astoria?adjust_creative=-uBzzloii2ivvF3N0jkhKQ&utm_campaign=yelp_api_v3&utm_medium=api_v3_business_search&utm_source=-uBzzloii2ivvF3N0jkhKQ,EHUNrnIgnhwTnpOm3gEESg
69,Móle,Mexican,3.0,$$,178 Kent Ave,40.718819,-73.963455,https://www.yelp.com/biz/m%C3%B3le-brooklyn-2?adjust_creative=-uBzzloii2ivvF3N0jkhKQ&utm_campaign=yelp_api_v3&utm_medium=api_v3_business_search&utm_source=-uBzzloii2ivvF3N0jkhKQ,aStZY21Qmtzm1IS8y1_81g
70,Blockheads,Mexican,3.5,$$,954 2nd Ave,40.7551,-73.96802,https://www.yelp.com/biz/blockheads-new-york-12?adjust_creative=-uBzzloii2ivvF3N0jkhKQ&utm_campaign=yelp_api_v3&utm_medium=api_v3_business_search&utm_source=-uBzzloii2ivvF3N0jkhKQ,t86q8MbsrW8pB8bmfwPWTw
71,El Diablito Taqueria,Mexican,4.0,$,60 E 3rd St,40.72504,-73.98917,https://www.yelp.com/biz/el-diablito-taqueria-new-york?adjust_creative=-uBzzloii2ivvF3N0jkhKQ&utm_campaign=yelp_api_v3&utm_medium=api_v3_business_search&utm_source=-uBzzloii2ivvF3N0jkhKQ,J9pgjC191T-odCmTAG-grQ
72,Tacos Los Poblanos,Mexican,4.5,$,5320 5th Ave,40.643196,-74.012781,https://www.yelp.com/biz/tacos-los-poblanos-brooklyn?adjust_creative=-uBzzloii2ivvF3N0jkhKQ&utm_campaign=yelp_api_v3&utm_medium=api_v3_business_search&utm_source=-uBzzloii2ivvF3N0jkhKQ,0Nu2kmbWnfP7GD-NZ5h3fw
73,Tortaria,Mexican,3.5,$$,94 University Pl,40.73387,-73.9930481239834,https://www.yelp.com/biz/tortaria-new-york?adjust_creative=-uBzzloii2ivvF3N0jkhKQ&utm_campaign=yelp_api_v3&utm_medium=api_v3_business_search&utm_source=-uBzzloii2ivvF3N0jkhKQ,HKBJGt04_ZSdiIWA_6J8kQ
74,Ho' Brah a Taco Joint,Mexican,4.0,$$,8618 3rd Ave,40.623006,-74.031548,https://www.yelp.com/biz/ho-brah-a-taco-joint-brooklyn-4?adjust_creative=-uBzzloii2ivvF3N0jkhKQ&utm_campaign=yelp_api_v3&utm_medium=api_v3_business_search&utm_source=-uBzzloii2ivvF3N0jkhKQ,Drb6I9masZDvxQUVcqE2ww
75,De Mole,Mexican,4.0,$$,4502 48th Ave,40.7391932,-73.9202624,https://www.yelp.com/biz/de-mole-woodside?adjust_creative=-uBzzloii2ivvF3N0jkhKQ&utm_campaign=yelp_api_v3&utm_medium=api_v3_business_search&utm_source=-uBzzloii2ivvF3N0jkhKQ,DHFEpeJXemrdxIuGGcyurg
76,Taquitos Mexico,Mexican,4.0,$,6720 14th Ave,40.623125,-74.00117,https://www.yelp.com/biz/taquitos-mexico-brooklyn?adjust_creative=-uBzzloii2ivvF3N0jkhKQ&utm_campaign=yelp_api_v3&utm_medium=api_v3_business_search&utm_source=-uBzzloii2ivvF3N0jkhKQ,cQWUPxESnMx69dshABS_rg
77,El Rinconcito Mix,Mexican,,,774 St Johns Pl,40.67152,-73.95251,,
78,Orale Mexican Kitchen,Mexican,4.0,$$,341 Grove St,40.720536,-74.042976,https://www.yelp.com/biz/orale-mexican-kitchen-jersey-city?adjust_creative=-uBzzloii2ivvF3N0jkhKQ&utm_campaign=yelp_api_v3&utm_medium=api_v3_business_search&utm_source=-uBzzloii2ivvF3N0jkhKQ,4ttqjZMCsfz6X0kQ_KR0xQ
79,Mexico 2000 Restaurant,Mexican,4.0,$$,369 Broadway,40.70765,-73.95493,https://www.yelp.com/biz/mexico-2000-restaurant-brooklyn-2?adjust_creative=-uBzzloii2ivvF3N0jkhKQ&utm_campaign=yelp_api_v3&utm_medium=api_v3_business_search&utm_source=-uBzzloii2ivvF3N0jkhKQ,m3C3d47Bh4NJHGXvT6Rqbg
80,Cantina Taqueria & Tequila Bar,Mexican,4.0,$$,1838 7th Ave,40.800338992692026,-73.95497594715312,https://www.yelp.com/biz/cantina-taqueria-and-tequila-bar-new-york?adjust_creative=-uBzzloii2ivvF3N0jkhKQ&utm_campaign=yelp_api_v3&utm_medium=api_v3_business_search&utm_source=-uBzzloii2ivvF3N0jkhKQ,UH_aksIxzGPPyhWZJbTP7A
81,Sinigual,Mexican,3.5,$$,640 Third Ave,40.75048,-73.97488,https://www.yelp.com/biz/sinigual-manhattan-2?adjust_creative=-uBzzloii2ivvF3N0jkhKQ&utm_campaign=yelp_api_v3&utm_medium=api_v3_business_search&utm_source=-uBzzloii2ivvF3N0jkhKQ,1nR3kKOs938gcgnw6p5wjg
82,Coszcal De Allende,Mexican,4.0,$$,6824 3rd Ave,40.63617,-74.0262,https://www.yelp.com/biz/coszcal-de-allende-brooklyn?adjust_creative=-uBzzloii2ivvF3N0jkhKQ&utm_campaign=yelp_api_v3&utm_medium=api_v3_business_search&utm_source=-uBzzloii2ivvF3N0jkhKQ,mY_dEQM9poopjV0y4Hvnww
83,Amigo by Nai,Mexican,,,29 2nd Ave,40.724686,-73.99086,,
84,Taco Morelos,Mexican,4.0,$,183 Bedford Ave,40.717799,-73.957446,https://www.yelp.com/biz/taco-morelos-brooklyn?adjust_creative=-uBzzloii2ivvF3N0jkhKQ&utm_campaign=yelp_api_v3&utm_medium=api_v3_business_search&utm_source=-uBzzloii2ivvF3N0jkhKQ,_URXTaYBbd2XX5qJbDkKAg
85,Tacos Matamoros,Mexican,3.5,$,4508 5th Ave,40.6478187840292,-74.0076383498633,https://www.yelp.com/biz/tacos-matamoros-brooklyn?adjust_creative=-uBzzloii2ivvF3N0jkhKQ&utm_campaign=yelp_api_v3&utm_medium=api_v3_business_search&utm_source=-uBzzloii2ivvF3N0jkhKQ,SPvW-SV2Ed7z8k-QXDUIDg
86,Barnacho,Mexican,4.0,$$,920 2nd Ave,40.7540321350098,-73.9688491821289,https://www.yelp.com/biz/barnacho-new-york-3?adjust_creative=-uBzzloii2ivvF3N0jkhKQ&utm_campaign=yelp_api_v3&utm_medium=api_v3_business_search&utm_source=-uBzzloii2ivvF3N0jkhKQ,_HxxUvRp-0FMH_RoEzG1TA
87,Caliente Cab,Mexican,2.5,$$,61 7th Ave S,40.7318059,-74.0035903,https://www.yelp.com/biz/caliente-cab-new-york-2?adjust_creative=-uBzzloii2ivvF3N0jkhKQ&utm_campaign=yelp_api_v3&utm_medium=api_v3_business_search&utm_source=-uBzzloii2ivvF3N0jkhKQ,POGfmcCkuLpkP_Vz98DuwQ
88,Summer Salt,Mexican,,,275 Madison Ave,40.7511757,-73.9799914622357,,
89,Jajaja Plantas Mexicana,Mexican,,,119 Kent Ave,40.7201266,-73.9615772,,
90,Tortazo,Mexican,,,1123 Broadway,40.74332,-73.98924,,
91,Hell's Kitchen,Mexican,4.0,$$,754 9th Ave,40.7638823425707,-73.9884334000586,https://www.yelp.com/biz/hells-kitchen-new-york-6?adjust_creative=-uBzzloii2ivvF3N0jkhKQ&utm_campaign=yelp_api_v3&utm_medium=api_v3_business_search&utm_source=-uBzzloii2ivvF3N0jkhKQ,ue-iu3tMiHAv7JR0YuhOww
92,Oaxaca Taqueria,Mexican,3.5,$$,152 E 33rd St,40.7453117370605,-73.9795227050781,https://www.yelp.com/biz/oaxaca-taqueria-new-york-6?adjust_creative=-uBzzloii2ivvF3N0jkhKQ&utm_campaign=yelp_api_v3&utm_medium=api_v3_business_search&utm_source=-uBzzloii2ivvF3N0jkhKQ,Q10FeFs1mtNchv1NbNcsLg
93,Chela & Garnacha,Mexican,4.5,$$,33-09 36th Ave,40.7557171543477,-73.927811292412,https://www.yelp.com/biz/chela-and-garnacha-astoria?adjust_creative=-uBzzloii2ivvF3N0jkhKQ&utm_campaign=yelp_api_v3&utm_medium=api_v3_business_search&utm_source=-uBzzloii2ivvF3N0jkhKQ,AUyKmFjpaVLwc3awfUnqgQ
94,Las Margaritas,Mexican,4.0,$$,7206 3rd Ave,40.6333399,-74.02719,https://www.yelp.com/biz/las-margaritas-brooklyn-2?adjust_creative=-uBzzloii2ivvF3N0jkhKQ&utm_campaign=yelp_api_v3&utm_medium=api_v3_business_search&utm_source=-uBzzloii2ivvF3N0jkhKQ,njV8tFM7PivgDhWng_Lb6g
95,Buddy's Burrito & Taco Bar,Mexican,4.0,$,260 Court St,40.685223,-73.994696,https://www.yelp.com/biz/buddys-burrito-and-taco-bar-brooklyn?adjust_creative=-uBzzloii2ivvF3N0jkhKQ&utm_campaign=yelp_api_v3&utm_medium=api_v3_business_search&utm_source=-uBzzloii2ivvF3N0jkhKQ,0Y8dv9UHGquFkWlVK7PdjA
96,Jajaja Plantas Mexicana,Mexican,,,450 W 33rd St,40.75264793272132,-73.99981519174997,,
97,Cilantro,Mexican,3.5,$$,485 Columbus Ave,40.784629,-73.973121,https://www.yelp.com/biz/cilantro-new-york-3?adjust_creative=-uBzzloii2ivvF3N0jkhKQ&utm_campaign=yelp_api_v3&utm_medium=api_v3_business_search&utm_source=-uBzzloii2ivvF3N0jkhKQ,VThwGCuC6JVaxAgnmuJDRg
98,Orale Mexican Kitchen,Mexican,4.0,$$,1426 Willow Ave,40.75493,-74.02968,https://www.yelp.com/biz/orale-mexican-kitchen-hoboken?adjust_creative=-uBzzloii2ivvF3N0jkhKQ&utm_campaign=yelp_api_v3&utm_medium=api_v3_business_search&utm_source=-uBzzloii2ivvF3N0jkhKQ,vC5XPdWzKa-c8iUQlUwEUQ
99,Casa Azul,Mexican,4.5,$$,369 7th Ave,40.6655705744252,-73.9825450299114,https://www.yelp.com/biz/casa-azul-brooklyn?adjust_creative=-uBzzloii2ivvF3N0jkhKQ&utm_campaign=yelp_api_v3&utm_medium=api_v3_business_search&utm_source=-uBzzloii2ivvF3N0jkhKQ,GCx7TnLKgLtUcXLIfQYfFA
100,Bushwick Taco Company,Mexican,4.0,$,839 Knickerbocker Ave,40.692052,-73.906106,https://www.yelp.com/biz/bushwick-taco-company-brooklyn-3?adjust_creative=-uBzzloii2ivvF3N0jkhKQ&utm_campaign=yelp_api_v3&utm_medium=api_v3_business_search&utm_source=-uBzzloii2ivvF3N0jkhKQ,ONUgIihg-ROELPgKiWfs7A
101,Zona Rosa,Mexican,3.5,$$,571 Lorimer St,40.7139388888686,-73.9494076703442,https://www.yelp.com/biz/zona-rosa-brooklyn-2?adjust_creative=-uBzzloii2ivvF3N0jkhKQ&utm_campaign=yelp_api_v3&utm_medium=api_v3_business_search&utm_source=-uBzzloii2ivvF3N0jkhKQ,7I-4qCgJq3n0yan1ChE-ew
102,Taqueria Casa Imelda,Mexican,,,82 S 4th St,40.712405,-73.964871,,
103,Ojalá Authentic Mexican,Mexican,,,852 Fulton St,40.683382,-73.967279,,
104,Tacombi - Bleecker Street,Mexican,4.0,$$,255 Bleecker St,40.73112,-74.00272,https://www.yelp.com/biz/tacombi-bleecker-street-new-york?adjust_creative=-uBzzloii2ivvF3N0jkhKQ&utm_campaign=yelp_api_v3&utm_medium=api_v3_business_search&utm_source=-uBzzloii2ivvF3N0jkhKQ,FavssEgZjXFi2unEXePkVQ
105,Casa Bocado,Mexican,,,341 Broome St,40.71958,-73.99484,,
106,La Esquina - Midtown,Mexican,4.0,$$,200 W 55th St,40.7642986928764,-73.9814604957066,https://www.yelp.com/biz/la-esquina-midtown-new-york-2?adjust_creative=-uBzzloii2ivvF3N0jkhKQ&utm_campaign=yelp_api_v3&utm_medium=api_v3_business_search&utm_source=-uBzzloii2ivvF3N0jkhKQ,xN4yKQMzo3PIoQlFamUOLQ
107,Xixa,Mexican,4.5,$$$,241 S 4th St,40.710505,-73.958466,https://www.yelp.com/biz/xixa-brooklyn?adjust_creative=-uBzzloii2ivvF3N0jkhKQ&utm_campaign=yelp_api_v3&utm_medium=api_v3_business_search&utm_source=-uBzzloii2ivvF3N0jkhKQ,Ck09FempamAKGSPsV_bX-A
108,Mexicue,Mexican,4.0,$$,160 8th Ave,40.74202,-74.00046,https://www.yelp.com/biz/mexicue-new-york-10?adjust_creative=-uBzzloii2ivvF3N0jkhKQ&utm_campaign=yelp_api_v3&utm_medium=api_v3_business_search&utm_source=-uBzzloii2ivvF3N0jkhKQ,uLWp1QR_W2WJImMnB706hg
109,Amaranto Mexican Restaurant,Mexican,4.5,$$,887 Hart St,40.703111,-73.921892,https://www.yelp.com/biz/amaranto-mexican-restaurant-brooklyn?adjust_creative=-uBzzloii2ivvF3N0jkhKQ&utm_campaign=yelp_api_v3&utm_medium=api_v3_business_search&utm_source=-uBzzloii2ivvF3N0jkhKQ,95a04LtXLX6gePhPEwff9A
110,Dos Caminos,Mexican,3.0,$$,675 Hudson St,40.7404330511257,-74.0054753422738,https://www.yelp.com/biz/dos-caminos-new-york-3?adjust_creative=-uBzzloii2ivvF3N0jkhKQ&utm_campaign=yelp_api_v3&utm_medium=api_v3_business_search&utm_source=-uBzzloii2ivvF3N0jkhKQ,zxdsVR_hHUzhBFfus4yd7A
111,Essex Taqueria,Mexican,4.0,$,123 Essex St,40.7197418,-73.9877989,https://www.yelp.com/biz/essex-taqueria-new-york?adjust_creative=-uBzzloii2ivvF3N0jkhKQ&utm_campaign=yelp_api_v3&utm_medium=api_v3_business_search&utm_source=-uBzzloii2ivvF3N0jkhKQ,r5NT8-nV4py2c-mppTKucQ
112,Mesa Coyoacan,Mexican,4.0,$$,372 Graham Ave,40.715528,-73.944273,https://www.yelp.com/biz/mesa-coyoacan-brooklyn?adjust_creative=-uBzzloii2ivvF3N0jkhKQ&utm_campaign=yelp_api_v3&utm_medium=api_v3_business_search&utm_source=-uBzzloii2ivvF3N0jkhKQ,mmAlHhnTDXIohPC3wfl0hQ
113,Xochitl Taqueria,Mexican,,,176 Smith St,40.685748,-73.991367,,
114,Kahlo,Mexican,4.5,$$$,525 West 29th St,40.752092,-74.0026757,https://www.yelp.com/biz/kahlo-new-york?adjust_creative=-uBzzloii2ivvF3N0jkhKQ&utm_campaign=yelp_api_v3&utm_medium=api_v3_business_search&utm_source=-uBzzloii2ivvF3N0jkhKQ,xGNzAsakHgbbl9fwgSoiUg
115,Aldama,Mexican,,,91 S 6th St,40.710999707909046,-73.96489653736353,,
116,Ofrenda,Mexican,4.0,$$,113 7th Ave S,40.73391,-74.00242,https://www.yelp.com/biz/ofrenda-new-york?adjust_creative=-uBzzloii2ivvF3N0jkhKQ&utm_campaign=yelp_api_v3&utm_medium=api_v3_business_search&utm_source=-uBzzloii2ivvF3N0jkhKQ,9_CEU7Wmvmwlyvqr-PJD6w
117,Nacho Macho Taco,Mexican,4.5,$,82 5th Ave,40.680574,-73.977879,https://www.yelp.com/biz/nacho-macho-taco-brooklyn?adjust_creative=-uBzzloii2ivvF3N0jkhKQ&utm_campaign=yelp_api_v3&utm_medium=api_v3_business_search&utm_source=-uBzzloii2ivvF3N0jkhKQ,znlol6dCKwjoXpZZwV_ZOg
118,Rosa Mexicano,Mexican,3.5,$$,61 Columbus Ave,40.771119,-73.9829577,https://www.yelp.com/biz/rosa-mexicano-new-york-6?adjust_creative=-uBzzloii2ivvF3N0jkhKQ&utm_campaign=yelp_api_v3&utm_medium=api_v3_business_search&utm_source=-uBzzloii2ivvF3N0jkhKQ,DFRpXRHjOHBxYHiuvwaEQQ
119,Mictlan Mexico,Mexican,,,17 Orchard St,40.71524,-73.99183,,
120,Mad Dog & Beans Mexican Cantina,Mexican,3.5,$$,83 Pearl St,40.704168,-74.010261,https://www.yelp.com/biz/mad-dog-and-beans-mexican-cantina-new-york-2?adjust_creative=-uBzzloii2ivvF3N0jkhKQ&utm_campaign=yelp_api_v3&utm_medium=api_v3_business_search&utm_source=-uBzzloii2ivvF3N0jkhKQ,DTKKEogIt2wQm4UULYVGug
121,Claro,Mexican,4.0,$$,284 3rd Ave,40.6773587963142,-73.9861984489446,https://www.yelp.com/biz/claro-brooklyn?adjust_creative=-uBzzloii2ivvF3N0jkhKQ&utm_campaign=yelp_api_v3&utm_medium=api_v3_business_search&utm_source=-uBzzloii2ivvF3N0jkhKQ,FXgSgiLg6xgOO8zrG51mzg
122,Oxomoco,Mexican,4.0,$$$,128 Greenpoint Ave,40.7299099,-73.95548,https://www.yelp.com/biz/oxomoco-brooklyn-2?adjust_creative=-uBzzloii2ivvF3N0jkhKQ&utm_campaign=yelp_api_v3&utm_medium=api_v3_business_search&utm_source=-uBzzloii2ivvF3N0jkhKQ,vyKBwzRdNX4yiJDIFv37iw
123,Dos Caminos,Mexican,3.5,$$,475 W Broadway,40.7266452,-73.9999024,https://www.yelp.com/biz/dos-caminos-new-york-4?adjust_creative=-uBzzloii2ivvF3N0jkhKQ&utm_campaign=yelp_api_v3&utm_medium=api_v3_business_search&utm_source=-uBzzloii2ivvF3N0jkhKQ,R5jpETY0OshPn-AeJjs0fA
124,Fonda Chelsea,Mexican,3.5,$$,189 9th Ave,40.7455185879981,-74.0021848849335,https://www.yelp.com/biz/fonda-chelsea-new-york-2?adjust_creative=-uBzzloii2ivvF3N0jkhKQ&utm_campaign=yelp_api_v3&utm_medium=api_v3_business_search&utm_source=-uBzzloii2ivvF3N0jkhKQ,v8tuFxvNkKdZytWTn9BhMA
125,Rosie's,Mexican,4.0,$$,29 E 2nd St,40.72492,-73.99079,https://www.yelp.com/biz/rosies-new-york-2?adjust_creative=-uBzzloii2ivvF3N0jkhKQ&utm_campaign=yelp_api_v3&utm_medium=api_v3_business_search&utm_source=-uBzzloii2ivvF3N0jkhKQ,9aJ1MVTthZw3QjqoG7mPjg
126,Barrio Chino,Mexican,4.0,$$,253 Broome St,40.718022,-73.990026,https://www.yelp.com/biz/barrio-chino-new-york?adjust_creative=-uBzzloii2ivvF3N0jkhKQ&utm_campaign=yelp_api_v3&utm_medium=api_v3_business_search&utm_source=-uBzzloii2ivvF3N0jkhKQ,RzKR9QcYP03EQ_8DxTxowg
127,El Camion,Mexican,4.0,$$,194 Ave A,40.7291,-73.98105,https://www.yelp.com/biz/el-camion-new-york?adjust_creative=-uBzzloii2ivvF3N0jkhKQ&utm_campaign=yelp_api_v3&utm_medium=api_v3_business_search&utm_source=-uBzzloii2ivvF3N0jkhKQ,BbMUXd69i0tlWS2aoppwaQ
128,Toloache 50,Mexican,4.0,$$,251 West 50th St,40.762227,-73.9856178382696,https://www.yelp.com/biz/toloache-50-new-york?adjust_creative=-uBzzloii2ivvF3N0jkhKQ&utm_campaign=yelp_api_v3&utm_medium=api_v3_business_search&utm_source=-uBzzloii2ivvF3N0jkhKQ,Wx6lMnEh7dCmX-9PQF1Ifw
129,Las Santas,Mexican,4.5,$$,572 Fulton St,40.6882,-73.97953,https://www.yelp.com/biz/las-santas-brooklyn-2?adjust_creative=-uBzzloii2ivvF3N0jkhKQ&utm_campaign=yelp_api_v3&utm_medium=api_v3_business_search&utm_source=-uBzzloii2ivvF3N0jkhKQ,4pj4ol7lXiytDD-BTKe3kg
130,De Mole,Mexican,,,2 Hope St,40.71377,-73.95786,,
131,Esqueleto Taqueria - Brooklyn,Mexican,,,155 Atlantic Ave,40.690561,-73.994917,,
132,Fatty Daddy Taco,Mexican,4.0,$$,152 Smith St,40.686578,-73.990821,https://www.yelp.com/biz/fatty-daddy-taco-brooklyn-2?adjust_creative=-uBzzloii2ivvF3N0jkhKQ&utm_campaign=yelp_api_v3&utm_medium=api_v3_business_search&utm_source=-uBzzloii2ivvF3N0jkhKQ,8CTaeOtqr461Ah5yWcnCPw
133,Hermana NYC,Mexican,,,349 E 13th St,40.73092,-73.98335,,
134,Chavela's,Mexican,4.0,$$,736 Franklin Ave,40.673484,-73.957267,https://www.yelp.com/biz/chavelas-brooklyn-2?adjust_creative=-uBzzloii2ivvF3N0jkhKQ&utm_campaign=yelp_api_v3&utm_medium=api_v3_business_search&utm_source=-uBzzloii2ivvF3N0jkhKQ,mhrLDFTxUzW2koRAzjlt5g
135,La Loteria,Mexican,4.0,$$,29 7th Ave S,40.7307865530978,-74.0041882564488,https://www.yelp.com/biz/la-loteria-new-york?adjust_creative=-uBzzloii2ivvF3N0jkhKQ&utm_campaign=yelp_api_v3&utm_medium=api_v3_business_search&utm_source=-uBzzloii2ivvF3N0jkhKQ,pG-IkylRFOb-HlaD8NwvvQ
136,Noche De Margaritas,Mexican,4.0,$$,1726 2nd Ave,40.7801018,-73.9497833,https://www.yelp.com/biz/noche-de-margaritas-new-york?adjust_creative=-uBzzloii2ivvF3N0jkhKQ&utm_campaign=yelp_api_v3&utm_medium=api_v3_business_search&utm_source=-uBzzloii2ivvF3N0jkhKQ,ci0-GO_iMb0NdTCUYWjocQ
137,Tacos El Bronco,Mexican,4.0,$,4324 4th Ave,40.65006,-74.00915,https://www.yelp.com/biz/tacos-el-bronco-brooklyn-2?adjust_creative=-uBzzloii2ivvF3N0jkhKQ&utm_campaign=yelp_api_v3&utm_medium=api_v3_business_search&utm_source=-uBzzloii2ivvF3N0jkhKQ,_M5FVY4hkcuU-ASdVZPfRQ
138,Bar Verde,Mexican,4.5,$$,65 2nd Ave,40.7260849061034,-73.9897361397743,https://www.yelp.com/biz/bar-verde-new-york?adjust_creative=-uBzzloii2ivvF3N0jkhKQ&utm_campaign=yelp_api_v3&utm_medium=api_v3_business_search&utm_source=-uBzzloii2ivvF3N0jkhKQ,PqqnNrUtU7XTKQvUM4cyqQ
139,Mexicue,Mexican,4.0,$$,225 5th Ave,40.743617,-73.987867,https://www.yelp.com/biz/mexicue-new-york-6?adjust_creative=-uBzzloii2ivvF3N0jkhKQ&utm_campaign=yelp_api_v3&utm_medium=api_v3_business_search&utm_source=-uBzzloii2ivvF3N0jkhKQ,IfIyjm4SfORGYPbaAWST3g
140,Friducha,Mexican,4.0,$$,946 Manhattan Ave,40.73152,-73.95432,https://www.yelp.com/biz/friducha-brooklyn?adjust_creative=-uBzzloii2ivvF3N0jkhKQ&utm_campaign=yelp_api_v3&utm_medium=api_v3_business_search&utm_source=-uBzzloii2ivvF3N0jkhKQ,l0ZOGV9tohkpfHiZ-3XSRg
141,Fonda Park Slope,Mexican,4.0,$$,434 7th Ave,40.663631439209,-73.9846343994141,https://www.yelp.com/biz/fonda-park-slope-brooklyn?adjust_creative=-uBzzloii2ivvF3N0jkhKQ&utm_campaign=yelp_api_v3&utm_medium=api_v3_business_search&utm_source=-uBzzloii2ivvF3N0jkhKQ,Nnuz_Ic0IdWOUbl64r4Hkg
142,Anejo Tribeca,Mexican,4.0,$$,301 Church St,40.7193829,-74.004417,https://www.yelp.com/biz/anejo-tribeca-new-york-3?adjust_creative=-uBzzloii2ivvF3N0jkhKQ&utm_campaign=yelp_api_v3&utm_medium=api_v3_business_search&utm_source=-uBzzloii2ivvF3N0jkhKQ,SXWnyFNLCehVlJPRxk7gAg
143,Jajaja Plantas Mexicana,Mexican,4.5,$$,162 E Broadway,40.7141530317142,-73.9904247969389,https://www.yelp.com/biz/jajaja-plantas-mexicana-new-york-2?adjust_creative=-uBzzloii2ivvF3N0jkhKQ&utm_campaign=yelp_api_v3&utm_medium=api_v3_business_search&utm_source=-uBzzloii2ivvF3N0jkhKQ,XipQLDbyTl5tsLlyzAWzug
144,Toloache 82nd,Mexican,4.0,$$$,166 E 82nd St,40.776483,-73.956708,https://www.yelp.com/biz/toloache-82nd-new-york?adjust_creative=-uBzzloii2ivvF3N0jkhKQ&utm_campaign=yelp_api_v3&utm_medium=api_v3_business_search&utm_source=-uBzzloii2ivvF3N0jkhKQ,kn9rgR4KlvyTTi-s76OIaQ
145,Palomas BK,Mexican,,,1 Knickerbocker Ave,40.707726225279785,-73.93172809990169,,
146,Dos Caminos,Mexican,3.5,$$,373 Park Ave S,40.7422737,-73.9846134,https://www.yelp.com/biz/dos-caminos-new-york-5?adjust_creative=-uBzzloii2ivvF3N0jkhKQ&utm_campaign=yelp_api_v3&utm_medium=api_v3_business_search&utm_source=-uBzzloii2ivvF3N0jkhKQ,M1YYZ9cTVuMXLji_XF6rzg
147,La Contenta Oeste,Mexican,4.0,$$,78 W 11th St,40.7352,-73.99808,https://www.yelp.com/biz/la-contenta-oeste-new-york?adjust_creative=-uBzzloii2ivvF3N0jkhKQ&utm_campaign=yelp_api_v3&utm_medium=api_v3_business_search&utm_source=-uBzzloii2ivvF3N0jkhKQ,tvqtAjAyc7dplVVwhw3VZQ
148,Mitla New York City,Mexican,,,213 6th Ave,40.72753170815836,-74.00341609999953,,
149,Kuxé,Mexican,,,205 Thompson St,40.72876,-73.9995,,
150,Mole,Mexican,3.5,$$,57 Jane St,40.73822,-74.00524,https://www.yelp.com/biz/mole-new-york-3?adjust_creative=-uBzzloii2ivvF3N0jkhKQ&utm_campaign=yelp_api_v3&utm_medium=api_v3_business_search&utm_source=-uBzzloii2ivvF3N0jkhKQ,mVaslo987DCd3YC_0FtWxA
151,Casa Mezcal,Mexican,3.5,$$,86 Orchard St,40.7179602,-73.9902328,https://www.yelp.com/biz/casa-mezcal-new-york?adjust_creative=-uBzzloii2ivvF3N0jkhKQ&utm_campaign=yelp_api_v3&utm_medium=api_v3_business_search&utm_source=-uBzzloii2ivvF3N0jkhKQ,uipFunIVqRWwopfEvrscyQ
152,Casa del Toro,Mexican,,,626B 10th Ave,40.761115,-73.9940146,,
153,Xilonen,Mexican,,,905 Lorimer St,40.723513,-73.951928,,
154,Taqueria Diana,Mexican,4.0,$$,367 Metropolitan Ave,40.7142179690191,-73.9556609,https://www.yelp.com/biz/taqueria-diana-brooklyn?adjust_creative=-uBzzloii2ivvF3N0jkhKQ&utm_campaign=yelp_api_v3&utm_medium=api_v3_business_search&utm_source=-uBzzloii2ivvF3N0jkhKQ,G92jSUckfs4MhD6bGPyHow
155,Tacombi - Williamsburg,Mexican,,,242 Metropolitan Ave,40.71489,-73.95949,,
156,Casa Publica,Mexican,4.0,$$$,594 Union Ave,40.718194,-73.9520543,https://www.yelp.com/biz/casa-publica-brooklyn-2?adjust_creative=-uBzzloii2ivvF3N0jkhKQ&utm_campaign=yelp_api_v3&utm_medium=api_v3_business_search&utm_source=-uBzzloii2ivvF3N0jkhKQ,yl214H_cUd1intjVAeE1Mw
157,Chela Modern Mexican,Mexican,4.5,$$,408 5th Ave,40.67032,-73.98569,https://www.yelp.com/biz/chela-modern-mexican-brooklyn?adjust_creative=-uBzzloii2ivvF3N0jkhKQ&utm_campaign=yelp_api_v3&utm_medium=api_v3_business_search&utm_source=-uBzzloii2ivvF3N0jkhKQ,CfOBb6NU2awo8xclJpKU3g
158,Tacombi - Nolita,Mexican,3.5,$$,267 Elizabeth St,40.7240304,-73.9939028,https://www.yelp.com/biz/tacombi-nolita-new-york-3?adjust_creative=-uBzzloii2ivvF3N0jkhKQ&utm_campaign=yelp_api_v3&utm_medium=api_v3_business_search&utm_source=-uBzzloii2ivvF3N0jkhKQ,d7YbQzGlmawMGAzUHzZvuw
159,El Rio Grande,Mexican,3.5,$$,160 E 38th St,40.74826,-73.97669,https://www.yelp.com/biz/el-rio-grande-new-york?adjust_creative=-uBzzloii2ivvF3N0jkhKQ&utm_campaign=yelp_api_v3&utm_medium=api_v3_business_search&utm_source=-uBzzloii2ivvF3N0jkhKQ,VIIfYEzIppjps0K_J_8zLg
160,Top Quality,Mexican,,,10-29 44th Rd,40.74961,-73.94994,,
161,Mcondo Tacos,Mexican,4.0,$$,502 Grand St,40.7108323440285,-73.9509542539666,https://www.yelp.com/biz/mcondo-tacos-brooklyn?adjust_creative=-uBzzloii2ivvF3N0jkhKQ&utm_campaign=yelp_api_v3&utm_medium=api_v3_business_search&utm_source=-uBzzloii2ivvF3N0jkhKQ,4c4Uwb5yUqXJ-inkcDinIg
162,Tarachi,Mexican,,,222 Greene Ave,40.68697,-73.962191,,
163,The Black Ant,Mexican,4.0,$$,60 2nd Ave,40.72578,-73.98952,https://www.yelp.com/biz/the-black-ant-new-york-2?adjust_creative=-uBzzloii2ivvF3N0jkhKQ&utm_campaign=yelp_api_v3&utm_medium=api_v3_business_search&utm_source=-uBzzloii2ivvF3N0jkhKQ,0W0m68TNPbodGCA3PhIB4w
164,Sidewalk Tacos,Mexican,4.0,$,Bleecker & Thompson,40.7284088,-73.9996719,https://www.yelp.com/biz/sidewalk-tacos-new-york-3?adjust_creative=-uBzzloii2ivvF3N0jkhKQ&utm_campaign=yelp_api_v3&utm_medium=api_v3_business_search&utm_source=-uBzzloii2ivvF3N0jkhKQ,iUsk8CPoDyoBmwVdU1_9QQ
165,Mayamezcal,Mexican,4.0,$$,304 E 6th St,40.72711,-73.98817,https://www.yelp.com/biz/mayamezcal-new-york-2?adjust_creative=-uBzzloii2ivvF3N0jkhKQ&utm_campaign=yelp_api_v3&utm_medium=api_v3_business_search&utm_source=-uBzzloii2ivvF3N0jkhKQ,e7krRmyE5upHv2gsEOdR8w
166,Ponche Taqueria & Cantina,Mexican,4.0,$$,420 W 49th St,40.76319,-73.99045,https://www.yelp.com/biz/ponche-taqueria-and-cantina-new-york?adjust_creative=-uBzzloii2ivvF3N0jkhKQ&utm_campaign=yelp_api_v3&utm_medium=api_v3_business_search&utm_source=-uBzzloii2ivvF3N0jkhKQ,PAJdNrD4HFBN16OAFeDx4A
167,Purepecha,Mexican,4.0,$$,213 Smith St,40.68453,-73.99182,https://www.yelp.com/biz/purepecha-brooklyn?adjust_creative=-uBzzloii2ivvF3N0jkhKQ&utm_campaign=yelp_api_v3&utm_medium=api_v3_business_search&utm_source=-uBzzloii2ivvF3N0jkhKQ,1ux5rxwWjKxoXHUyGynwSg
168,Casa Enrique,Mexican,4.0,$$,5-48 49th Ave,40.743404338358,-73.954350367693,https://www.yelp.com/biz/casa-enrique-long-island-city?adjust_creative=-uBzzloii2ivvF3N0jkhKQ&utm_campaign=yelp_api_v3&utm_medium=api_v3_business_search&utm_source=-uBzzloii2ivvF3N0jkhKQ,dgaNriM1VdI2nGochhHE_g
169,Gran Electrica,Mexican,3.5,$$,5 Front St,40.7027,-73.99314,https://www.yelp.com/biz/gran-electrica-brooklyn-3?adjust_creative=-uBzzloii2ivvF3N0jkhKQ&utm_campaign=yelp_api_v3&utm_medium=api_v3_business_search&utm_source=-uBzzloii2ivvF3N0jkhKQ,f7g3GhoQs9nQVTJEL2p48Q
170,Panchos,Mexican,4.5,$,964 Amsterdam Ave,40.8015,-73.96534,https://www.yelp.com/biz/panchos-new-york-2?adjust_creative=-uBzzloii2ivvF3N0jkhKQ&utm_campaign=yelp_api_v3&utm_medium=api_v3_business_search&utm_source=-uBzzloii2ivvF3N0jkhKQ,DY2wlHlgC5eHITs-d5rT4w
171,Agave,Mexican,3.5,$$$,140 7th Ave S,40.734767,-74.002415,https://www.yelp.com/biz/agave-new-york?adjust_creative=-uBzzloii2ivvF3N0jkhKQ&utm_campaign=yelp_api_v3&utm_medium=api_v3_business_search&utm_source=-uBzzloii2ivvF3N0jkhKQ,QwL5LS436Xjo9MHFi2rc-g
172,Covacha,Mexican,4.5,$$,368 Columbus Ave,40.78110489839311,-73.97644500326436,https://www.yelp.com/biz/covacha-new-york?adjust_creative=-uBzzloii2ivvF3N0jkhKQ&utm_campaign=yelp_api_v3&utm_medium=api_v3_business_search&utm_source=-uBzzloii2ivvF3N0jkhKQ,BsDu_kup3lJ2QHb-Botpeg
173,Luchadores,Mexican,,,87 South St,40.70582,-74.00411,,
174,Temerario,Mexican,4.0,$$,198 8th Ave,40.7434133400872,-73.9996277220286,https://www.yelp.com/biz/temerario-new-york-2?adjust_creative=-uBzzloii2ivvF3N0jkhKQ&utm_campaign=yelp_api_v3&utm_medium=api_v3_business_search&utm_source=-uBzzloii2ivvF3N0jkhKQ,Ahx8GsuAGUl8TgqCWP7uXw
175,Taqueria Diana,Mexican,3.5,$,129 2nd Ave,40.7284337609976,-73.9879844318771,https://www.yelp.com/biz/taqueria-diana-new-york?adjust_creative=-uBzzloii2ivvF3N0jkhKQ&utm_campaign=yelp_api_v3&utm_medium=api_v3_business_search&utm_source=-uBzzloii2ivvF3N0jkhKQ,ifGXrRqs-zp6ek7LsoozrQ
176,DORADO Tacos & Quesadillas,Mexican,4.0,$,28 E 12th St,40.73396,-73.99312,https://www.yelp.com/biz/dorado-tacos-and-quesadillas-new-york-3?adjust_creative=-uBzzloii2ivvF3N0jkhKQ&utm_campaign=yelp_api_v3&utm_medium=api_v3_business_search&utm_source=-uBzzloii2ivvF3N0jkhKQ,SCQvI5pAJmD-OMm37kkS6Q
177,Tacombi - Flatiron,Mexican,4.0,$$,30 W 24th St,40.742807,-73.991138,https://www.yelp.com/biz/tacombi-flatiron-new-york-3?adjust_creative=-uBzzloii2ivvF3N0jkhKQ&utm_campaign=yelp_api_v3&utm_medium=api_v3_business_search&utm_source=-uBzzloii2ivvF3N0jkhKQ,ub2VfE7SRLJABAClzGZp3A
178,Ursula BK,New Mexican Cuisine,,,724 Sterling Pl,40.672656,-73.954677,,
179,Calexico - Upper East Side,Salad,4.0,$$,1491 2nd Ave,40.77259,-73.95588,https://www.yelp.com/biz/calexico-upper-east-side-new-york-2?adjust_creative=-uBzzloii2ivvF3N0jkhKQ&utm_campaign=yelp_api_v3&utm_medium=api_v3_business_search&utm_source=-uBzzloii2ivvF3N0jkhKQ,7bD22UAtH56ikWYslOSIQg
180,Los Mariscos,Seafood,4.5,$,409 W 15th St,40.74207,-74.00565,https://www.yelp.com/biz/los-mariscos-new-york?adjust_creative=-uBzzloii2ivvF3N0jkhKQ&utm_campaign=yelp_api_v3&utm_medium=api_v3_business_search&utm_source=-uBzzloii2ivvF3N0jkhKQ,L3REPLCvQpMapYPd_fkS-A
181,Boqueria Soho,Spanish,4.0,$$,171 Spring St,40.724912,-74.0021299,https://www.yelp.com/biz/boqueria-soho-new-york-2?adjust_creative=-uBzzloii2ivvF3N0jkhKQ&utm_campaign=yelp_api_v3&utm_medium=api_v3_business_search&utm_source=-uBzzloii2ivvF3N0jkhKQ,AIKjw2QLvVNdha3TciJYzg
182,El Born,Spanish,4.5,$$,651 Manhattan Ave,40.7243479163883,-73.9512226101037,https://www.yelp.com/biz/el-born-brooklyn?adjust_creative=-uBzzloii2ivvF3N0jkhKQ&utm_campaign=yelp_api_v3&utm_medium=api_v3_business_search&utm_source=-uBzzloii2ivvF3N0jkhKQ,gvMYV5E3HyzhN_MYFIMGzg
183,Los Tacos Al Pastor,Tacos,,,141 Front St,40.70254,-73.98736,,
184,Calabrije's Margaritas & Tacos,Tacos,4.0,$$,234 Starr St,40.7055429619569,-73.9225539192783,https://www.yelp.com/biz/calabrijes-margaritas-and-tacos-brooklyn?adjust_creative=-uBzzloii2ivvF3N0jkhKQ&utm_campaign=yelp_api_v3&utm_medium=api_v3_business_search&utm_source=-uBzzloii2ivvF3N0jkhKQ,-SYHh9DWvYuBZxkA4gfzHg
185,Sullivan Taqueria,Tacos,,,71 Sullivan St,40.72447,-74.0039,,
186,Mama Lupita's Bistro,Tacos,,,904 4th Ave,40.655989,-74.003119,,
187,La Taqueria,Tacos,,,572 Grand St,40.7112690867,-73.9489733333,,
188,Los Tacos No.1,Tacos,4.5,$,75 9th Ave,40.7425547,-74.0060838,https://www.yelp.com/biz/los-tacos-no-1-new-york?adjust_creative=-uBzzloii2ivvF3N0jkhKQ&utm_campaign=yelp_api_v3&utm_medium=api_v3_business_search&utm_source=-uBzzloii2ivvF3N0jkhKQ,jnEv25Y2DosTq2sNnvmC9g
189,San Pedro Inn,Tacos,4.0,$$,320 Van Brunt St,40.67908,-74.01106,https://www.yelp.com/biz/san-pedro-inn-brooklyn-2?adjust_creative=-uBzzloii2ivvF3N0jkhKQ&utm_campaign=yelp_api_v3&utm_medium=api_v3_business_search&utm_source=-uBzzloii2ivvF3N0jkhKQ,jfNc9_Of6ojLl4DVG9QKCw
190,Taqueria Fort Greene,Tacos,,,154 Carlton Ave,40.6930219027123,-73.9729583744799,,
191,Summer Salt,Tacos,,,30 East 23rd St,40.74057,-73.98768,,
192,Tacovision,Tacos,4.0,$$,244 E 53rd St,40.7568200311153,-73.9678929001093,https://www.yelp.com/biz/tacovision-new-york?adjust_creative=-uBzzloii2ivvF3N0jkhKQ&utm_campaign=yelp_api_v3&utm_medium=api_v3_business_search&utm_source=-uBzzloii2ivvF3N0jkhKQ,4UxmxAqehEIh7fYrzUEA7A
193,Alta,Tapas Bars,4.0,$$$,64 W 10th St,40.7345163811398,-73.9983369619683,https://www.yelp.com/biz/alta-new-york?adjust_creative=-uBzzloii2ivvF3N0jkhKQ&utm_campaign=yelp_api_v3&utm_medium=api_v3_business_search&utm_source=-uBzzloii2ivvF3N0jkhKQ,XEugUtbw4rRmGr9S1XA-aQ
194,Boqueria,Tapas/Small Plates,4.0,$$$,1460 2nd Ave,40.771522,-73.956073,https://www.yelp.com/biz/boqueria-new-york-16?adjust_creative=-uBzzloii2ivvF3N0jkhKQ&utm_campaign=yelp_api_v3&utm_medium=api_v3_business_search&utm_source=-uBzzloii2ivvF3N0jkhKQ,5S8ZK9XLdl4l645twbNYZQ
195,Yellow Rose,Tex-Mex,,,102 3rd Ave,40.732575,-73.98806909999999,,
196,Cowgirl Seahorse,Tex-Mex,4.0,$$,259 Front St,40.7081358,-74.0004532,https://www.yelp.com/biz/cowgirl-seahorse-new-york-2?adjust_creative=-uBzzloii2ivvF3N0jkhKQ&utm_campaign=yelp_api_v3&utm_medium=api_v3_business_search&utm_source=-uBzzloii2ivvF3N0jkhKQ,4zBGXDXg9DzK0IROwCUeFg
197,El Gallo Taqueria,Tex-Mex,4.0,$$,214 Highlawn Ave,40.6035151454871,-73.9779098353486,https://www.yelp.com/biz/el-gallo-taqueria-brooklyn-2?adjust_creative=-uBzzloii2ivvF3N0jkhKQ&utm_campaign=yelp_api_v3&utm_medium=api_v3_business_search&utm_source=-uBzzloii2ivvF3N0jkhKQ,_5G0SOM1ogWTsSmPBGRfzA
198,Caracas Arepa Bar,Venezuelan,4.0,$$,291 Grand St,40.713214,-73.957397,https://www.yelp.com/biz/caracas-arepa-bar-brooklyn?adjust_creative=-uBzzloii2ivvF3N0jkhKQ&utm_campaign=yelp_api_v3&utm_medium=api_v3_business_search&utm_source=-uBzzloii2ivvF3N0jkhKQ,tW8a8-MX_lVoshmKRLUuHQ
199,5ive Spice,Vietnamese,4.5,$$,227 Mulberry St,40.722598,-73.996272,https://www.yelp.com/biz/5ive-spice-new-york-2?adjust_creative=-uBzzloii2ivvF3N0jkhKQ&utm_campaign=yelp_api_v3&utm_medium=api_v3_business_search&utm_source=-uBzzloii2ivvF3N0jkhKQ,9fG8-RRh1rzuCKN2TmF-QQ
