,Restaurant,Type,Rating,Price,Address,Lat,Lng,url,ID
0,Carmelli,Bagels,4.0,£,126-128 Golders Green Road,51.5739863,-0.2007461,https://www.yelp.com/biz/carmelli-london?adjust_creative=-uBzzloii2ivvF3N0jkhKQ&utm_campaign=yelp_api_v3&utm_medium=api_v3_business_search&utm_source=-uBzzloii2ivvF3N0jkhKQ,1iZkMMh1PZnCjQhJLivG3Q
1,Sunflour Bakery,Bakeries,4.5,£,263 Caledonian Road,51.539747,-0.11718,https://www.yelp.com/biz/sunflour-bakery-london?adjust_creative=-uBzzloii2ivvF3N0jkhKQ&utm_campaign=yelp_api_v3&utm_medium=api_v3_business_search&utm_source=-uBzzloii2ivvF3N0jkhKQ,FATOg3vQpgbrl_20WySbqQ
2,The Breadstall,Bakeries,5.0,££,Northcote Road,51.456328,-0.165136,https://www.yelp.com/biz/the-breadstall-london-2?adjust_creative=-uBzzloii2ivvF3N0jkhKQ&utm_campaign=yelp_api_v3&utm_medium=api_v3_business_search&utm_source=-uBzzloii2ivvF3N0jkhKQ,mnRiHkVxRxL70m5IL1ReMw
3,Kastner and Ovens,Bakeries,4.5,£,52 Floral Street,51.5135034,-0.1227604,https://www.yelp.com/biz/kastner-and-ovens-london?adjust_creative=-uBzzloii2ivvF3N0jkhKQ&utm_campaign=yelp_api_v3&utm_medium=api_v3_business_search&utm_source=-uBzzloii2ivvF3N0jkhKQ,HXjHL0L7lqtQQ1KJ0ZKAug
4,Ottolenghi,Bakeries,4.0,££,63 Ledbury Road,51.514890823172,-0.19941762827537,https://www.yelp.com/biz/ottolenghi-london-3?adjust_creative=-uBzzloii2ivvF3N0jkhKQ&utm_campaign=yelp_api_v3&utm_medium=api_v3_business_search&utm_source=-uBzzloii2ivvF3N0jkhKQ,L-ZNTln24SoU_jYia4M19Q
5,Le Deli Robuchon,Bakeries,,,82 Piccadilly,51.5064442712487,-0.14376774430275,,
6,Konditor & Cook,Bakeries,4.5,££,9 Bow Lane,51.5130832,-0.0936692,https://www.yelp.com/biz/konditor-and-cook-london-2?adjust_creative=-uBzzloii2ivvF3N0jkhKQ&utm_campaign=yelp_api_v3&utm_medium=api_v3_business_search&utm_source=-uBzzloii2ivvF3N0jkhKQ,uwQVCV7lXyHM2uvwKei-Dw
7,Maison Ruget,Bakeries,,,148 Portobello Road,51.5148914,-0.2042632,,
8,Beigel Bake,Bakeries,4.0,£,159 Brick Lane,51.524391,-0.071726,https://www.yelp.com/biz/beigel-bake-london?adjust_creative=-uBzzloii2ivvF3N0jkhKQ&utm_campaign=yelp_api_v3&utm_medium=api_v3_business_search&utm_source=-uBzzloii2ivvF3N0jkhKQ,CrQcYS4nWWdXmSD1pxf_KA
9,Popina,Bakeries,,,82 Duke Street,51.5130134404197,-0.150612695002224,,
10,Laurents,Bakeries,4.5,£,39 Craven Road,51.513468,-0.179164,https://www.yelp.com/biz/laurents-london?adjust_creative=-uBzzloii2ivvF3N0jkhKQ&utm_campaign=yelp_api_v3&utm_medium=api_v3_business_search&utm_source=-uBzzloii2ivvF3N0jkhKQ,HAi7bThXmEtooc5ZQq9hdw
11,The Butter Bakery,Bakeries,4.5,££,219 Westbourne Park Road,51.5177900934312,-0.201469101011753,https://www.yelp.com/biz/the-butter-bakery-london?adjust_creative=-uBzzloii2ivvF3N0jkhKQ&utm_campaign=yelp_api_v3&utm_medium=api_v3_business_search&utm_source=-uBzzloii2ivvF3N0jkhKQ,Sxe2lUli3t_XA5aKYUqqkQ
12,Pâtisserie Deux Amis,Bakeries,4.0,££,63 Judd Street,51.526409002227,-0.12406009445317,https://www.yelp.com/biz/p%C3%A2tisserie-deux-amis-london-2?adjust_creative=-uBzzloii2ivvF3N0jkhKQ&utm_campaign=yelp_api_v3&utm_medium=api_v3_business_search&utm_source=-uBzzloii2ivvF3N0jkhKQ,7TETeEdYvewlhdjmMSwLdg
13,Paul,Bakeries,4.5,££,185 Earls Court Road,51.4922526690858,-0.192893868972578,https://www.yelp.com/biz/paul-london-46?adjust_creative=-uBzzloii2ivvF3N0jkhKQ&utm_campaign=yelp_api_v3&utm_medium=api_v3_business_search&utm_source=-uBzzloii2ivvF3N0jkhKQ,VQCzUGBY63yVE-FxLg6vqg
14,PAUL - Gloucester Road,Bakeries,4.5,£,73 Gloucester Road,51.4949745,-0.1825811,https://www.yelp.com/biz/paul-gloucester-road-london?adjust_creative=-uBzzloii2ivvF3N0jkhKQ&utm_campaign=yelp_api_v3&utm_medium=api_v3_business_search&utm_source=-uBzzloii2ivvF3N0jkhKQ,f4bEfbf1_VyZpLsvlonhMw
15,Maroush Bakehouse,Bakeries,4.5,££,131 Earls Court Road,51.49332,-0.194478,https://www.yelp.com/biz/maroush-bakehouse-london-6?adjust_creative=-uBzzloii2ivvF3N0jkhKQ&utm_campaign=yelp_api_v3&utm_medium=api_v3_business_search&utm_source=-uBzzloii2ivvF3N0jkhKQ,Da8ClETsPknyD-XIam-jbg
16,Chinatown Bakery,Bakeries,4.0,£,7 Newport Place,51.512026,-0.129721,https://www.yelp.com/biz/chinatown-bakery-london?adjust_creative=-uBzzloii2ivvF3N0jkhKQ&utm_campaign=yelp_api_v3&utm_medium=api_v3_business_search&utm_source=-uBzzloii2ivvF3N0jkhKQ,uCmXqPY3cOIHxda-HDxB0Q
17,Baker & Spice,Bakeries,4.0,££,54-56 Elizabeth Street,51.4936,-0.150758,https://www.yelp.com/biz/baker-and-spice-london?adjust_creative=-uBzzloii2ivvF3N0jkhKQ&utm_campaign=yelp_api_v3&utm_medium=api_v3_business_search&utm_source=-uBzzloii2ivvF3N0jkhKQ,jIuiv7VJkAAM5bRCuKNozg
18,Paul,Bakeries,4.0,£,122 Brompton Road,51.4990676958953,-0.165139898919551,https://www.yelp.com/biz/paul-london-3?adjust_creative=-uBzzloii2ivvF3N0jkhKQ&utm_campaign=yelp_api_v3&utm_medium=api_v3_business_search&utm_source=-uBzzloii2ivvF3N0jkhKQ,DUS7Nz3429d2iv0q-Jky9A
19,Dominique Ansel Treehouse,Bakeries,,,24 Floral Street,51.5119045680643,-0.12540479881136,,
20,GAIL's Bakery - Pimlico,Bakeries,,,26 Churton Street,51.4917627846861,-0.139058523838447,,
21,GAIL's Bakery Hampstead,Bakeries,4.5,££,64 Hampstead High Street,51.5561216,-0.1779628,https://www.yelp.com/biz/gails-bakery-hampstead-london?adjust_creative=-uBzzloii2ivvF3N0jkhKQ&utm_campaign=yelp_api_v3&utm_medium=api_v3_business_search&utm_source=-uBzzloii2ivvF3N0jkhKQ,1OcBgrUzPgp82BfZBUKRow
22,Borneo Cafe & Bakery,Bakeries,,,29A Green Lanes,51.6091035627186,-0.11024683713913,,
23,Boxcar Baker & Deli,Bakeries,4.0,££,7A Wyndham Place,51.5195266,-0.161565,https://www.yelp.com/biz/boxcar-baker-and-deli-london?adjust_creative=-uBzzloii2ivvF3N0jkhKQ&utm_campaign=yelp_api_v3&utm_medium=api_v3_business_search&utm_source=-uBzzloii2ivvF3N0jkhKQ,TB31gU2v3mFZphYYN-xecg
24,Little Bread Pedlar,Bakeries,4.0,£,Unit 5,51.4955192,-0.0692471,https://www.yelp.com/biz/little-bread-pedlar-london?adjust_creative=-uBzzloii2ivvF3N0jkhKQ&utm_campaign=yelp_api_v3&utm_medium=api_v3_business_search&utm_source=-uBzzloii2ivvF3N0jkhKQ,klqP4NUFEl9kA6DIyRHpjA
25,GAIL's Bakery Belsize Park,Bakeries,3.5,£,167 Haverstock Hill,51.5498302,-0.1646677,https://www.yelp.com/biz/gails-bakery-belsize-park-london-3?adjust_creative=-uBzzloii2ivvF3N0jkhKQ&utm_campaign=yelp_api_v3&utm_medium=api_v3_business_search&utm_source=-uBzzloii2ivvF3N0jkhKQ,D21Iu0qiqjvFWVHgs3JyhQ
26,Paul Tregeser,Bakeries,,,203 Shirland Road W,51.527797,-0.196849,,
27,Baker & Spice,Bakeries,4.0,££,47 Denyer Street,51.4939913,-0.164682,https://www.yelp.com/biz/baker-and-spice-london-2?adjust_creative=-uBzzloii2ivvF3N0jkhKQ&utm_campaign=yelp_api_v3&utm_medium=api_v3_business_search&utm_source=-uBzzloii2ivvF3N0jkhKQ,L5bYiNsHg-hKJraeFXBSYA
28,Old Post Office Bakery,Bakeries,4.5,££,76 Landor Road,51.465915224149,-0.12510033116717,https://www.yelp.com/biz/old-post-office-bakery-london?adjust_creative=-uBzzloii2ivvF3N0jkhKQ&utm_campaign=yelp_api_v3&utm_medium=api_v3_business_search&utm_source=-uBzzloii2ivvF3N0jkhKQ,X8UxGRF_ju6cfIB2fZizqQ
29,GAIL's Bakery St John's Wood,Bakeries,4.0,££,5 Circus Road,51.5336595,-0.171694,https://www.yelp.com/biz/gails-bakery-st-johns-wood-london-3?adjust_creative=-uBzzloii2ivvF3N0jkhKQ&utm_campaign=yelp_api_v3&utm_medium=api_v3_business_search&utm_source=-uBzzloii2ivvF3N0jkhKQ,6DwwLF424xP7VTPNznVTYQ
30,West Cornwall Pasty,Bakeries,,,Fulham Broadway Station,51.4801748,-0.1949885,,
31,Paul,Bakeries,4.0,£,55 Baker Street,51.519155,-0.156502,https://www.yelp.com/biz/paul-london-15?adjust_creative=-uBzzloii2ivvF3N0jkhKQ&utm_campaign=yelp_api_v3&utm_medium=api_v3_business_search&utm_source=-uBzzloii2ivvF3N0jkhKQ,bCkjiJ6wM3vFBebsu9PtgA
32,Pophams Bakery,Bakeries,,,19 Prebend Street,51.5365399339192,-0.096091953563201,,
33,Pierre Herme,Bakeries,4.5,£££,38 Monmouth Street,51.5134164873925,-0.127191884385164,https://www.yelp.com/biz/pierre-herme-london-3?adjust_creative=-uBzzloii2ivvF3N0jkhKQ&utm_campaign=yelp_api_v3&utm_medium=api_v3_business_search&utm_source=-uBzzloii2ivvF3N0jkhKQ,zOcwqHpSKnEMonZxrJiM4g
34,St. John Bread & Wine,Bakeries,4.5,££,94-96 Commercial Street,51.5196695,-0.074299,https://www.yelp.com/biz/st-john-bread-and-wine-london?adjust_creative=-uBzzloii2ivvF3N0jkhKQ&utm_campaign=yelp_api_v3&utm_medium=api_v3_business_search&utm_source=-uBzzloii2ivvF3N0jkhKQ,m3vdBGC0X94sG_5pglDcjQ
35,Bread Ahead,Bakeries,3.0,£,21 Beak Street,51.5121612401552,-0.138188934487744,https://www.yelp.com/biz/bread-ahead-london-6?adjust_creative=-uBzzloii2ivvF3N0jkhKQ&utm_campaign=yelp_api_v3&utm_medium=api_v3_business_search&utm_source=-uBzzloii2ivvF3N0jkhKQ,9suEi8Hch0YjqnDNtBxhdQ
36,GAIL's Bakery - Bloomsbury,Bakeries,4.5,£,11-13 Bayley Street,51.5188693,-0.131913,https://www.yelp.com/biz/gails-bakery-bloomsbury-london-3?adjust_creative=-uBzzloii2ivvF3N0jkhKQ&utm_campaign=yelp_api_v3&utm_medium=api_v3_business_search&utm_source=-uBzzloii2ivvF3N0jkhKQ,3PeQF-J_j89dcLcC0P5o4A
37,Bagel Delight Bakery,Bakeries,4.5,£,155 Cricklewood Broadway,51.556003,-0.214833,https://www.yelp.com/biz/bagel-delight-bakery-london?adjust_creative=-uBzzloii2ivvF3N0jkhKQ&utm_campaign=yelp_api_v3&utm_medium=api_v3_business_search&utm_source=-uBzzloii2ivvF3N0jkhKQ,8il2IaM8wmi2MUPMbk5SRA
38,Arif Bakery,Bakeries,4.0,£,212 Walworth Road,51.4890362,-0.0964018,https://www.yelp.com/biz/arif-bakery-london?adjust_creative=-uBzzloii2ivvF3N0jkhKQ&utm_campaign=yelp_api_v3&utm_medium=api_v3_business_search&utm_source=-uBzzloii2ivvF3N0jkhKQ,uUW5p5Y1eyp3fQ5_fXV8Hw
39,Slice Street Bakery,Bakeries,,,St John's Road,51.462387579162,-0.167677961289883,,
40,Ladurée,Bakeries,4.0,£££,1 The Market,51.51184286271,-0.123133037598674,https://www.yelp.com/biz/ladur%C3%A9e-london-12?adjust_creative=-uBzzloii2ivvF3N0jkhKQ&utm_campaign=yelp_api_v3&utm_medium=api_v3_business_search&utm_source=-uBzzloii2ivvF3N0jkhKQ,5_0GHVzaA2tgzHSvFt5idw
41,Manna Dew,Bakeries,,,169 Battersea High Street,51.470635,-0.172092,,
42,GAIL's Bakery Seymour Place,Bakeries,4.5,££,4-6 Seymour Place,51.514595,-0.160964,https://www.yelp.com/biz/gails-bakery-seymour-place-london-4?adjust_creative=-uBzzloii2ivvF3N0jkhKQ&utm_campaign=yelp_api_v3&utm_medium=api_v3_business_search&utm_source=-uBzzloii2ivvF3N0jkhKQ,LgKc7xGArsmxAw6xUQ2mYA
43,Dominique Ansel Bakery,Bakeries,4.0,££,17-21 Elizabeth Street,51.4926912521198,-0.149131484387577,https://www.yelp.com/biz/dominique-ansel-bakery-victoria?adjust_creative=-uBzzloii2ivvF3N0jkhKQ&utm_campaign=yelp_api_v3&utm_medium=api_v3_business_search&utm_source=-uBzzloii2ivvF3N0jkhKQ,9gqKbR6JK79zTc5RDLP_4A
44,Aux Merveilleux de Fred,Bakeries,4.5,£,88 Old Brompton Road,51.4924431,-0.1778994,https://www.yelp.com/biz/aux-merveilleux-de-fred-london?adjust_creative=-uBzzloii2ivvF3N0jkhKQ&utm_campaign=yelp_api_v3&utm_medium=api_v3_business_search&utm_source=-uBzzloii2ivvF3N0jkhKQ,BZ96WsFu82jq65zs4Y2MsQ
45,The Hummingbird Bakery,Bakeries,4.0,££,133 Portobello Road,51.5140019,-0.2038738,https://www.yelp.com/biz/the-hummingbird-bakery-london-2?adjust_creative=-uBzzloii2ivvF3N0jkhKQ&utm_campaign=yelp_api_v3&utm_medium=api_v3_business_search&utm_source=-uBzzloii2ivvF3N0jkhKQ,QyYFRNphu0fICXNfZjD_AA
46,Rinkoff Bakeries,Bakeries,4.5,£,224 Jubilee Street,51.5198880062398,-0.0530246183202313,https://www.yelp.com/biz/rinkoff-bakeries-london-2?adjust_creative=-uBzzloii2ivvF3N0jkhKQ&utm_campaign=yelp_api_v3&utm_medium=api_v3_business_search&utm_source=-uBzzloii2ivvF3N0jkhKQ,OLXnVhh19HtAnbywQzD3zw
47,The Pasty Shop,Bakeries,4.5,£,Victoria Street Station,51.4962890220788,-0.143927823389436,https://www.yelp.com/biz/the-pasty-shop-london?adjust_creative=-uBzzloii2ivvF3N0jkhKQ&utm_campaign=yelp_api_v3&utm_medium=api_v3_business_search&utm_source=-uBzzloii2ivvF3N0jkhKQ,EbT5viLW9ujk9iQ73CJcmQ
48,St. John Bakery,Bakeries,,,3 Neal's Yard,51.5143596884016,-0.126515915278274,,
49,Konditor,Bakeries,4.5,££,22 Cornwall Rd,51.5042899533514,-0.110367141112856,https://www.yelp.com/biz/konditor-london?adjust_creative=-uBzzloii2ivvF3N0jkhKQ&utm_campaign=yelp_api_v3&utm_medium=api_v3_business_search&utm_source=-uBzzloii2ivvF3N0jkhKQ,1epk2D1-2-g08GAntFlySg
50,The Hummingbird Bakery,Bakeries,4.0,££,155a Wardour Street,51.5144372642472,-0.134845145998042,https://www.yelp.com/biz/the-hummingbird-bakery-london-4?adjust_creative=-uBzzloii2ivvF3N0jkhKQ&utm_campaign=yelp_api_v3&utm_medium=api_v3_business_search&utm_source=-uBzzloii2ivvF3N0jkhKQ,x3xVIhjTy6jZ8PhKVqYjIw
51,Paul,Bakeries,4.0,££,173 Piccadilly Arcade,51.508135,-0.139246,https://www.yelp.com/biz/paul-london-28?adjust_creative=-uBzzloii2ivvF3N0jkhKQ&utm_campaign=yelp_api_v3&utm_medium=api_v3_business_search&utm_source=-uBzzloii2ivvF3N0jkhKQ,XLZZ1MsocZiXavD39zfHgg
52,Aux Pains de Papy,Bakeries,5.0,£,279 Grays Inn Rd,51.5273865,-0.1184675,https://www.yelp.com/biz/aux-pains-de-papy-london?adjust_creative=-uBzzloii2ivvF3N0jkhKQ&utm_campaign=yelp_api_v3&utm_medium=api_v3_business_search&utm_source=-uBzzloii2ivvF3N0jkhKQ,wh4R2zTxcjZw4JcQFNBtog
53,Bread Ahead,Bakeries,4.5,£,Borough Market,51.5061427,-0.090258,https://www.yelp.com/biz/bread-ahead-london-3?adjust_creative=-uBzzloii2ivvF3N0jkhKQ&utm_campaign=yelp_api_v3&utm_medium=api_v3_business_search&utm_source=-uBzzloii2ivvF3N0jkhKQ,KZd0pTzAhKbIs9Lg94Delg
54,St John Bakery,Bakeries,4.0,££,72 Druid St,51.499488,-0.075961,https://www.yelp.com/biz/st-john-bakery-london-2?adjust_creative=-uBzzloii2ivvF3N0jkhKQ&utm_campaign=yelp_api_v3&utm_medium=api_v3_business_search&utm_source=-uBzzloii2ivvF3N0jkhKQ,C3Dp2ONw3fntVgUTwCjHLg
55,Nordic Bakery,Bakeries,3.5,££,14 Golden Square,51.5114297969411,-0.13674108684063,https://www.yelp.com/biz/nordic-bakery-london?adjust_creative=-uBzzloii2ivvF3N0jkhKQ&utm_campaign=yelp_api_v3&utm_medium=api_v3_business_search&utm_source=-uBzzloii2ivvF3N0jkhKQ,Sh_PrXavTAk2d5jTs_onuQ
56,Camden Bakery,Bakeries,4.5,£,94 Camden High Street,51.5370833,-0.1407642,https://www.yelp.com/biz/camden-bakery-london?adjust_creative=-uBzzloii2ivvF3N0jkhKQ&utm_campaign=yelp_api_v3&utm_medium=api_v3_business_search&utm_source=-uBzzloii2ivvF3N0jkhKQ,pa2j9BlCHH8mRIk-TtD6UQ
57,Ottolenghi,Bakeries,4.0,££,13 Motcomb Street,51.4995017,-0.1566887,https://www.yelp.com/biz/ottolenghi-london-2?adjust_creative=-uBzzloii2ivvF3N0jkhKQ&utm_campaign=yelp_api_v3&utm_medium=api_v3_business_search&utm_source=-uBzzloii2ivvF3N0jkhKQ,kAgxFPCeNiZeiKc9POkiOg
58,Fabrique Bakery,Bakeries,4.5,££,Arch 385,51.5321125496558,-0.0760506578224951,https://www.yelp.com/biz/fabrique-bakery-london?adjust_creative=-uBzzloii2ivvF3N0jkhKQ&utm_campaign=yelp_api_v3&utm_medium=api_v3_business_search&utm_source=-uBzzloii2ivvF3N0jkhKQ,6Hc37w-thLXw4_pD3mZdJA
59,GAIL's Bakery Soho,Bakeries,4.0,££,128 Wardour Street,51.5143112170147,-0.134518146514893,https://www.yelp.com/biz/gails-bakery-soho-london?adjust_creative=-uBzzloii2ivvF3N0jkhKQ&utm_campaign=yelp_api_v3&utm_medium=api_v3_business_search&utm_source=-uBzzloii2ivvF3N0jkhKQ,in1fuQDAfRBIb7cGnOEviA
60,Patisserie Sainte Anne,Bakeries,5.0,£,204 King Street,51.4930805319587,-0.236022540998695,https://www.yelp.com/biz/patisserie-sainte-anne-london?adjust_creative=-uBzzloii2ivvF3N0jkhKQ&utm_campaign=yelp_api_v3&utm_medium=api_v3_business_search&utm_source=-uBzzloii2ivvF3N0jkhKQ,3ZWC6EkdLcUe80Vq097Bfg
61,GAIL's Bakery Neo Bankside,Breakfast & Brunch,4.5,££,Unit C Neo Bankside,51.5066352772979,-0.100412668500134,https://www.yelp.com/biz/gails-bakery-neo-bankside-london?adjust_creative=-uBzzloii2ivvF3N0jkhKQ&utm_campaign=yelp_api_v3&utm_medium=api_v3_business_search&utm_source=-uBzzloii2ivvF3N0jkhKQ,U_XeFWW1Lttdq22txTABMw
62,The Orangery,British,4.0,£££,Kensington Palace,51.5066360577041,-0.187725349125042,https://www.yelp.com/biz/the-orangery-london-7?adjust_creative=-uBzzloii2ivvF3N0jkhKQ&utm_campaign=yelp_api_v3&utm_medium=api_v3_business_search&utm_source=-uBzzloii2ivvF3N0jkhKQ,PBFvhVyBi0lEJyTbyuxf5w
63,Scooter Caffè,Cafes,4.5,£,132 Lower Marsh,51.500341224864,-0.11381534473676,https://www.yelp.com/biz/scooter-caff%C3%A8-london-2?adjust_creative=-uBzzloii2ivvF3N0jkhKQ&utm_campaign=yelp_api_v3&utm_medium=api_v3_business_search&utm_source=-uBzzloii2ivvF3N0jkhKQ,iXVq9PcCT-a34FzaXbUagA
64,Mimos Cafe,Cafes,4.0,£,19 London Street,51.5150959,-0.174005,https://www.yelp.com/biz/mimos-cafe-london?adjust_creative=-uBzzloii2ivvF3N0jkhKQ&utm_campaign=yelp_api_v3&utm_medium=api_v3_business_search&utm_source=-uBzzloii2ivvF3N0jkhKQ,3ViNQObKHR6l02hkvBFClw
65,Benugo,Cafes,4.5,£,33 Commercial Road,51.5149431,-0.0681656,https://www.yelp.com/biz/benugo-london-20?adjust_creative=-uBzzloii2ivvF3N0jkhKQ&utm_campaign=yelp_api_v3&utm_medium=api_v3_business_search&utm_source=-uBzzloii2ivvF3N0jkhKQ,VoN5pEsu3kre_EJ0ARro7g
66,Le Cordon Bleu,Cafes,4.5,£,15 Bloomsbury Square,51.5189056,-0.1237716,https://www.yelp.com/biz/le-cordon-bleu-london-3?adjust_creative=-uBzzloii2ivvF3N0jkhKQ&utm_campaign=yelp_api_v3&utm_medium=api_v3_business_search&utm_source=-uBzzloii2ivvF3N0jkhKQ,GWeEuO9SvFKldRJBVJFBcw
67,Regency Café,Cafes,4.5,£,17-19 Regency Street,51.4940143171,-0.13222007974201,https://www.yelp.com/biz/regency-caf%C3%A9-london-2?adjust_creative=-uBzzloii2ivvF3N0jkhKQ&utm_campaign=yelp_api_v3&utm_medium=api_v3_business_search&utm_source=-uBzzloii2ivvF3N0jkhKQ,YNduANMPzIVE8CzBH7YjEQ
68,Élan Cafe,Cafes,3.0,££,239 Brompton Road,51.4966404103307,-0.168716306698447,https://www.yelp.com/biz/%C3%A9lan-cafe-london?adjust_creative=-uBzzloii2ivvF3N0jkhKQ&utm_campaign=yelp_api_v3&utm_medium=api_v3_business_search&utm_source=-uBzzloii2ivvF3N0jkhKQ,OfVWxtafTQQ0am4JC8aOLQ
69,Milk Bar,Cafes,4.0,££,3 Bateman Street,51.514162886575,-0.13126851745979,https://www.yelp.com/biz/milk-bar-london?adjust_creative=-uBzzloii2ivvF3N0jkhKQ&utm_campaign=yelp_api_v3&utm_medium=api_v3_business_search&utm_source=-uBzzloii2ivvF3N0jkhKQ,Gyxs4y3aofIAjAWGaPNmrQ
70,L'eto Caffe,Cafes,4.5,£££,149 King's Road,51.48794,-0.167225,https://www.yelp.com/biz/l-eto-caffe-london-6?adjust_creative=-uBzzloii2ivvF3N0jkhKQ&utm_campaign=yelp_api_v3&utm_medium=api_v3_business_search&utm_source=-uBzzloii2ivvF3N0jkhKQ,Qk9CwHdpFgYo1Za77yfPtQ
71,Rochelle Canteen,Cafes,4.0,££,16 Playground Gardens,51.5256247386258,-0.0741839616935067,https://www.yelp.com/biz/rochelle-canteen-london?adjust_creative=-uBzzloii2ivvF3N0jkhKQ&utm_campaign=yelp_api_v3&utm_medium=api_v3_business_search&utm_source=-uBzzloii2ivvF3N0jkhKQ,-u5a56uMO4bAHlDXgCQ2tQ
72,L'Eto Caffe,Cafes,4.0,££,155 Wardour Street,51.514301,-0.134786,https://www.yelp.com/biz/l-eto-caffe-london?adjust_creative=-uBzzloii2ivvF3N0jkhKQ&utm_campaign=yelp_api_v3&utm_medium=api_v3_business_search&utm_source=-uBzzloii2ivvF3N0jkhKQ,J38s3iokvd30sRGi5uB9lA
73,Cafe de Nata,Cafes,,,25 Old Compton Street,51.5130772,-0.1312998,,
74,Mihbaj Café & Kitchen,Cafes,4.5,££,153 Praed Street,51.516163,-0.1744713,https://www.yelp.com/biz/mihbaj-caf%C3%A9-and-kitchen-london?adjust_creative=-uBzzloii2ivvF3N0jkhKQ&utm_campaign=yelp_api_v3&utm_medium=api_v3_business_search&utm_source=-uBzzloii2ivvF3N0jkhKQ,cFCAYrs6LX17ucDFEWMXLg
75,Fortitude Bakehouse,Cafes,,,35 Colonnade,51.5229210884015,-0.124047992374525,,
76,Long Shot Coffee,Cafes,4.5,£,127 Leman Street,51.5117874,-0.0687977,https://www.yelp.com/biz/long-shot-coffee-london?adjust_creative=-uBzzloii2ivvF3N0jkhKQ&utm_campaign=yelp_api_v3&utm_medium=api_v3_business_search&utm_source=-uBzzloii2ivvF3N0jkhKQ,39nGPmVcnpp3RaenmlfZCQ
77,My Place Soho,Cafes,4.5,££,21 Berwick Street,51.5138405,-0.1346902,https://www.yelp.com/biz/my-place-soho-london?adjust_creative=-uBzzloii2ivvF3N0jkhKQ&utm_campaign=yelp_api_v3&utm_medium=api_v3_business_search&utm_source=-uBzzloii2ivvF3N0jkhKQ,fp5po-wno5RLU4Rz0q0h-w
78,Seoul Bakery,Cafes,4.5,£,14 Great Russell Street,51.517237,-0.129569,https://www.yelp.com/biz/seoul-bakery-london-3?adjust_creative=-uBzzloii2ivvF3N0jkhKQ&utm_campaign=yelp_api_v3&utm_medium=api_v3_business_search&utm_source=-uBzzloii2ivvF3N0jkhKQ,WotOpvaXPZW2Yx-dzoK73w
79,Pavilion Cafe,Cafes,,,18 Broadway Market,51.5364813172579,-0.0618335538444681,,
80,Patisserie Valerie,Cafes,3.5,££,15 Bedford Street,51.5105155,-0.1244745,https://www.yelp.com/biz/patisserie-valerie-london-48?adjust_creative=-uBzzloii2ivvF3N0jkhKQ&utm_campaign=yelp_api_v3&utm_medium=api_v3_business_search&utm_source=-uBzzloii2ivvF3N0jkhKQ,O-a4dCQH0ylxYt8pnA4byQ
81,The Kennington Coffee Shop,Cafes,,,173 Kennington Road,51.4927224,-0.1104432,,
82,D1 Coffee,Cafes,5.0,££,1 Aberdeen Place,51.5248684,-0.1763357,https://www.yelp.com/biz/d1-coffee-little-venice?adjust_creative=-uBzzloii2ivvF3N0jkhKQ&utm_campaign=yelp_api_v3&utm_medium=api_v3_business_search&utm_source=-uBzzloii2ivvF3N0jkhKQ,DXMoezQ1WxA-lzvSNPg6Og
83,Ole & Steen,Cafes,,,1 Bedford Avenue,51.517686,-0.13121,,
84,The Wolseley,Cafes,4.0,£££,160 Picadilly,51.507617,-0.141012,https://www.yelp.com/biz/the-wolseley-london?adjust_creative=-uBzzloii2ivvF3N0jkhKQ&utm_campaign=yelp_api_v3&utm_medium=api_v3_business_search&utm_source=-uBzzloii2ivvF3N0jkhKQ,e5jPAqpCcIAsTtasUN5h2g
85,Le Montmartre,Caterers,,,59-60 Cornhill,51.5133389,-0.0843126,,
86,Harrods Food Hall,Cheese Shops,4.0,£££,87-135 Brompton Road,51.4990917420527,-0.162348972665107,https://www.yelp.com/biz/harrods-food-hall-london?adjust_creative=-uBzzloii2ivvF3N0jkhKQ&utm_campaign=yelp_api_v3&utm_medium=api_v3_business_search&utm_source=-uBzzloii2ivvF3N0jkhKQ,nHMn6sJQEj1c2cnGThyvvg
87,Said,Chocolatiers & Shops,4.0,££,41 Broadwick Street,51.5132248,-0.136738,https://www.yelp.com/biz/said-london?adjust_creative=-uBzzloii2ivvF3N0jkhKQ&utm_campaign=yelp_api_v3&utm_medium=api_v3_business_search&utm_source=-uBzzloii2ivvF3N0jkhKQ,Z_KQWTzlUVWjVoFd0b77aw
88,The Little One,Coffee & Tea,4.0,££,115 Regent's Park Road,51.5426041,-0.1555134,https://www.yelp.com/biz/the-little-one-london?adjust_creative=-uBzzloii2ivvF3N0jkhKQ&utm_campaign=yelp_api_v3&utm_medium=api_v3_business_search&utm_source=-uBzzloii2ivvF3N0jkhKQ,IfyCqU5noJALqrXTGKnQsQ
89,Notes,Coffee & Tea,4.0,££,31 St Martin's Lane,51.5095536,-0.1267229,https://www.yelp.com/biz/notes-london-4?adjust_creative=-uBzzloii2ivvF3N0jkhKQ&utm_campaign=yelp_api_v3&utm_medium=api_v3_business_search&utm_source=-uBzzloii2ivvF3N0jkhKQ,X0Bw6wgjhmAZraXvPdLELQ
90,Workshop Coffee,Coffee & Tea,4.5,££,80 A Mortimer Street,51.517581,-0.142626,https://www.yelp.com/biz/workshop-coffee-london-2?adjust_creative=-uBzzloii2ivvF3N0jkhKQ&utm_campaign=yelp_api_v3&utm_medium=api_v3_business_search&utm_source=-uBzzloii2ivvF3N0jkhKQ,qVpaMQ1s6wqRe2A3K2Ptew
91,Fuckoffee,Coffee & Tea,4.0,£,163-167 Bermondsey Street,51.4993814,-0.0812485,https://www.yelp.com/biz/fuckoffee-london-3?adjust_creative=-uBzzloii2ivvF3N0jkhKQ&utm_campaign=yelp_api_v3&utm_medium=api_v3_business_search&utm_source=-uBzzloii2ivvF3N0jkhKQ,-22PaX8rQyh0ZQrdCiDz4A
92,Etna Coffee,Coffee & Tea,4.5,£,54 Baker Street,51.5188887,-0.1558085,https://www.yelp.com/biz/etna-coffee-london?adjust_creative=-uBzzloii2ivvF3N0jkhKQ&utm_campaign=yelp_api_v3&utm_medium=api_v3_business_search&utm_source=-uBzzloii2ivvF3N0jkhKQ,euPJ7RVjrni8E_HcM85dUw
93,Momento,Coffee & Tea,4.5,£,159 Praed Street,51.5164189,-0.1738711,https://www.yelp.com/biz/momento-london-2?adjust_creative=-uBzzloii2ivvF3N0jkhKQ&utm_campaign=yelp_api_v3&utm_medium=api_v3_business_search&utm_source=-uBzzloii2ivvF3N0jkhKQ,G9fziI6-xivwIobgudOtaQ
94,Mariage Freres,Coffee & Tea,,,38 King Street,51.5118571,-0.1243388,,
95,Four Corners Cafe,Coffee & Tea,4.0,£,12 Lower Marsh,51.5003689,-0.1135442,https://www.yelp.com/biz/four-corners-cafe-london-2?adjust_creative=-uBzzloii2ivvF3N0jkhKQ&utm_campaign=yelp_api_v3&utm_medium=api_v3_business_search&utm_source=-uBzzloii2ivvF3N0jkhKQ,4rpkLLSPzVRqdHlM9_-9Cw
96,Sun Luen,Coffee & Tea,4.0,£,14 Little Newport Street,51.511843,-0.12901,https://www.yelp.com/biz/sun-luen-london-2?adjust_creative=-uBzzloii2ivvF3N0jkhKQ&utm_campaign=yelp_api_v3&utm_medium=api_v3_business_search&utm_source=-uBzzloii2ivvF3N0jkhKQ,dpJpZsb1zuTcEDUPoI4C4Q
97,Hagen,Coffee & Tea,,,151 King's Road,51.4878836,-0.1671998,,
98,Crumpets,Coffee & Tea,4.0,£,82 Buckingham Gate,51.4991936,-0.1382647,https://www.yelp.com/biz/crumpets-london?adjust_creative=-uBzzloii2ivvF3N0jkhKQ&utm_campaign=yelp_api_v3&utm_medium=api_v3_business_search&utm_source=-uBzzloii2ivvF3N0jkhKQ,MY5vPpDxJFPzj-wR4_pUsg
99,Euphorium Bakery,Coffee & Tea,3.5,£,79 Upper Street,51.5365826,-0.1035965,https://www.yelp.com/biz/euphorium-bakery-london-6?adjust_creative=-uBzzloii2ivvF3N0jkhKQ&utm_campaign=yelp_api_v3&utm_medium=api_v3_business_search&utm_source=-uBzzloii2ivvF3N0jkhKQ,DY2qHkTlkWB8UVxnaCWj-w
100,Montparnasse Cafe,Coffee & Tea,4.5,£,22 Thackeray Street,51.5005205,-0.1885342,https://www.yelp.com/biz/montparnasse-cafe-london-2?adjust_creative=-uBzzloii2ivvF3N0jkhKQ&utm_campaign=yelp_api_v3&utm_medium=api_v3_business_search&utm_source=-uBzzloii2ivvF3N0jkhKQ,riWepzZEIHj82UiDk_WVLQ
101,Urban Baristas,Coffee & Tea,4.5,££,11 Queensway,51.5108318662288,-0.187354646623135,https://www.yelp.com/biz/urban-baristas-london-2?adjust_creative=-uBzzloii2ivvF3N0jkhKQ&utm_campaign=yelp_api_v3&utm_medium=api_v3_business_search&utm_source=-uBzzloii2ivvF3N0jkhKQ,ZDDEKWdrpjJHqX2d0InVMg
102,The Pastry Parlour,Coffee & Tea,5.0,££,8 Piazza Walk,51.513553,-0.069471,https://www.yelp.com/biz/the-pastry-parlour-london?adjust_creative=-uBzzloii2ivvF3N0jkhKQ&utm_campaign=yelp_api_v3&utm_medium=api_v3_business_search&utm_source=-uBzzloii2ivvF3N0jkhKQ,-X11ta8_G08LraoZJoHFaA
103,The English Rose Cafe and Tea Shop,Coffee & Tea,4.5,££,4 Lower Grosvenor Place,51.4980558,-0.1444512,https://www.yelp.com/biz/the-english-rose-cafe-and-tea-shop-london?adjust_creative=-uBzzloii2ivvF3N0jkhKQ&utm_campaign=yelp_api_v3&utm_medium=api_v3_business_search&utm_source=-uBzzloii2ivvF3N0jkhKQ,BjPq77aiaKZAVUHIu2S3gA
104,Bäkehaus,Coffee & Tea,4.5,£,71 King Street,51.4926600176647,-0.227837562561035,https://www.yelp.com/biz/b%C3%A4kehaus-london-2?adjust_creative=-uBzzloii2ivvF3N0jkhKQ&utm_campaign=yelp_api_v3&utm_medium=api_v3_business_search&utm_source=-uBzzloii2ivvF3N0jkhKQ,rQKDeNCx8LkUR12YH9LpVg
105,The Gentlemen Baristas,Coffee & Tea,4.5,£,63 Union Street,51.503841999477,-0.0947035655992168,https://www.yelp.com/biz/the-gentlemen-baristas-london?adjust_creative=-uBzzloii2ivvF3N0jkhKQ&utm_campaign=yelp_api_v3&utm_medium=api_v3_business_search&utm_source=-uBzzloii2ivvF3N0jkhKQ,XN7K4g1Wq-93WYvg85EgMg
106,Konditor,Coffee & Tea,4.0,££,46 Gray's Inn Rd,51.51969,-0.111929,https://www.yelp.com/biz/konditor-and-cook-london?adjust_creative=-uBzzloii2ivvF3N0jkhKQ&utm_campaign=yelp_api_v3&utm_medium=api_v3_business_search&utm_source=-uBzzloii2ivvF3N0jkhKQ,-PAvIOieAnJH9ZZwZCR2iQ
107,Paul,Coffee & Tea,4.0,££,Paternoster Lodge,51.51468,-0.09843,https://www.yelp.com/biz/paul-london-32?adjust_creative=-uBzzloii2ivvF3N0jkhKQ&utm_campaign=yelp_api_v3&utm_medium=api_v3_business_search&utm_source=-uBzzloii2ivvF3N0jkhKQ,ttROKeMmaM1k39JogTAFSA
108,Monmouth Coffee,Coffee & Tea,4.5,££,27 Monmouth Street,51.5143539,-0.1269168,https://www.yelp.com/biz/monmouth-coffee-london-3?adjust_creative=-uBzzloii2ivvF3N0jkhKQ&utm_campaign=yelp_api_v3&utm_medium=api_v3_business_search&utm_source=-uBzzloii2ivvF3N0jkhKQ,Opa8XUwUghxbGFafvubV6A
109,Raison D'Etre,Coffee & Tea,4.5,£,18 Bute Street,51.493706018346,-0.17628170716244,https://www.yelp.com/biz/raison-d-etre-london?adjust_creative=-uBzzloii2ivvF3N0jkhKQ&utm_campaign=yelp_api_v3&utm_medium=api_v3_business_search&utm_source=-uBzzloii2ivvF3N0jkhKQ,x58LDkXGU7vC8-KRDlS9Mw
110,Pimlico Fresh,Coffee & Tea,4.5,££,85 Wilton Road,51.492391374275,-0.14021524722041,https://www.yelp.com/biz/pimlico-fresh-london?adjust_creative=-uBzzloii2ivvF3N0jkhKQ&utm_campaign=yelp_api_v3&utm_medium=api_v3_business_search&utm_source=-uBzzloii2ivvF3N0jkhKQ,jrRKp4dsl9uTQjBb0uBbfw
111,Abbey Cafe,Coffee & Tea,,,3 Nugent Terrace,51.531848626266,-0.18065861355395,,
112,Yumchaa Soho,Coffee & Tea,4.0,£,45 Berwick Street,51.515164726519,-0.13609727051977,https://www.yelp.com/biz/yumchaa-soho-london?adjust_creative=-uBzzloii2ivvF3N0jkhKQ&utm_campaign=yelp_api_v3&utm_medium=api_v3_business_search&utm_source=-uBzzloii2ivvF3N0jkhKQ,lkethHYEgAT3gE-09fLWag
113,Kaffeine,Coffee & Tea,4.5,££,66 Great Titchfield Street,51.51848,-0.14037,https://www.yelp.com/biz/kaffeine-london?adjust_creative=-uBzzloii2ivvF3N0jkhKQ&utm_campaign=yelp_api_v3&utm_medium=api_v3_business_search&utm_source=-uBzzloii2ivvF3N0jkhKQ,mvds37L7mCurGn3rGPM8ag
114,H R Higgins,Coffee & Tea,4.5,££,79 Duke Street,51.5129642,-0.1508551,https://www.yelp.com/biz/h-r-higgins-london?adjust_creative=-uBzzloii2ivvF3N0jkhKQ&utm_campaign=yelp_api_v3&utm_medium=api_v3_business_search&utm_source=-uBzzloii2ivvF3N0jkhKQ,MIKUeHBDQs46i6YOVeNKyw
115,Monmouth Coffee,Coffee & Tea,4.5,££,2 Park Street,51.5055383383613,-0.0914615294783139,https://www.yelp.com/biz/monmouth-coffee-london?adjust_creative=-uBzzloii2ivvF3N0jkhKQ&utm_campaign=yelp_api_v3&utm_medium=api_v3_business_search&utm_source=-uBzzloii2ivvF3N0jkhKQ,IWl1Y0eQOZSnYeIDw94svg
116,106 Baker St,Coffee & Tea,4.5,£,106 Baker Street,51.5207977,-0.1566825,https://www.yelp.com/biz/106-baker-st-london?adjust_creative=-uBzzloii2ivvF3N0jkhKQ&utm_campaign=yelp_api_v3&utm_medium=api_v3_business_search&utm_source=-uBzzloii2ivvF3N0jkhKQ,k7qmLDOGfESN8fDBQZZL7w
117,Ozone Coffee,Coffee & Tea,4.5,££,11 Leonard Street,51.524683689256,-0.086674106560876,https://www.yelp.com/biz/ozone-coffee-london-2?adjust_creative=-uBzzloii2ivvF3N0jkhKQ&utm_campaign=yelp_api_v3&utm_medium=api_v3_business_search&utm_source=-uBzzloii2ivvF3N0jkhKQ,68gc1BAE1IT_zZghFafw0Q
118,Exmouth Coffee Company,Coffee & Tea,4.5,££,83 Whitechapel High Street,51.515994,-0.070496,https://www.yelp.com/biz/exmouth-coffee-company-london?adjust_creative=-uBzzloii2ivvF3N0jkhKQ&utm_campaign=yelp_api_v3&utm_medium=api_v3_business_search&utm_source=-uBzzloii2ivvF3N0jkhKQ,DAE3fIusVTUGt9PDwPlelg
119,Pompidou Cafe,Coffee & Tea,4.0,£,284 Pentonville Road,51.5310148,-0.1213579,https://www.yelp.com/biz/pompidou-cafe-london?adjust_creative=-uBzzloii2ivvF3N0jkhKQ&utm_campaign=yelp_api_v3&utm_medium=api_v3_business_search&utm_source=-uBzzloii2ivvF3N0jkhKQ,WviWKTmXpSZWv7Pdt_7RyQ
120,Fix 126,Coffee & Tea,4.0,££,126 Curtain Road,51.5261251,-0.0802153,https://www.yelp.com/biz/fix-126-london?adjust_creative=-uBzzloii2ivvF3N0jkhKQ&utm_campaign=yelp_api_v3&utm_medium=api_v3_business_search&utm_source=-uBzzloii2ivvF3N0jkhKQ,3fDLrrmStQBZFMBHUvMbrQ
121,Paper and Cup,Coffee & Tea,4.5,£,18 Calvert Avenue,51.5262201,-0.076815,https://www.yelp.com/biz/paper-and-cup-london-2?adjust_creative=-uBzzloii2ivvF3N0jkhKQ&utm_campaign=yelp_api_v3&utm_medium=api_v3_business_search&utm_source=-uBzzloii2ivvF3N0jkhKQ,r-USboJFp1ifbtFWtbTGhQ
122,The Coffee Jar,Coffee & Tea,4.5,££,83 Parkway,51.5373402066451,-0.145319216450743,https://www.yelp.com/biz/the-coffee-jar-london?adjust_creative=-uBzzloii2ivvF3N0jkhKQ&utm_campaign=yelp_api_v3&utm_medium=api_v3_business_search&utm_source=-uBzzloii2ivvF3N0jkhKQ,7Nme-QeQ65gtQEyoB0KyEw
123,Barista & Baker,Coffee & Tea,4.5,£,6 St Georges Circus,51.4983696638885,-0.104033751512027,https://www.yelp.com/biz/barista-and-baker-london?adjust_creative=-uBzzloii2ivvF3N0jkhKQ&utm_campaign=yelp_api_v3&utm_medium=api_v3_business_search&utm_source=-uBzzloii2ivvF3N0jkhKQ,0mPYAPkojho-XLcIIPiY8Q
124,Bonne Bouche,Coffee & Tea,4.0,£,2-3 Thayer Street,51.5181053211288,-0.151716128809521,https://www.yelp.com/biz/bonne-bouche-london?adjust_creative=-uBzzloii2ivvF3N0jkhKQ&utm_campaign=yelp_api_v3&utm_medium=api_v3_business_search&utm_source=-uBzzloii2ivvF3N0jkhKQ,nBHgQH6Fo7VZ5ipeV9FZmA
125,Thames Foyer,Coffee & Tea,4.5,££££,Strand The Savoy,51.510397,-0.120741,https://www.yelp.com/biz/thames-foyer-london?adjust_creative=-uBzzloii2ivvF3N0jkhKQ&utm_campaign=yelp_api_v3&utm_medium=api_v3_business_search&utm_source=-uBzzloii2ivvF3N0jkhKQ,4SG-pRroQ3Wyo-qlgMDZxA
126,Lundenwic,Coffee & Tea,4.5,£,45 Aldwych,51.5129,-0.118617,https://www.yelp.com/biz/lundenwic-london-2?adjust_creative=-uBzzloii2ivvF3N0jkhKQ&utm_campaign=yelp_api_v3&utm_medium=api_v3_business_search&utm_source=-uBzzloii2ivvF3N0jkhKQ,2Ffr8Fs_OlGQqxT7TN_nJg
127,The Borough Barista,Coffee & Tea,4.5,££,60A Seymour Street,51.514461025878,-0.16090849657059,https://www.yelp.com/biz/the-borough-barista-london?adjust_creative=-uBzzloii2ivvF3N0jkhKQ&utm_campaign=yelp_api_v3&utm_medium=api_v3_business_search&utm_source=-uBzzloii2ivvF3N0jkhKQ,mdy8N4wPOlOSiatLWKjLGg
128,EC1 Coffee House,Coffee & Tea,4.5,£,45-47 Clerkenwell Road,51.522513424384,-0.103959729293153,https://www.yelp.com/biz/ec1-coffee-house-london-2?adjust_creative=-uBzzloii2ivvF3N0jkhKQ&utm_campaign=yelp_api_v3&utm_medium=api_v3_business_search&utm_source=-uBzzloii2ivvF3N0jkhKQ,cyBJaUTrwdJvarTY-C3SUw
129,Fabrique Bakery,Coffee & Tea,4.0,££,212 Portobello Road,51.516469,-0.205223,https://www.yelp.com/biz/fabrique-bakery-london-5?adjust_creative=-uBzzloii2ivvF3N0jkhKQ&utm_campaign=yelp_api_v3&utm_medium=api_v3_business_search&utm_source=-uBzzloii2ivvF3N0jkhKQ,FM2fOny0zttmwnSeHCHzyA
130,Brick House,Coffee & Tea,4.5,£,1 Zenoria Street,51.4602410231235,-0.0757133133748053,https://www.yelp.com/biz/brick-house-east-dulwich?adjust_creative=-uBzzloii2ivvF3N0jkhKQ&utm_campaign=yelp_api_v3&utm_medium=api_v3_business_search&utm_source=-uBzzloii2ivvF3N0jkhKQ,yemHrQ_ihk3trlQN3gKGoQ
131,The Pastry Parlour,Coffee & Tea,,,47 Gower's Walk,51.513737,-0.067745,,
132,Violet Cakes,Coffee & Tea,4.0,£££,47 Wilton Way,51.545469478641,-0.064133277339768,https://www.yelp.com/biz/violet-cakes-london?adjust_creative=-uBzzloii2ivvF3N0jkhKQ&utm_campaign=yelp_api_v3&utm_medium=api_v3_business_search&utm_source=-uBzzloii2ivvF3N0jkhKQ,muxCRMUqHY63jE0wavLG7w
133,Le Pain Quotidien,Coffee & Tea,4.0,££,72-75 Marylebone High Street,51.521258,-0.152221,https://www.yelp.com/biz/le-pain-quotidien-london?adjust_creative=-uBzzloii2ivvF3N0jkhKQ&utm_campaign=yelp_api_v3&utm_medium=api_v3_business_search&utm_source=-uBzzloii2ivvF3N0jkhKQ,qnzpTVsWxTnxRoOG_sh-pQ
134,Cockney Pie & Mash Shop,Coffee & Tea,4.5,£,314 Portobello Road,51.5212598,-0.209793,https://www.yelp.com/biz/cockney-pie-and-mash-shop-london?adjust_creative=-uBzzloii2ivvF3N0jkhKQ&utm_campaign=yelp_api_v3&utm_medium=api_v3_business_search&utm_source=-uBzzloii2ivvF3N0jkhKQ,DI3mIVje3_Ntw_Dke96Odw
135,Grace Cafe,Coffee & Tea,4.5,£,8 Creed Lane,51.5131714,-0.1012047,https://www.yelp.com/biz/grace-cafe-london?adjust_creative=-uBzzloii2ivvF3N0jkhKQ&utm_campaign=yelp_api_v3&utm_medium=api_v3_business_search&utm_source=-uBzzloii2ivvF3N0jkhKQ,CYYAMBaNJ2dxgUXLk3XvYA
136,Casa Tua,Coffee & Tea,4.5,£,106 Cromer Street,51.5276449011142,-0.123588235886524,https://www.yelp.com/biz/casa-tua-london-2?adjust_creative=-uBzzloii2ivvF3N0jkhKQ&utm_campaign=yelp_api_v3&utm_medium=api_v3_business_search&utm_source=-uBzzloii2ivvF3N0jkhKQ,E_3NekwxctQ3BzN7tLKk2A
137,TY Seven Dials - Timberyard,Coffee & Tea,4.5,££,7 Upper St Martin's Lane,51.5128577362728,-0.127308054907987,https://www.yelp.com/biz/ty-seven-dials-timberyard-london-2?adjust_creative=-uBzzloii2ivvF3N0jkhKQ&utm_campaign=yelp_api_v3&utm_medium=api_v3_business_search&utm_source=-uBzzloii2ivvF3N0jkhKQ,ztuEuIDjVTJMklB2OP3rpg
138,The Attendant,Coffee & Tea,4.5,£,Downstairs 27A,51.5192470995905,-0.140738025145255,https://www.yelp.com/biz/the-attendant-london-2?adjust_creative=-uBzzloii2ivvF3N0jkhKQ&utm_campaign=yelp_api_v3&utm_medium=api_v3_business_search&utm_source=-uBzzloii2ivvF3N0jkhKQ,PYwzVOvFIjwCMNYV5upPwg
139,The Watch House,Coffee & Tea,4.5,££,199 Bermondsey Street,51.4980461313304,-0.0810502413027092,https://www.yelp.com/biz/the-watch-house-london-5?adjust_creative=-uBzzloii2ivvF3N0jkhKQ&utm_campaign=yelp_api_v3&utm_medium=api_v3_business_search&utm_source=-uBzzloii2ivvF3N0jkhKQ,-EPJuMu8Qbr5azjHu_QOtg
140,White Mulberries,Coffee & Tea,4.0,££,Unit D3,51.507252,-0.071157,https://www.yelp.com/biz/white-mulberries-london?adjust_creative=-uBzzloii2ivvF3N0jkhKQ&utm_campaign=yelp_api_v3&utm_medium=api_v3_business_search&utm_source=-uBzzloii2ivvF3N0jkhKQ,5H4EEA8Sdqy1L_xFY9xSUw
141,Beehive,Coffee & Tea,4.5,££,28 Devonshire Road,51.491655,-0.2556941,https://www.yelp.com/biz/beehive-london-4?adjust_creative=-uBzzloii2ivvF3N0jkhKQ&utm_campaign=yelp_api_v3&utm_medium=api_v3_business_search&utm_source=-uBzzloii2ivvF3N0jkhKQ,YZIsogwDym4uAgoAH3bQUw
142,Shoreditch Grind,Coffee & Tea,4.0,££,213 Old Street,51.5258391235513,-0.0879659656067133,https://www.yelp.com/biz/shoreditch-grind-london?adjust_creative=-uBzzloii2ivvF3N0jkhKQ&utm_campaign=yelp_api_v3&utm_medium=api_v3_business_search&utm_source=-uBzzloii2ivvF3N0jkhKQ,S3h8uhI3wK2Fn4e9gw9bfA
143,L'eto Caffe,Coffee & Tea,4.0,££,10 W Halkin Street,51.4987685,-0.1570349,https://www.yelp.com/biz/l-eto-caffe-london-3?adjust_creative=-uBzzloii2ivvF3N0jkhKQ&utm_campaign=yelp_api_v3&utm_medium=api_v3_business_search&utm_source=-uBzzloii2ivvF3N0jkhKQ,IFx29LvkxdZx8pTp-JrvnA
144,Camden Coffee Shop,Coffee Roasteries,5.0,£,11 Delancey Street,51.536842323903,-0.14207936959551,https://www.yelp.com/biz/camden-coffee-shop-london?adjust_creative=-uBzzloii2ivvF3N0jkhKQ&utm_campaign=yelp_api_v3&utm_medium=api_v3_business_search&utm_source=-uBzzloii2ivvF3N0jkhKQ,1kTiW_C-WQbebTCqkV6xYg
145,Redemption Roasters,Coffee Roasteries,,,Unit 109,51.5358826742158,-0.126157242991667,,
146,Chapter Coffee Roasters,Coffee Roasteries,,,137 North End Road,51.4919847,-0.2071349,,
147,Kahaila Cafe,Community Service/Non-Profit,4.5,££,135 Brick Lane,51.523786,-0.071577,https://www.yelp.com/biz/kahaila-cafe-london?adjust_creative=-uBzzloii2ivvF3N0jkhKQ&utm_campaign=yelp_api_v3&utm_medium=api_v3_business_search&utm_source=-uBzzloii2ivvF3N0jkhKQ,Y3YV7FSwxJm--wj2DNAoEA
148,Sweetheart,Cupcakes,4.5,£,Unit 34,51.5118923302027,-0.122435174762825,https://www.yelp.com/biz/sweetheart-london-2?adjust_creative=-uBzzloii2ivvF3N0jkhKQ&utm_campaign=yelp_api_v3&utm_medium=api_v3_business_search&utm_source=-uBzzloii2ivvF3N0jkhKQ,2DPvfVF6vSEaZ5JqDFnXTw
149,Maroush Bakehouse,Delicatessen,,,45-49 Edgware Road,51.5151314,-0.1633217,,
150,Ladurée,Delicatessen,4.0,£££,87 Brompton Road,51.4984851733343,-0.162618309259415,https://www.yelp.com/biz/ladur%C3%A9e-london-8?adjust_creative=-uBzzloii2ivvF3N0jkhKQ&utm_campaign=yelp_api_v3&utm_medium=api_v3_business_search&utm_source=-uBzzloii2ivvF3N0jkhKQ,x5vg6DMQQjiuZ2SQVKhIAg
151,Chanteroy,Delis,5.0,£,233a Wimbledon Park Road,51.4450952518046,-0.205981699624434,https://www.yelp.com/biz/chanteroy-london?adjust_creative=-uBzzloii2ivvF3N0jkhKQ&utm_campaign=yelp_api_v3&utm_medium=api_v3_business_search&utm_source=-uBzzloii2ivvF3N0jkhKQ,rn70OOQObZ5TxvIahNSl7w
152,Maitre Choux,Desserts,4.5,£££,15 Harrington Road,51.4939411,-0.1755375,https://www.yelp.com/biz/maitre-choux-london?adjust_creative=-uBzzloii2ivvF3N0jkhKQ&utm_campaign=yelp_api_v3&utm_medium=api_v3_business_search&utm_source=-uBzzloii2ivvF3N0jkhKQ,0T5fEkTQAry6pRmI056nTA
153,Hart & Lova,Desserts,4.5,££,213 Belsize Road,51.5384383,-0.190891,https://www.yelp.com/biz/hart-and-lova-london?adjust_creative=-uBzzloii2ivvF3N0jkhKQ&utm_campaign=yelp_api_v3&utm_medium=api_v3_business_search&utm_source=-uBzzloii2ivvF3N0jkhKQ,S_1iMSbWOa4I7pa8BxWZag
154,Brownie Box,Desserts,4.5,£,247 Old Brompton Road,51.489143371582,-0.190696999430656,https://www.yelp.com/biz/brownie-box-london?adjust_creative=-uBzzloii2ivvF3N0jkhKQ&utm_campaign=yelp_api_v3&utm_medium=api_v3_business_search&utm_source=-uBzzloii2ivvF3N0jkhKQ,5sastzP0XG9cG5b38ndZFQ
155,Minamoto Kitchoan,Desserts,4.5,£££,44 Piccadilly,51.508814,-0.138055,https://www.yelp.com/biz/minamoto-kitchoan-london?adjust_creative=-uBzzloii2ivvF3N0jkhKQ&utm_campaign=yelp_api_v3&utm_medium=api_v3_business_search&utm_source=-uBzzloii2ivvF3N0jkhKQ,y3A99Bk8moGq70QMupAvcg
156,Fortnum and Mason: Diamond Jubilee Tea Salon,Desserts,4.0,££££,4th Floor,51.5087069889729,-0.138279327972609,https://www.yelp.com/biz/fortnum-and-mason-diamond-jubilee-tea-salon-london?adjust_creative=-uBzzloii2ivvF3N0jkhKQ&utm_campaign=yelp_api_v3&utm_medium=api_v3_business_search&utm_source=-uBzzloii2ivvF3N0jkhKQ,GSbQscE52ZfK43ykA6vLbg
157,Santa Nata,Desserts,,,17 Russell St,51.512495,-0.1218693,,
158,Dum Dum Donutterie,Donuts,4.0,££,Unit 31 Box Park,51.523523,-0.075889,https://www.yelp.com/biz/dum-dum-donutterie-london?adjust_creative=-uBzzloii2ivvF3N0jkhKQ&utm_campaign=yelp_api_v3&utm_medium=api_v3_business_search&utm_source=-uBzzloii2ivvF3N0jkhKQ,vJdVqeNAQ4i9Gvh6fDwXrw
159,Doughnut Time,Donuts,4.0,££,96 Shaftesbury Avenue,51.512214,-0.1312078,https://www.yelp.com/biz/doughnut-time-london?adjust_creative=-uBzzloii2ivvF3N0jkhKQ&utm_campaign=yelp_api_v3&utm_medium=api_v3_business_search&utm_source=-uBzzloii2ivvF3N0jkhKQ,ugfrj4j6BmZfNfGvzHCY6g
160,Crosstown,Donuts,5.0,£,35 Piccadilly,51.5092357,-0.1371423,https://www.yelp.com/biz/crosstown-mayfair?adjust_creative=-uBzzloii2ivvF3N0jkhKQ&utm_campaign=yelp_api_v3&utm_medium=api_v3_business_search&utm_source=-uBzzloii2ivvF3N0jkhKQ,Fo77yYBP65cK52-9-sjXNQ
161,Crosstown Doughnuts & Coffee,Donuts,4.0,££,4 Broadwick Street,51.514167,-0.1346751,https://www.yelp.com/biz/crosstown-doughnuts-and-coffee-london-2?adjust_creative=-uBzzloii2ivvF3N0jkhKQ&utm_campaign=yelp_api_v3&utm_medium=api_v3_business_search&utm_source=-uBzzloii2ivvF3N0jkhKQ,BVD84PXIYOiIr5Rc-s8JQw
162,Borough Market,Farmers Market,4.5,££,8 Southwark Street,51.5051427191678,-0.0909365332063361,https://www.yelp.com/biz/borough-market-london-3?adjust_creative=-uBzzloii2ivvF3N0jkhKQ&utm_campaign=yelp_api_v3&utm_medium=api_v3_business_search&utm_source=-uBzzloii2ivvF3N0jkhKQ,U-Sz3hVjbZ8eaNeKGpZU_A
163,Kooky Bakes,Farmers Market,4.5,££,Sunday Up Market,51.5210655305934,-0.0729759455077783,https://www.yelp.com/biz/kooky-bakes-london?adjust_creative=-uBzzloii2ivvF3N0jkhKQ&utm_campaign=yelp_api_v3&utm_medium=api_v3_business_search&utm_source=-uBzzloii2ivvF3N0jkhKQ,XD89DGPLbNTjVhesu5wyIA
164,Chatica Cafe Deli & Bakery,Fast Food,4.5,£,2 Elephant Road,51.50505,-0.08752,https://www.yelp.com/biz/chatica-cafe-deli-and-bakery-london?adjust_creative=-uBzzloii2ivvF3N0jkhKQ&utm_campaign=yelp_api_v3&utm_medium=api_v3_business_search&utm_source=-uBzzloii2ivvF3N0jkhKQ,QF8HaEPzqS4OJBY3SYrCGw
165,Savoir Faire,French,4.5,££,42 New Oxford Street,51.5171949,-0.1260125,https://www.yelp.com/biz/savoir-faire-london?adjust_creative=-uBzzloii2ivvF3N0jkhKQ&utm_campaign=yelp_api_v3&utm_medium=api_v3_business_search&utm_source=-uBzzloii2ivvF3N0jkhKQ,4ibHPLYd299_m1LOdcqxXw
166,The Balcon,French,4.5,££££,8 Pall Mall,51.507687,-0.132279,https://www.yelp.com/biz/the-balcon-london-2?adjust_creative=-uBzzloii2ivvF3N0jkhKQ&utm_campaign=yelp_api_v3&utm_medium=api_v3_business_search&utm_source=-uBzzloii2ivvF3N0jkhKQ,v3MQtzWZhRCknVhl9OoZzw
167,Fait Maison,French,4.0,££,144 Gloucester Road,51.4937304,-0.1823091,https://www.yelp.com/biz/fait-maison-london-4?adjust_creative=-uBzzloii2ivvF3N0jkhKQ&utm_campaign=yelp_api_v3&utm_medium=api_v3_business_search&utm_source=-uBzzloii2ivvF3N0jkhKQ,btmD6I6XuFIngdLZtWAjTg
168,Sketch,French,4.0,£££,9 Conduit Street,51.5127614699071,-0.14159163911048,https://www.yelp.com/biz/sketch-london-2?adjust_creative=-uBzzloii2ivvF3N0jkhKQ&utm_campaign=yelp_api_v3&utm_medium=api_v3_business_search&utm_source=-uBzzloii2ivvF3N0jkhKQ,zJNI06Y2zZQFh9OBSFCdgQ
169,Le Gavroche,French,4.5,££££,43 Upper Brook Street,51.511300562631,-0.15507069144529,https://www.yelp.com/biz/le-gavroche-london?adjust_creative=-uBzzloii2ivvF3N0jkhKQ&utm_campaign=yelp_api_v3&utm_medium=api_v3_business_search&utm_source=-uBzzloii2ivvF3N0jkhKQ,M1gUkd17zi9ZYjBcSkSpIA
170,Paul,French,4.0,£,Unit 4 Blue Fin Building,51.5063536827166,-0.10055633116723,https://www.yelp.com/biz/paul-london-40?adjust_creative=-uBzzloii2ivvF3N0jkhKQ&utm_campaign=yelp_api_v3&utm_medium=api_v3_business_search&utm_source=-uBzzloii2ivvF3N0jkhKQ,OqcvGls-xA8gIxSGANbNCg
171,Hotel Café Royal,Hotels,4.5,£££,68 Regent Street,51.510171,-0.135962,https://www.yelp.com/biz/hotel-caf%C3%A9-royal-london?adjust_creative=-uBzzloii2ivvF3N0jkhKQ&utm_campaign=yelp_api_v3&utm_medium=api_v3_business_search&utm_source=-uBzzloii2ivvF3N0jkhKQ,t9-_U2-WmaIee3XDB0Tz0w
172,The Paprika Store,Imported Food,5.0,£,50 Grand Parade,51.579104,-0.098913,https://www.yelp.com/biz/the-paprika-store-london?adjust_creative=-uBzzloii2ivvF3N0jkhKQ&utm_campaign=yelp_api_v3&utm_medium=api_v3_business_search&utm_source=-uBzzloii2ivvF3N0jkhKQ,Q2x1Tq3GF9ZHFwA4a8LR4w
173,Phoenicia - Mediterranean Food Hall,International Grocery,4.0,£,186 -192 Kentish Town Road,51.547598,-0.141266,https://www.yelp.com/biz/phoenicia-mediterranean-food-hall-london?adjust_creative=-uBzzloii2ivvF3N0jkhKQ&utm_campaign=yelp_api_v3&utm_medium=api_v3_business_search&utm_source=-uBzzloii2ivvF3N0jkhKQ,IDH_axJK2uI99N5-_PHl5A
174,Princi,Italian,4.0,££,135 Wardour Street,51.5138629586873,-0.134387051472991,https://www.yelp.com/biz/princi-london?adjust_creative=-uBzzloii2ivvF3N0jkhKQ&utm_campaign=yelp_api_v3&utm_medium=api_v3_business_search&utm_source=-uBzzloii2ivvF3N0jkhKQ,-ATEXu2q4Oe4wPQeyrsILw
175,Caffe Concerto,Italian,3.0,££,4-5 Northumberland Avenue,51.5070957,-0.1265794,https://www.yelp.com/biz/caffe-concerto-london-20?adjust_creative=-uBzzloii2ivvF3N0jkhKQ&utm_campaign=yelp_api_v3&utm_medium=api_v3_business_search&utm_source=-uBzzloii2ivvF3N0jkhKQ,IEGYMW3nc-dTtOicVJ0AWw
176,Laduree,Macarons,4.5,£££,71-72 Burlington Arcade,51.5083572494815,-0.139577354757421,https://www.yelp.com/biz/laduree-london-14?adjust_creative=-uBzzloii2ivvF3N0jkhKQ&utm_campaign=yelp_api_v3&utm_medium=api_v3_business_search&utm_source=-uBzzloii2ivvF3N0jkhKQ,OGW03dLcEui-6CWZIucVMw
177,Jakobs,Mediterranean,5.0,££,20 Gloucester Road,51.49905885109,-0.18382193239086,https://www.yelp.com/biz/jakobs-london?adjust_creative=-uBzzloii2ivvF3N0jkhKQ&utm_campaign=yelp_api_v3&utm_medium=api_v3_business_search&utm_source=-uBzzloii2ivvF3N0jkhKQ,eekflLQwzpeZ9sNg89F38A
178,Jakobs,Mediterranean,5.0,££,20 Gloucester Road,51.49905885109,-0.18382193239086,https://www.yelp.com/biz/jakobs-london?adjust_creative=-uBzzloii2ivvF3N0jkhKQ&utm_campaign=yelp_api_v3&utm_medium=api_v3_business_search&utm_source=-uBzzloii2ivvF3N0jkhKQ,eekflLQwzpeZ9sNg89F38A
179,49 Cafe,Modern European,4.5,£,49 Marchmont Street,51.5249587,-0.1251605,https://www.yelp.com/biz/49-cafe-london?adjust_creative=-uBzzloii2ivvF3N0jkhKQ&utm_campaign=yelp_api_v3&utm_medium=api_v3_business_search&utm_source=-uBzzloii2ivvF3N0jkhKQ,LyXXTUzll212_JKMkzC3DQ
180,Patisserie Valerie,Patisserie/Cake Shop,4.0,££,174-176 Queensway,51.5157113693673,-0.188256121731851,https://www.yelp.com/biz/patisserie-valerie-london-12?adjust_creative=-uBzzloii2ivvF3N0jkhKQ&utm_campaign=yelp_api_v3&utm_medium=api_v3_business_search&utm_source=-uBzzloii2ivvF3N0jkhKQ,9klx0ol5iCCf7vG-IjcYFQ
181,Patisserie Valerie,Patisserie/Cake Shop,4.0,££,105 Marylebone High Road,51.5191096196678,-0.15177361600921,https://www.yelp.com/biz/patisserie-valerie-london-7?adjust_creative=-uBzzloii2ivvF3N0jkhKQ&utm_campaign=yelp_api_v3&utm_medium=api_v3_business_search&utm_source=-uBzzloii2ivvF3N0jkhKQ,Z3dr4as9zDncGnaCtqnntQ
182,Golden Gate Cake Shop,Patisserie/Cake Shop,4.0,£,13 Macclesfield Street,51.511968,-0.131181,https://www.yelp.com/biz/golden-gate-cake-shop-london?adjust_creative=-uBzzloii2ivvF3N0jkhKQ&utm_campaign=yelp_api_v3&utm_medium=api_v3_business_search&utm_source=-uBzzloii2ivvF3N0jkhKQ,83KeM6uScA4ONx97xMHvXw
183,Franze & Evans Cafe Shoreditch,Patisserie/Cake Shop,4.0,££,101 Redchurch St,51.5248675,-0.0726335,https://www.yelp.com/biz/franze-and-evans-cafe-shoreditch-london-2?adjust_creative=-uBzzloii2ivvF3N0jkhKQ&utm_campaign=yelp_api_v3&utm_medium=api_v3_business_search&utm_source=-uBzzloii2ivvF3N0jkhKQ,fM99pmX2-ipWvG33tILdZQ
184,Patisserie Valerie,Patisserie/Cake Shop,4.0,££,York House,51.5142705778633,-0.159455789441691,https://www.yelp.com/biz/patisserie-valerie-london-11?adjust_creative=-uBzzloii2ivvF3N0jkhKQ&utm_campaign=yelp_api_v3&utm_medium=api_v3_business_search&utm_source=-uBzzloii2ivvF3N0jkhKQ,xJvPDma1C7F7hvEp0OfjWg
185,Fabrique Bakery,Patisserie/Cake Shop,4.0,££,8 Earlham Street,51.5134638236347,-0.12840236007971,https://www.yelp.com/biz/fabrique-bakery-london-4?adjust_creative=-uBzzloii2ivvF3N0jkhKQ&utm_campaign=yelp_api_v3&utm_medium=api_v3_business_search&utm_source=-uBzzloii2ivvF3N0jkhKQ,Q-f511k1hYDIKfKIpC_HIw
186,Louis Hungarian Patisserie,Patisserie/Cake Shop,4.0,££,32 Heath Street,51.5560567,-0.1785851,https://www.yelp.com/biz/louis-hungarian-patisserie-london?adjust_creative=-uBzzloii2ivvF3N0jkhKQ&utm_campaign=yelp_api_v3&utm_medium=api_v3_business_search&utm_source=-uBzzloii2ivvF3N0jkhKQ,f5lYXTuVpY6iMLyCPMXWsA
187,Wonderful Patisserie,Patisserie/Cake Shop,3.5,££,45 Gerrard Street,51.511969,-0.130143,https://www.yelp.com/biz/wonderful-patisserie-london?adjust_creative=-uBzzloii2ivvF3N0jkhKQ&utm_campaign=yelp_api_v3&utm_medium=api_v3_business_search&utm_source=-uBzzloii2ivvF3N0jkhKQ,VZ_1ATiJ5j4uTHvGHr7JNw
188,Fork Deli Patisserie,Patisserie/Cake Shop,4.5,£,85 Marchmont Street,51.5258331,-0.1258274,https://www.yelp.com/biz/fork-deli-patisserie-london?adjust_creative=-uBzzloii2ivvF3N0jkhKQ&utm_campaign=yelp_api_v3&utm_medium=api_v3_business_search&utm_source=-uBzzloii2ivvF3N0jkhKQ,MOZ3X-asf3FZEOE39966-A
189,Ole and Steen,Patisserie/Cake Shop,4.5,££,56 Haymarket,51.509238,-0.1326965,https://www.yelp.com/biz/ole-and-steen-london-2?adjust_creative=-uBzzloii2ivvF3N0jkhKQ&utm_campaign=yelp_api_v3&utm_medium=api_v3_business_search&utm_source=-uBzzloii2ivvF3N0jkhKQ,5or4AzNouZq8RClNeTdqiA
190,PAUL Covent Garden Le Restaurant de Paul,Patisserie/Cake Shop,4.0,££,29 Bedford Street,51.511152,-0.124783,https://www.yelp.com/biz/paul-covent-garden-le-restaurant-de-paul-london?adjust_creative=-uBzzloii2ivvF3N0jkhKQ&utm_campaign=yelp_api_v3&utm_medium=api_v3_business_search&utm_source=-uBzzloii2ivvF3N0jkhKQ,bdUsmRcJUe29Ssa-osjjDA
191,Lanka,Patisserie/Cake Shop,4.5,££,9 Goldhurst Terrace,51.5457719,-0.1793938,https://www.yelp.com/biz/lanka-london-2?adjust_creative=-uBzzloii2ivvF3N0jkhKQ&utm_campaign=yelp_api_v3&utm_medium=api_v3_business_search&utm_source=-uBzzloii2ivvF3N0jkhKQ,c3m_OXrRNdJpWmTqhEgdeQ
192,Lisboa Patisserie,Patisserie/Cake Shop,4.0,£,57 Golborne Road,51.5224017,-0.2074916,https://www.yelp.com/biz/lisboa-patisserie-london?adjust_creative=-uBzzloii2ivvF3N0jkhKQ&utm_campaign=yelp_api_v3&utm_medium=api_v3_business_search&utm_source=-uBzzloii2ivvF3N0jkhKQ,UhXQ3C0ixl8BukWDAR-cqg
193,Maitre Choux,Patisserie/Cake Shop,4.5,£££,60 Dean St,51.5127143859863,-0.132231995463371,https://www.yelp.com/biz/maitre-choux-london-2?adjust_creative=-uBzzloii2ivvF3N0jkhKQ&utm_campaign=yelp_api_v3&utm_medium=api_v3_business_search&utm_source=-uBzzloii2ivvF3N0jkhKQ,271U0h4hish4lq_mESjGRw
194,VEGAN SWEET TOOTH London,Patisserie/Cake Shop,,,2,51.3977916,-0.094092,,
195,Cafe de Nata,Portuguese,4.5,£,25b Broadway Shopping Centre W,51.492014,-0.224198,https://www.yelp.com/biz/cafe-de-nata-fulham?adjust_creative=-uBzzloii2ivvF3N0jkhKQ&utm_campaign=yelp_api_v3&utm_medium=api_v3_business_search&utm_source=-uBzzloii2ivvF3N0jkhKQ,REhb-qBL9hkXyoec71arhA
196,Bageriet,Scandinavian,4.5,£,24 Rose Street,51.5119236,-0.1261821,https://www.yelp.com/biz/bageriet-london?adjust_creative=-uBzzloii2ivvF3N0jkhKQ&utm_campaign=yelp_api_v3&utm_medium=api_v3_business_search&utm_source=-uBzzloii2ivvF3N0jkhKQ,0tJs57Xoq75-RDWKVco0nw
197,Candella Tea Room,Tea Rooms,4.5,££,34 Kensington Church Street,51.5040735504425,-0.192011632025242,https://www.yelp.com/biz/candella-tea-room-london?adjust_creative=-uBzzloii2ivvF3N0jkhKQ&utm_campaign=yelp_api_v3&utm_medium=api_v3_business_search&utm_source=-uBzzloii2ivvF3N0jkhKQ,tcVWoHSko9PIy_Ec95_j1A
198,The Rosebery Lounge,Tea Rooms,4.5,£££,66 Knightsbridge,51.502405,-0.159971,https://www.yelp.com/biz/the-rosebery-lounge-london?adjust_creative=-uBzzloii2ivvF3N0jkhKQ&utm_campaign=yelp_api_v3&utm_medium=api_v3_business_search&utm_source=-uBzzloii2ivvF3N0jkhKQ,mOD60RafvMIEv0PR0QqV-g
199,Simit Sarayi,Turkish,3.0,£,1 Piccadilly Circus,51.5104,-0.1339005,https://www.yelp.com/biz/simit-sarayi-london-4?adjust_creative=-uBzzloii2ivvF3N0jkhKQ&utm_campaign=yelp_api_v3&utm_medium=api_v3_business_search&utm_source=-uBzzloii2ivvF3N0jkhKQ,P4rFlCsevSiJuwshO6wF7g
