,Restaurant,Type,Rating,Price,Address,Lat,Lng,url,ID
0,The Bike Shed,Accessories,4.5,££,384 Old Street,51.5270903,-0.0782151,https://www.yelp.com/biz/the-bike-shed-london?adjust_creative=-uBzzloii2ivvF3N0jkhKQ&utm_campaign=yelp_api_v3&utm_medium=api_v3_business_search&utm_source=-uBzzloii2ivvF3N0jkhKQ,BNdzjiLoibX1uSH4kAQy5w
1,Red Door,Art Galleries,4.5,££,10 Turnpin Lane,51.481164,-0.009072,https://www.yelp.com/biz/red-door-london?adjust_creative=-uBzzloii2ivvF3N0jkhKQ&utm_campaign=yelp_api_v3&utm_medium=api_v3_business_search&utm_source=-uBzzloii2ivvF3N0jkhKQ,RYus9YxVxD-R8jm6xkDX8g
2,Primrose Bakery,Bakeries,4.0,££,69 Gloucester Avenue,51.5402263,-0.1511222,https://www.yelp.com/biz/primrose-bakery-london?adjust_creative=-uBzzloii2ivvF3N0jkhKQ&utm_campaign=yelp_api_v3&utm_medium=api_v3_business_search&utm_source=-uBzzloii2ivvF3N0jkhKQ,dIWOqYszVKk-oswXDzUH6A
3,Konditor,Bakeries,4.5,££,22 Cornwall Rd,51.5042899533514,-0.110367141112856,https://www.yelp.com/biz/konditor-london?adjust_creative=-uBzzloii2ivvF3N0jkhKQ&utm_campaign=yelp_api_v3&utm_medium=api_v3_business_search&utm_source=-uBzzloii2ivvF3N0jkhKQ,1epk2D1-2-g08GAntFlySg
4,Rinkoff Bakeries,Bakeries,4.5,£,224 Jubilee Street,51.5198880062398,-0.0530246183202313,https://www.yelp.com/biz/rinkoff-bakeries-london-2?adjust_creative=-uBzzloii2ivvF3N0jkhKQ&utm_campaign=yelp_api_v3&utm_medium=api_v3_business_search&utm_source=-uBzzloii2ivvF3N0jkhKQ,OLXnVhh19HtAnbywQzD3zw
5,Nordic Bakery,Bakeries,3.5,££,14 Golden Square,51.5114297969411,-0.13674108684063,https://www.yelp.com/biz/nordic-bakery-london?adjust_creative=-uBzzloii2ivvF3N0jkhKQ&utm_campaign=yelp_api_v3&utm_medium=api_v3_business_search&utm_source=-uBzzloii2ivvF3N0jkhKQ,Sh_PrXavTAk2d5jTs_onuQ
6,E5 Bakehouse,Bakeries,4.5,££,395 Mentmore Terrace,51.5412038403948,-0.0576161965996107,https://www.yelp.com/biz/e5-bakehouse-london?adjust_creative=-uBzzloii2ivvF3N0jkhKQ&utm_campaign=yelp_api_v3&utm_medium=api_v3_business_search&utm_source=-uBzzloii2ivvF3N0jkhKQ,-6GHU4qI0DKsIrBpv57qTg
7,The Wild Goose Bakery,Bakeries,4.5,££££,654 High Road,51.56867,0.01134,https://www.yelp.com/biz/the-wild-goose-bakery-london?adjust_creative=-uBzzloii2ivvF3N0jkhKQ&utm_campaign=yelp_api_v3&utm_medium=api_v3_business_search&utm_source=-uBzzloii2ivvF3N0jkhKQ,nJA-5mA9yvHF55M-cwWVRg
8,Queen Elizabeth Roof Garden Bar & Café,Bars,3.5,££,Queen Elizabeth Hall,51.50571,-0.116686820983887,https://www.yelp.com/biz/queen-elizabeth-roof-garden-bar-and-caf%C3%A9-southbank-centre-2?adjust_creative=-uBzzloii2ivvF3N0jkhKQ&utm_campaign=yelp_api_v3&utm_medium=api_v3_business_search&utm_source=-uBzzloii2ivvF3N0jkhKQ,pOQwGM-8Qrwb8PGzLDGyeg
9,Books for Cooks,Bookstores,5.0,££,4 Blenheim Cresent,51.5159431,-0.2053744,https://www.yelp.com/biz/books-for-cooks-london?adjust_creative=-uBzzloii2ivvF3N0jkhKQ&utm_campaign=yelp_api_v3&utm_medium=api_v3_business_search&utm_source=-uBzzloii2ivvF3N0jkhKQ,-fLxQOd0pjTkQl4ttwR4XA
10,The Ivy Kensington Brasserie,Brasseries,4.0,£££,96 Kensington High Street,51.5015677,-0.1921797,https://www.yelp.com/biz/the-ivy-kensington-brasserie-london?adjust_creative=-uBzzloii2ivvF3N0jkhKQ&utm_campaign=yelp_api_v3&utm_medium=api_v3_business_search&utm_source=-uBzzloii2ivvF3N0jkhKQ,wCjU2KuTntCZDCZSIS1Uxw
11,GAIL's Bakery Neo Bankside,Breakfast & Brunch,4.5,££,Unit C Neo Bankside,51.5066352772979,-0.100412668500134,https://www.yelp.com/biz/gails-bakery-neo-bankside-london?adjust_creative=-uBzzloii2ivvF3N0jkhKQ&utm_campaign=yelp_api_v3&utm_medium=api_v3_business_search&utm_source=-uBzzloii2ivvF3N0jkhKQ,U_XeFWW1Lttdq22txTABMw
12,L'ETO Caffe,Breakfast & Brunch,,,46-48 Shepherd Market,51.5065040588379,-0.14690899848938,,
13,The Garden Café,British,3.5,££,Inner Circle,51.5268751462841,-0.154452323913574,https://www.yelp.com/biz/the-garden-caf%C3%A9-london-4?adjust_creative=-uBzzloii2ivvF3N0jkhKQ&utm_campaign=yelp_api_v3&utm_medium=api_v3_business_search&utm_source=-uBzzloii2ivvF3N0jkhKQ,kOmkk63gMmsKk0Wve5aJRA
14,Gino's Coffee Bar,British,4.5,£,Great Central St,51.5222244262695,-0.162099003791809,https://www.yelp.com/biz/ginos-coffee-bar-london?adjust_creative=-uBzzloii2ivvF3N0jkhKQ&utm_campaign=yelp_api_v3&utm_medium=api_v3_business_search&utm_source=-uBzzloii2ivvF3N0jkhKQ,N0kfB-iYOb3Fs9RkOfwBlA
15,Tea and Tattle,British,4.5,££,41 Great Russell Street,51.5178680419922,-0.126817002892494,https://www.yelp.com/biz/tea-and-tattle-london?adjust_creative=-uBzzloii2ivvF3N0jkhKQ&utm_campaign=yelp_api_v3&utm_medium=api_v3_business_search&utm_source=-uBzzloii2ivvF3N0jkhKQ,1TgYqfxkXv6-IB4cvuuy3w
16,Garden Breakfast Cafe,British,4.5,££,3 Goldhurst Terrace,51.545783996582,-0.179408997297287,https://www.yelp.com/biz/garden-breakfast-cafe-london?adjust_creative=-uBzzloii2ivvF3N0jkhKQ&utm_campaign=yelp_api_v3&utm_medium=api_v3_business_search&utm_source=-uBzzloii2ivvF3N0jkhKQ,mWIaThf7jXEFk-IzPfxRrQ
17,The Orangery,British,4.0,£££,Kensington Palace,51.5066360577041,-0.187725349125042,https://www.yelp.com/biz/the-orangery-london-7?adjust_creative=-uBzzloii2ivvF3N0jkhKQ&utm_campaign=yelp_api_v3&utm_medium=api_v3_business_search&utm_source=-uBzzloii2ivvF3N0jkhKQ,PBFvhVyBi0lEJyTbyuxf5w
18,New London Cafe,British,4.5,£,216 St Paul's Road,51.546910711,-0.0983781045074466,https://www.yelp.com/biz/new-london-cafe-london?adjust_creative=-uBzzloii2ivvF3N0jkhKQ&utm_campaign=yelp_api_v3&utm_medium=api_v3_business_search&utm_source=-uBzzloii2ivvF3N0jkhKQ,PHTcl--LbBwA1N6EHZV_sg
19,Peggy Porschen,Cafes,,,219 King's Road,51.48651,-0.17089,,
20,Seoul Bakery,Cafes,4.5,£,14 Great Russell Street,51.517237,-0.129569,https://www.yelp.com/biz/seoul-bakery-london-3?adjust_creative=-uBzzloii2ivvF3N0jkhKQ&utm_campaign=yelp_api_v3&utm_medium=api_v3_business_search&utm_source=-uBzzloii2ivvF3N0jkhKQ,WotOpvaXPZW2Yx-dzoK73w
21,Fabrique Bakery,Cafes,,,53 Goodge Street,51.5191208284928,-0.136215056815711,,
22,Ripe Kitchen,Cafes,,,136 Regents Park Road,51.5406973,-0.1572616,,
23,L'eto Caffe,Cafes,4.5,£££,149 King's Road,51.48794,-0.167225,https://www.yelp.com/biz/l-eto-caffe-london-6?adjust_creative=-uBzzloii2ivvF3N0jkhKQ&utm_campaign=yelp_api_v3&utm_medium=api_v3_business_search&utm_source=-uBzzloii2ivvF3N0jkhKQ,Qk9CwHdpFgYo1Za77yfPtQ
24,Mihbaj Café & Kitchen,Cafes,4.5,££,153 Praed Street,51.516163,-0.1744713,https://www.yelp.com/biz/mihbaj-caf%C3%A9-and-kitchen-london?adjust_creative=-uBzzloii2ivvF3N0jkhKQ&utm_campaign=yelp_api_v3&utm_medium=api_v3_business_search&utm_source=-uBzzloii2ivvF3N0jkhKQ,cFCAYrs6LX17ucDFEWMXLg
25,The Ivy Café,Cafes,4.0,££,120 Saint John's Wood High Street,51.5335598,-0.1705403,https://www.yelp.com/biz/the-ivy-caf%C3%A9-london-2?adjust_creative=-uBzzloii2ivvF3N0jkhKQ&utm_campaign=yelp_api_v3&utm_medium=api_v3_business_search&utm_source=-uBzzloii2ivvF3N0jkhKQ,2W5-ITjCbbdRO6_VSn3Jng
26,The Ivy Cafe - Marylebone,Cafes,4.0,££,96 Marylebone Lane,51.5174429568542,-0.150753520220344,https://www.yelp.com/biz/the-ivy-cafe-marylebone-london?adjust_creative=-uBzzloii2ivvF3N0jkhKQ&utm_campaign=yelp_api_v3&utm_medium=api_v3_business_search&utm_source=-uBzzloii2ivvF3N0jkhKQ,6ugop_2_fnetqRX6DbRNmA
27,Friends of Ours,Cafes,4.5,££,61 Pitfield Street,51.5291189,-0.0836995,https://www.yelp.com/biz/friends-of-ours-london?adjust_creative=-uBzzloii2ivvF3N0jkhKQ&utm_campaign=yelp_api_v3&utm_medium=api_v3_business_search&utm_source=-uBzzloii2ivvF3N0jkhKQ,-ylzTrYtRJUJa2BuAInoyQ
28,The RA Grand Cafe,Cafes,4.0,££,Burlington House,51.5093544,-0.1399078,https://www.yelp.com/biz/the-ra-grand-cafe-london?adjust_creative=-uBzzloii2ivvF3N0jkhKQ&utm_campaign=yelp_api_v3&utm_medium=api_v3_business_search&utm_source=-uBzzloii2ivvF3N0jkhKQ,illIEFnTN27Skw0M6ntz1Q
29,EZ & Moss,Cafes,4.5,£,183 Holloway Road,51.5501848,-0.1092206,https://www.yelp.com/biz/ez-and-moss-london?adjust_creative=-uBzzloii2ivvF3N0jkhKQ&utm_campaign=yelp_api_v3&utm_medium=api_v3_business_search&utm_source=-uBzzloii2ivvF3N0jkhKQ,k-qIxL_IHDlXxlgDpNkN7Q
30,Photographer's Gallery Café,Cafes,,,Ramillies Street 16-18,51.514787,-0.138822,,
31,Cafe Dylan Dog,Cafes,4.5,£,7 Craven Road,51.5148811,-0.1765969,https://www.yelp.com/biz/cafe-dylan-dog-london?adjust_creative=-uBzzloii2ivvF3N0jkhKQ&utm_campaign=yelp_api_v3&utm_medium=api_v3_business_search&utm_source=-uBzzloii2ivvF3N0jkhKQ,A-IeaZPEGOcqMvVc4vw8Kw
32,Scooter Caffè,Cafes,4.5,£,132 Lower Marsh,51.500341224864,-0.11381534473676,https://www.yelp.com/biz/scooter-caff%C3%A8-london-2?adjust_creative=-uBzzloii2ivvF3N0jkhKQ&utm_campaign=yelp_api_v3&utm_medium=api_v3_business_search&utm_source=-uBzzloii2ivvF3N0jkhKQ,iXVq9PcCT-a34FzaXbUagA
33,The Fields Beneath,Cafes,4.5,£,52a Prince of Wales Road,51.5466077925974,-0.146729706191089,https://www.yelp.com/biz/the-fields-beneath-london?adjust_creative=-uBzzloii2ivvF3N0jkhKQ&utm_campaign=yelp_api_v3&utm_medium=api_v3_business_search&utm_source=-uBzzloii2ivvF3N0jkhKQ,JufEVrCH41pMNDuS9_N-gw
34,My Place Soho,Cafes,4.5,££,21 Berwick Street,51.5138405,-0.1346902,https://www.yelp.com/biz/my-place-soho-london?adjust_creative=-uBzzloii2ivvF3N0jkhKQ&utm_campaign=yelp_api_v3&utm_medium=api_v3_business_search&utm_source=-uBzzloii2ivvF3N0jkhKQ,fp5po-wno5RLU4Rz0q0h-w
35,The Marylebone Kitchen,Cafes,,,106 York Street,51.5197623,-0.1639772,,
36,Italian Gardens Cafe,Cafes,4.0,£,61 Bayswater Road,51.5115726564169,-0.175203145592036,https://www.yelp.com/biz/italian-gardens-cafe-london?adjust_creative=-uBzzloii2ivvF3N0jkhKQ&utm_campaign=yelp_api_v3&utm_medium=api_v3_business_search&utm_source=-uBzzloii2ivvF3N0jkhKQ,KBTZHuvXVCwEskNtj0Q1SA
37,EL&N,Cafes,,,42 Hans Cres,51.4998051,-0.1620998,,
38,Sally White,Cafes,4.0,££,353 Kennington Road,51.4872522,-0.1111273,https://www.yelp.com/biz/sally-white-london?adjust_creative=-uBzzloii2ivvF3N0jkhKQ&utm_campaign=yelp_api_v3&utm_medium=api_v3_business_search&utm_source=-uBzzloii2ivvF3N0jkhKQ,Nb7nzRoJdGi74Q1TOTcwUw
39,Silverberry Deli & Kitchen,Cafes,5.0,££,14 Pond Street,51.5540823038372,-0.165075874311875,https://www.yelp.com/biz/silverberry-deli-and-kitchen-london?adjust_creative=-uBzzloii2ivvF3N0jkhKQ&utm_campaign=yelp_api_v3&utm_medium=api_v3_business_search&utm_source=-uBzzloii2ivvF3N0jkhKQ,ypsFAFBmx2cUq1DZ5esZRA
40,I Will Kill Again,Cafes,,,Arch 216 Dark Arts Coffee,51.5472640626661,-0.0468713453717017,,
41,Daisy Green,Cafes,4.0,££,20 Seymour Street,51.5148104,-0.1579352,https://www.yelp.com/biz/daisy-green-london-2?adjust_creative=-uBzzloii2ivvF3N0jkhKQ&utm_campaign=yelp_api_v3&utm_medium=api_v3_business_search&utm_source=-uBzzloii2ivvF3N0jkhKQ,91TQLypsN7trt-EyX8TgBQ
42,Cinq,Cafes,,,193 Piccadilly,51.5087032,-0.1376422,,
43,Double Six Cafe,Cafes,4.5,£,66 Eversholt Street,51.5295715,-0.1330154,https://www.yelp.com/biz/double-six-cafe-london?adjust_creative=-uBzzloii2ivvF3N0jkhKQ&utm_campaign=yelp_api_v3&utm_medium=api_v3_business_search&utm_source=-uBzzloii2ivvF3N0jkhKQ,-MMUfvKPJXeo5ONoHSw7Zw
44,Kaffeine,Cafes,5.0,£,15 Eastcastle Street,51.5168726,-0.137167,https://www.yelp.com/biz/kaffeine-london-2?adjust_creative=-uBzzloii2ivvF3N0jkhKQ&utm_campaign=yelp_api_v3&utm_medium=api_v3_business_search&utm_source=-uBzzloii2ivvF3N0jkhKQ,12y5F7hEoYAgur9eslpqCg
45,Caffe Pascucci,Cafes,,,189 Piccadilly,51.5086403,-0.1376713,,
46,Ginger Jules,Cafes,,,Gordon Square,51.524925,-0.131659,,
47,The Hive SW6,Cafes,5.0,£,670 Fulham Road,51.4754906,-0.2062352,https://www.yelp.com/biz/the-hive-sw6-london?adjust_creative=-uBzzloii2ivvF3N0jkhKQ&utm_campaign=yelp_api_v3&utm_medium=api_v3_business_search&utm_source=-uBzzloii2ivvF3N0jkhKQ,JV97uhTY3WFQPtm80YI5YA
48,Portobello Garden Caffe',Cafes,4.5,££,269b Portobello Road,51.5180217,-0.2069201,https://www.yelp.com/biz/portobello-garden-caffe-london?adjust_creative=-uBzzloii2ivvF3N0jkhKQ&utm_campaign=yelp_api_v3&utm_medium=api_v3_business_search&utm_source=-uBzzloii2ivvF3N0jkhKQ,ZT8M0TcLZXXcdPaMbk18Cg
49,Feya,Cafes,,,146 Brompton Road,51.4985063616543,-0.166267723613714,,
50,The Quince Tree,Cafes,4.5,£££,Clifton Nurseries,51.522522,-0.1849087,https://www.yelp.com/biz/the-quince-tree-london?adjust_creative=-uBzzloii2ivvF3N0jkhKQ&utm_campaign=yelp_api_v3&utm_medium=api_v3_business_search&utm_source=-uBzzloii2ivvF3N0jkhKQ,MF6Xwxep-fx_WfjpR-hmRQ
51,L'Eto Caffe,Cafes,4.0,££,155 Wardour Street,51.514301,-0.134786,https://www.yelp.com/biz/l-eto-caffe-london?adjust_creative=-uBzzloii2ivvF3N0jkhKQ&utm_campaign=yelp_api_v3&utm_medium=api_v3_business_search&utm_source=-uBzzloii2ivvF3N0jkhKQ,J38s3iokvd30sRGi5uB9lA
52,Mill & Brew,Cafes,5.0,£,23 The Broadway,51.6144307,-0.2483771,https://www.yelp.com/biz/mill-and-brew-london-3?adjust_creative=-uBzzloii2ivvF3N0jkhKQ&utm_campaign=yelp_api_v3&utm_medium=api_v3_business_search&utm_source=-uBzzloii2ivvF3N0jkhKQ,RdVuh5xQAkzULoKtjXsE1Q
53,The Arts Cafe,Cafes,,,The Arts Theatre,51.5119065,-0.1276458,,
54,The Monocle Cafe,Cafes,4.0,£,18 Chiltern Street,51.5188109085709,-0.154666668198166,https://www.yelp.com/biz/the-monocle-cafe-london?adjust_creative=-uBzzloii2ivvF3N0jkhKQ&utm_campaign=yelp_api_v3&utm_medium=api_v3_business_search&utm_source=-uBzzloii2ivvF3N0jkhKQ,y8xX3BDj1bf7-wc4Q9Atvg
55,Farm Girl Cafe,Cafes,4.0,££,59A Portobello Road,51.5120686916922,-0.200769876546774,https://www.yelp.com/biz/farm-girl-cafe-london?adjust_creative=-uBzzloii2ivvF3N0jkhKQ&utm_campaign=yelp_api_v3&utm_medium=api_v3_business_search&utm_source=-uBzzloii2ivvF3N0jkhKQ,aGqt0g9_WU2UGituR7yn-w
56,Cafe Twelve,Cafes,4.5,£,57 Hackney Rd,51.528322,-0.075946,https://www.yelp.com/biz/cafe-twelve-london?adjust_creative=-uBzzloii2ivvF3N0jkhKQ&utm_campaign=yelp_api_v3&utm_medium=api_v3_business_search&utm_source=-uBzzloii2ivvF3N0jkhKQ,EanCLBAeSJNU9MA0pVlHVg
57,Westminster Abbey Coffee Club,Cafes,,,In front of Westminster Abbey,51.49891,-0.128286,,
58,Cafe Babka,Cafes,,,44 Great Russell Street,51.5180054019877,-0.126519799232483,,
59,Long Shot Coffee,Cafes,4.5,£,127 Leman Street,51.5117874,-0.0687977,https://www.yelp.com/biz/long-shot-coffee-london?adjust_creative=-uBzzloii2ivvF3N0jkhKQ&utm_campaign=yelp_api_v3&utm_medium=api_v3_business_search&utm_source=-uBzzloii2ivvF3N0jkhKQ,39nGPmVcnpp3RaenmlfZCQ
60,Fortitude Bakehouse,Cafes,,,35 Colonnade,51.5229210884015,-0.124047992374525,,
61,Pedro's Cafe,Cafes,,,165 Kentish Town Road,51.5458423,-0.1418939,,
62,Regency Café,Cafes,4.5,£,17-19 Regency Street,51.4940143171,-0.13222007974201,https://www.yelp.com/biz/regency-caf%C3%A9-london-2?adjust_creative=-uBzzloii2ivvF3N0jkhKQ&utm_campaign=yelp_api_v3&utm_medium=api_v3_business_search&utm_source=-uBzzloii2ivvF3N0jkhKQ,YNduANMPzIVE8CzBH7YjEQ
63,Gino's Cafe,Cafes,,,69 Welbeck Street,51.516,-0.149106,,
64,Bonjour Brioche,Cafes,,,187 North End Road,51.4900052,-0.20631690489347,,
65,Cereal Killer Cafe,Cafes,4.0,£,192 Brick Lane,51.5237499257239,-0.071338377892971,https://www.yelp.com/biz/cereal-killer-cafe-london?adjust_creative=-uBzzloii2ivvF3N0jkhKQ&utm_campaign=yelp_api_v3&utm_medium=api_v3_business_search&utm_source=-uBzzloii2ivvF3N0jkhKQ,pQS5srLHVMsb4EU9uep9Gw
66,Kennington Lane Cafe,Cafes,5.0,£,383 Kennington Lane,51.4860611,-0.1208514,https://www.yelp.com/biz/kennington-lane-cafe-london?adjust_creative=-uBzzloii2ivvF3N0jkhKQ&utm_campaign=yelp_api_v3&utm_medium=api_v3_business_search&utm_source=-uBzzloii2ivvF3N0jkhKQ,p77CnjTGOIZA1hEpLfCC6Q
67,Crescent Coffee,Cafes,,,1 Hurdwick Place,51.534163,-0.138892,,
68,Royal Exchange,Cafes,4.5,£££,Threadneedle,51.5135777175252,-0.087540410301783,https://www.yelp.com/biz/royal-exchange-london-2?adjust_creative=-uBzzloii2ivvF3N0jkhKQ&utm_campaign=yelp_api_v3&utm_medium=api_v3_business_search&utm_source=-uBzzloii2ivvF3N0jkhKQ,kk3nbq6MrB_S36Gj_vqIFw
69,The Pigeon Hole Cafe,Cafes,,,2 Datchelor Place,51.4739723205566,-0.0887290015816689,,
70,Urban Pantry,Cafes,,,15 Devonshire Road,51.4916802381695,-0.255905280028632,,
71,Kanella & Co,Cafes,,,106 Lordship Lane,51.4572122,-0.0757312,,
72,Wellcome Kitchen,Cafes,,,183 Euston Road,51.5259056091309,-0.133955001831055,,
73,Ole & Steen,Cafes,,,1 Bedford Avenue,51.517686,-0.13121,,
74,Caffe Concerto,Cafes,3.0,££,61 Piccadilly,51.5080342,-0.1404697,https://www.yelp.com/biz/caffe-concerto-london-30?adjust_creative=-uBzzloii2ivvF3N0jkhKQ&utm_campaign=yelp_api_v3&utm_medium=api_v3_business_search&utm_source=-uBzzloii2ivvF3N0jkhKQ,99cI70VVcGEw_PlBslo9QA
75,L'ETO,Cafes,4.5,££,243 Brompton Road,51.496624,-0.1688603,https://www.yelp.com/biz/l-eto-london-2?adjust_creative=-uBzzloii2ivvF3N0jkhKQ&utm_campaign=yelp_api_v3&utm_medium=api_v3_business_search&utm_source=-uBzzloii2ivvF3N0jkhKQ,6NIJqOFjLUPXnGaJbxW3lA
76,Cafe Van Gogh,Cafes,,,88-96 Brixton Road,51.4777129,-0.112505,,
77,Chatime,Cafes,3.5,£,Unit 34,51.524453914796,-0.124379430363801,https://www.yelp.com/biz/chatime-london-3?adjust_creative=-uBzzloii2ivvF3N0jkhKQ&utm_campaign=yelp_api_v3&utm_medium=api_v3_business_search&utm_source=-uBzzloii2ivvF3N0jkhKQ,kEI6mZ6EBzYFJ9veQ-vD3A
78,The Wolseley,Cafes,4.0,£££,160 Picadilly,51.507617,-0.141012,https://www.yelp.com/biz/the-wolseley-london?adjust_creative=-uBzzloii2ivvF3N0jkhKQ&utm_campaign=yelp_api_v3&utm_medium=api_v3_business_search&utm_source=-uBzzloii2ivvF3N0jkhKQ,e5jPAqpCcIAsTtasUN5h2g
79,D1 Coffee,Cafes,5.0,££,1 Aberdeen Place,51.5248684,-0.1763357,https://www.yelp.com/biz/d1-coffee-little-venice?adjust_creative=-uBzzloii2ivvF3N0jkhKQ&utm_campaign=yelp_api_v3&utm_medium=api_v3_business_search&utm_source=-uBzzloii2ivvF3N0jkhKQ,DXMoezQ1WxA-lzvSNPg6Og
80,Mimos Cafe,Cafes,4.0,£,19 London Street,51.5150959,-0.174005,https://www.yelp.com/biz/mimos-cafe-london?adjust_creative=-uBzzloii2ivvF3N0jkhKQ&utm_campaign=yelp_api_v3&utm_medium=api_v3_business_search&utm_source=-uBzzloii2ivvF3N0jkhKQ,3ViNQObKHR6l02hkvBFClw
81,Piggy's Cafe,Cafes,,,Billingsgate Market,51.5062603,-0.0148893,,
82,Candy Café,Chinese,4.0,£,3 Macclesfield Street,51.511873,-0.131473,https://www.yelp.com/biz/candy-caf%C3%A9-london-2?adjust_creative=-uBzzloii2ivvF3N0jkhKQ&utm_campaign=yelp_api_v3&utm_medium=api_v3_business_search&utm_source=-uBzzloii2ivvF3N0jkhKQ,nAwpCaUpBIneyj1Vg0Zlcw
83,Said,Chocolatiers & Shops,4.0,££,41 Broadwick Street,51.5132248,-0.136738,https://www.yelp.com/biz/said-london?adjust_creative=-uBzzloii2ivvF3N0jkhKQ&utm_campaign=yelp_api_v3&utm_medium=api_v3_business_search&utm_source=-uBzzloii2ivvF3N0jkhKQ,Z_KQWTzlUVWjVoFd0b77aw
84,Shoreditch Grind,Coffee & Tea,4.0,££,213 Old Street,51.5258391235513,-0.0879659656067133,https://www.yelp.com/biz/shoreditch-grind-london?adjust_creative=-uBzzloii2ivvF3N0jkhKQ&utm_campaign=yelp_api_v3&utm_medium=api_v3_business_search&utm_source=-uBzzloii2ivvF3N0jkhKQ,S3h8uhI3wK2Fn4e9gw9bfA
85,Chamomile,Coffee & Tea,4.0,££,45 England's Lane,51.5456005,-0.1623197,https://www.yelp.com/biz/chamomile-london?adjust_creative=-uBzzloii2ivvF3N0jkhKQ&utm_campaign=yelp_api_v3&utm_medium=api_v3_business_search&utm_source=-uBzzloii2ivvF3N0jkhKQ,lMxu8jhSIb_liUki8cy2Wg
86,Pimlico Fresh,Coffee & Tea,4.5,££,85 Wilton Road,51.492391374275,-0.14021524722041,https://www.yelp.com/biz/pimlico-fresh-london?adjust_creative=-uBzzloii2ivvF3N0jkhKQ&utm_campaign=yelp_api_v3&utm_medium=api_v3_business_search&utm_source=-uBzzloii2ivvF3N0jkhKQ,jrRKp4dsl9uTQjBb0uBbfw
87,Cafe Olive,Coffee & Tea,5.0,££,192 Southgate Road,51.5456429,-0.0834334,https://www.yelp.com/biz/cafe-olive-london-2?adjust_creative=-uBzzloii2ivvF3N0jkhKQ&utm_campaign=yelp_api_v3&utm_medium=api_v3_business_search&utm_source=-uBzzloii2ivvF3N0jkhKQ,Lrfm0sdK45KHT373xrAgkA
88,Raison D'Etre,Coffee & Tea,4.5,£,18 Bute Street,51.493706018346,-0.17628170716244,https://www.yelp.com/biz/raison-d-etre-london?adjust_creative=-uBzzloii2ivvF3N0jkhKQ&utm_campaign=yelp_api_v3&utm_medium=api_v3_business_search&utm_source=-uBzzloii2ivvF3N0jkhKQ,x58LDkXGU7vC8-KRDlS9Mw
89,The Wren Coffee,Coffee & Tea,4.5,£,St Nicholas Cole Abbey,51.5121468,-0.0975965,https://www.yelp.com/biz/the-wren-coffee-london?adjust_creative=-uBzzloii2ivvF3N0jkhKQ&utm_campaign=yelp_api_v3&utm_medium=api_v3_business_search&utm_source=-uBzzloii2ivvF3N0jkhKQ,RlX1FLa740WcSP5QMLZ-mQ
90,Streets Coffee,Coffee & Tea,,,289 Finchley Road,51.5493402,-0.181955,,
91,'The Black Lab' Coffee House,Coffee & Tea,4.0,££,18 Clapham Common South Side,51.4610903556983,-0.138673064112254,https://www.yelp.com/biz/the-black-lab-coffee-house-london?adjust_creative=-uBzzloii2ivvF3N0jkhKQ&utm_campaign=yelp_api_v3&utm_medium=api_v3_business_search&utm_source=-uBzzloii2ivvF3N0jkhKQ,ghg0SAC1cuKkk46ji-M9Kw
92,Pattern Coffee,Coffee & Tea,4.0,££,82 Caledonian Rd,51.532962,-0.119133,https://www.yelp.com/biz/pattern-coffee-london?adjust_creative=-uBzzloii2ivvF3N0jkhKQ&utm_campaign=yelp_api_v3&utm_medium=api_v3_business_search&utm_source=-uBzzloii2ivvF3N0jkhKQ,aYd2mlWPlQmJdKHbiWq0PA
93,Doppio Cafe,Coffee & Tea,4.0,£,177 Kentish Town Road,51.5461019420634,-0.141918025910854,https://www.yelp.com/biz/doppio-cafe-london?adjust_creative=-uBzzloii2ivvF3N0jkhKQ&utm_campaign=yelp_api_v3&utm_medium=api_v3_business_search&utm_source=-uBzzloii2ivvF3N0jkhKQ,I1FOTVrKirQfWT1yv25yxA
94,Prufrock Coffee,Coffee & Tea,4.0,££,23-25 Leather Lane,51.51997,-0.10958,https://www.yelp.com/biz/prufrock-coffee-london-2?adjust_creative=-uBzzloii2ivvF3N0jkhKQ&utm_campaign=yelp_api_v3&utm_medium=api_v3_business_search&utm_source=-uBzzloii2ivvF3N0jkhKQ,MliUZtEV91sjiNN-OgLq_A
95,Knockbox Coffee,Coffee & Tea,4.5,£,29 Lambs Conduit Street,51.5211323,-0.1180363,https://www.yelp.com/biz/knockbox-coffee-london?adjust_creative=-uBzzloii2ivvF3N0jkhKQ&utm_campaign=yelp_api_v3&utm_medium=api_v3_business_search&utm_source=-uBzzloii2ivvF3N0jkhKQ,9kYUIi9guLcWh3iFOJ_vWg
96,The Old Dairy Cafe,Coffee & Tea,,,35 Conway Street,51.5234260559082,-0.141537994146347,,
97,Palm Vaults,Coffee & Tea,4.5,££,411 Mare Street,51.5492266,-0.0552513,https://www.yelp.com/biz/palm-vaults-hackney?adjust_creative=-uBzzloii2ivvF3N0jkhKQ&utm_campaign=yelp_api_v3&utm_medium=api_v3_business_search&utm_source=-uBzzloii2ivvF3N0jkhKQ,YSH7Np4HykZbK0IpmAMJhQ
98,Karma Bread,Coffee & Tea,4.5,££,13 S End Road,51.5544616396241,-0.165723802891784,https://www.yelp.com/biz/karma-bread-london?adjust_creative=-uBzzloii2ivvF3N0jkhKQ&utm_campaign=yelp_api_v3&utm_medium=api_v3_business_search&utm_source=-uBzzloii2ivvF3N0jkhKQ,Vc_Pw4jlrak_LlCk8DHBJA
99,Artisan,Coffee & Tea,4.5,££,32 New Broadway Ealing,51.513316,-0.306361,https://www.yelp.com/biz/artisan-london-3?adjust_creative=-uBzzloii2ivvF3N0jkhKQ&utm_campaign=yelp_api_v3&utm_medium=api_v3_business_search&utm_source=-uBzzloii2ivvF3N0jkhKQ,8fOwzD6Ksk7fFinUzozVvg
100,L'eto Caffe,Coffee & Tea,4.0,££,10 W Halkin Street,51.4987685,-0.1570349,https://www.yelp.com/biz/l-eto-caffe-london-3?adjust_creative=-uBzzloii2ivvF3N0jkhKQ&utm_campaign=yelp_api_v3&utm_medium=api_v3_business_search&utm_source=-uBzzloii2ivvF3N0jkhKQ,IFx29LvkxdZx8pTp-JrvnA
101,Sacred,Coffee & Tea,4.0,£,13 Ganton Street,51.512954,-0.138923,https://www.yelp.com/biz/sacred-london?adjust_creative=-uBzzloii2ivvF3N0jkhKQ&utm_campaign=yelp_api_v3&utm_medium=api_v3_business_search&utm_source=-uBzzloii2ivvF3N0jkhKQ,dyAE0ROgElNHbRa-y3CfFw
102,Store Street Espresso,Coffee & Tea,4.0,££,40 Store Street,51.5200997,-0.1306308,https://www.yelp.com/biz/store-street-espresso-london?adjust_creative=-uBzzloii2ivvF3N0jkhKQ&utm_campaign=yelp_api_v3&utm_medium=api_v3_business_search&utm_source=-uBzzloii2ivvF3N0jkhKQ,MXYj38qKszh9Z7YATzmrrA
103,Casa Tua,Coffee & Tea,4.5,£,106 Cromer Street,51.5276449011142,-0.123588235886524,https://www.yelp.com/biz/casa-tua-london-2?adjust_creative=-uBzzloii2ivvF3N0jkhKQ&utm_campaign=yelp_api_v3&utm_medium=api_v3_business_search&utm_source=-uBzzloii2ivvF3N0jkhKQ,E_3NekwxctQ3BzN7tLKk2A
104,The Waiting Room,Coffee & Tea,4.5,£,142 Deptford High Street,51.4792366027832,-0.0259060002863407,https://www.yelp.com/biz/the-waiting-room-london-2?adjust_creative=-uBzzloii2ivvF3N0jkhKQ&utm_campaign=yelp_api_v3&utm_medium=api_v3_business_search&utm_source=-uBzzloii2ivvF3N0jkhKQ,khnhd6DnBb-zIfZEC1y9zg
105,Tap Coffee,Coffee & Tea,4.0,£,193 Wardour Street,51.515468,-0.135823,https://www.yelp.com/biz/tap-coffee-london?adjust_creative=-uBzzloii2ivvF3N0jkhKQ&utm_campaign=yelp_api_v3&utm_medium=api_v3_business_search&utm_source=-uBzzloii2ivvF3N0jkhKQ,vLX78mD-aZPd-3AyGcryWA
106,Caffe Nero,Coffee & Tea,4.0,£,43 Frith Street,51.5132621,-0.1314045,https://www.yelp.com/biz/caffe-nero-london-278?adjust_creative=-uBzzloii2ivvF3N0jkhKQ&utm_campaign=yelp_api_v3&utm_medium=api_v3_business_search&utm_source=-uBzzloii2ivvF3N0jkhKQ,fIg1VEHmj9H7p1l3-GEUuQ
107,Bloomsbury Coffee House,Coffee & Tea,4.0,£,20 Tavistock Place,51.525250540481,-0.126389201213277,https://www.yelp.com/biz/bloomsbury-coffee-house-london?adjust_creative=-uBzzloii2ivvF3N0jkhKQ&utm_campaign=yelp_api_v3&utm_medium=api_v3_business_search&utm_source=-uBzzloii2ivvF3N0jkhKQ,tHKiDGayBq4RD0oL-DutCg
108,Byzantium Cafe,Coffee & Tea,,,31 Moscow Road,51.512401,-0.189185,,
109,Chloe's Espresso,Coffee & Tea,4.0,£,123 Regent's Park Road,51.5432794,-0.1550517,https://www.yelp.com/biz/chloes-espresso-london?adjust_creative=-uBzzloii2ivvF3N0jkhKQ&utm_campaign=yelp_api_v3&utm_medium=api_v3_business_search&utm_source=-uBzzloii2ivvF3N0jkhKQ,CIpC-cP7x5NyYPtOXLpuTg
110,Candid Café,Coffee & Tea,4.0,££,3 Torrens Street,51.532232,-0.105091,https://www.yelp.com/biz/candid-caf%C3%A9-london-2?adjust_creative=-uBzzloii2ivvF3N0jkhKQ&utm_campaign=yelp_api_v3&utm_medium=api_v3_business_search&utm_source=-uBzzloii2ivvF3N0jkhKQ,xyGoZSV_Gqh11iusdToF1Q
111,Caffè Nero,Coffee & Tea,4.0,£,Unit 38,51.514874793045,-0.176135101189141,https://www.yelp.com/biz/caff%C3%A8-nero-london-174?adjust_creative=-uBzzloii2ivvF3N0jkhKQ&utm_campaign=yelp_api_v3&utm_medium=api_v3_business_search&utm_source=-uBzzloii2ivvF3N0jkhKQ,nmkSaHYYp6ntKv1kBNB0ug
112,26 Grains,Coffee & Tea,4.5,£,1 Neal's Yard,51.5143765,-0.126556,https://www.yelp.com/biz/26-grains-london?adjust_creative=-uBzzloii2ivvF3N0jkhKQ&utm_campaign=yelp_api_v3&utm_medium=api_v3_business_search&utm_source=-uBzzloii2ivvF3N0jkhKQ,Lr5_1a2rIyzA7W-6UPKS-A
113,The Gentlemen Baristas,Coffee & Tea,4.5,£,63 Union Street,51.503841999477,-0.0947035655992168,https://www.yelp.com/biz/the-gentlemen-baristas-london?adjust_creative=-uBzzloii2ivvF3N0jkhKQ&utm_campaign=yelp_api_v3&utm_medium=api_v3_business_search&utm_source=-uBzzloii2ivvF3N0jkhKQ,XN7K4g1Wq-93WYvg85EgMg
114,The Coffee Room,Coffee & Tea,4.5,£,6A Grove Road,51.5264645,-0.0354996,https://www.yelp.com/biz/the-coffee-room-london?adjust_creative=-uBzzloii2ivvF3N0jkhKQ&utm_campaign=yelp_api_v3&utm_medium=api_v3_business_search&utm_source=-uBzzloii2ivvF3N0jkhKQ,P_maLzj1XGKe19PqsZNG5g
115,Host Cafe,Coffee & Tea,5.0,£,Saint Mary Aldermary,51.5126908219997,-0.0935071706771851,https://www.yelp.com/biz/host-cafe-london-2?adjust_creative=-uBzzloii2ivvF3N0jkhKQ&utm_campaign=yelp_api_v3&utm_medium=api_v3_business_search&utm_source=-uBzzloii2ivvF3N0jkhKQ,-HkQk8DoHwNvzuLKmsWwOA
116,Hackney Coffee Company,Coffee & Tea,4.0,££,503 Hackney Road,51.5325459,-0.0584213,https://www.yelp.com/biz/hackney-coffee-company-london?adjust_creative=-uBzzloii2ivvF3N0jkhKQ&utm_campaign=yelp_api_v3&utm_medium=api_v3_business_search&utm_source=-uBzzloii2ivvF3N0jkhKQ,uA_H2UI3nPL7-L11G61-wA
117,Lanark Coffee,Coffee & Tea,5.0,£,262 Hackney Road,51.5309641,-0.0687264,https://www.yelp.com/biz/lanark-coffee-london?adjust_creative=-uBzzloii2ivvF3N0jkhKQ&utm_campaign=yelp_api_v3&utm_medium=api_v3_business_search&utm_source=-uBzzloii2ivvF3N0jkhKQ,Xqj98iIyqB3BDjkICbs8Eg
118,Flat White,Coffee & Tea,4.0,££,17 Berwick Street,51.513644,-0.134773,https://www.yelp.com/biz/flat-white-london?adjust_creative=-uBzzloii2ivvF3N0jkhKQ&utm_campaign=yelp_api_v3&utm_medium=api_v3_business_search&utm_source=-uBzzloii2ivvF3N0jkhKQ,qtW1fg8pyGOXKJnAIk7Wmg
119,Over Under Coffee,Coffee & Tea,4.5,£,181A Earl's Court Road,51.4923794,-0.1930041,https://www.yelp.com/biz/over-under-coffee-london-3?adjust_creative=-uBzzloii2ivvF3N0jkhKQ&utm_campaign=yelp_api_v3&utm_medium=api_v3_business_search&utm_source=-uBzzloii2ivvF3N0jkhKQ,BNAddFkvoUGR1l6AL32p8w
120,Black Sheep Coffee,Coffee & Tea,4.0,££,5-7 Goodge Street,51.5199084,-0.1340499,https://www.yelp.com/biz/black-sheep-coffee-london-14?adjust_creative=-uBzzloii2ivvF3N0jkhKQ&utm_campaign=yelp_api_v3&utm_medium=api_v3_business_search&utm_source=-uBzzloii2ivvF3N0jkhKQ,AH_Hk4-QQ7KbkIs4H6lfTQ
121,The Breakfast Club,Coffee & Tea,4.0,££,33 D'Arblay Street,51.514733,-0.135406,https://www.yelp.com/biz/the-breakfast-club-london-2?adjust_creative=-uBzzloii2ivvF3N0jkhKQ&utm_campaign=yelp_api_v3&utm_medium=api_v3_business_search&utm_source=-uBzzloii2ivvF3N0jkhKQ,tYynO1nOy1GKxMV3jkxbmw
122,Kaffeine,Coffee & Tea,4.5,££,66 Great Titchfield Street,51.51848,-0.14037,https://www.yelp.com/biz/kaffeine-london?adjust_creative=-uBzzloii2ivvF3N0jkhKQ&utm_campaign=yelp_api_v3&utm_medium=api_v3_business_search&utm_source=-uBzzloii2ivvF3N0jkhKQ,mvds37L7mCurGn3rGPM8ag
123,Truly Scrumptious,Coffee & Tea,4.5,£,67 Chalk Farm Road,51.543384,-0.150603,https://www.yelp.com/biz/truly-scrumptious-london?adjust_creative=-uBzzloii2ivvF3N0jkhKQ&utm_campaign=yelp_api_v3&utm_medium=api_v3_business_search&utm_source=-uBzzloii2ivvF3N0jkhKQ,3txeypXuJ-MqNt8LGopsOQ
124,Vanilla Black Coffee and Books,Coffee & Tea,4.5,£,306-308 Kennington Road,51.4874737983978,-0.11141661554575,https://www.yelp.com/biz/vanilla-black-coffee-and-books-london?adjust_creative=-uBzzloii2ivvF3N0jkhKQ&utm_campaign=yelp_api_v3&utm_medium=api_v3_business_search&utm_source=-uBzzloii2ivvF3N0jkhKQ,o1gFln8kSV4Y36Zo420dyQ
125,TY Seven Dials - Timberyard,Coffee & Tea,4.5,££,7 Upper St Martin's Lane,51.5128577362728,-0.127308054907987,https://www.yelp.com/biz/ty-seven-dials-timberyard-london-2?adjust_creative=-uBzzloii2ivvF3N0jkhKQ&utm_campaign=yelp_api_v3&utm_medium=api_v3_business_search&utm_source=-uBzzloii2ivvF3N0jkhKQ,ztuEuIDjVTJMklB2OP3rpg
126,The Attendant,Coffee & Tea,4.5,£,Downstairs 27A,51.5192470995905,-0.140738025145255,https://www.yelp.com/biz/the-attendant-london-2?adjust_creative=-uBzzloii2ivvF3N0jkhKQ&utm_campaign=yelp_api_v3&utm_medium=api_v3_business_search&utm_source=-uBzzloii2ivvF3N0jkhKQ,PYwzVOvFIjwCMNYV5upPwg
127,Yumchaa Soho,Coffee & Tea,4.0,£,45 Berwick Street,51.515164726519,-0.13609727051977,https://www.yelp.com/biz/yumchaa-soho-london?adjust_creative=-uBzzloii2ivvF3N0jkhKQ&utm_campaign=yelp_api_v3&utm_medium=api_v3_business_search&utm_source=-uBzzloii2ivvF3N0jkhKQ,lkethHYEgAT3gE-09fLWag
128,Urban Baristas,Coffee & Tea,4.5,££,11 Queensway,51.5108318662288,-0.187354646623135,https://www.yelp.com/biz/urban-baristas-london-2?adjust_creative=-uBzzloii2ivvF3N0jkhKQ&utm_campaign=yelp_api_v3&utm_medium=api_v3_business_search&utm_source=-uBzzloii2ivvF3N0jkhKQ,ZDDEKWdrpjJHqX2d0InVMg
129,Bäkehaus,Coffee & Tea,4.5,£,71 King Street,51.4926600176647,-0.227837562561035,https://www.yelp.com/biz/b%C3%A4kehaus-london-2?adjust_creative=-uBzzloii2ivvF3N0jkhKQ&utm_campaign=yelp_api_v3&utm_medium=api_v3_business_search&utm_source=-uBzzloii2ivvF3N0jkhKQ,rQKDeNCx8LkUR12YH9LpVg
130,Garden Shack Hideaway,Coffee & Tea,,,55 York Rd,51.5027676843354,-0.115942216752501,,
131,Exmouth Coffee Company,Coffee & Tea,4.5,££,83 Whitechapel High Street,51.515994,-0.070496,https://www.yelp.com/biz/exmouth-coffee-company-london?adjust_creative=-uBzzloii2ivvF3N0jkhKQ&utm_campaign=yelp_api_v3&utm_medium=api_v3_business_search&utm_source=-uBzzloii2ivvF3N0jkhKQ,DAE3fIusVTUGt9PDwPlelg
132,Milk,Coffee & Tea,4.5,££,18-20 Bedford Hill,51.444649,-0.1510286,https://www.yelp.com/biz/milk-london-2?adjust_creative=-uBzzloii2ivvF3N0jkhKQ&utm_campaign=yelp_api_v3&utm_medium=api_v3_business_search&utm_source=-uBzzloii2ivvF3N0jkhKQ,mK87F1KiR7Ph-iOwI45Thw
133,Kipferl,Coffee & Tea,4.0,££,20 Camden Passage,51.535247538411,-0.10339315152949,https://www.yelp.com/biz/kipferl-london-6?adjust_creative=-uBzzloii2ivvF3N0jkhKQ&utm_campaign=yelp_api_v3&utm_medium=api_v3_business_search&utm_source=-uBzzloii2ivvF3N0jkhKQ,xqpUr61KFa1Xx721-E6l_A
134,Soho Grind,Coffee & Tea,4.5,£,19 Beak Street,51.512154,-0.138379,https://www.yelp.com/biz/soho-grind-london-2?adjust_creative=-uBzzloii2ivvF3N0jkhKQ&utm_campaign=yelp_api_v3&utm_medium=api_v3_business_search&utm_source=-uBzzloii2ivvF3N0jkhKQ,XL7cx1Sb3dFPak2gkPOzKw
135,The Little One,Coffee & Tea,4.0,££,115 Regent's Park Road,51.5426041,-0.1555134,https://www.yelp.com/biz/the-little-one-london?adjust_creative=-uBzzloii2ivvF3N0jkhKQ&utm_campaign=yelp_api_v3&utm_medium=api_v3_business_search&utm_source=-uBzzloii2ivvF3N0jkhKQ,IfyCqU5noJALqrXTGKnQsQ
136,Beatles Coffee Shop,Coffee & Tea,4.5,£,St John's Wood Underground Station,51.5346523696246,-0.174049176031857,https://www.yelp.com/biz/beatles-coffee-shop-london?adjust_creative=-uBzzloii2ivvF3N0jkhKQ&utm_campaign=yelp_api_v3&utm_medium=api_v3_business_search&utm_source=-uBzzloii2ivvF3N0jkhKQ,tg8989Huoygge1GGqR1_8A
137,Birdhouse,Coffee & Tea,4.5,££,123 St John's Hill,51.4608992385793,-0.175180435180664,https://www.yelp.com/biz/birdhouse-london?adjust_creative=-uBzzloii2ivvF3N0jkhKQ&utm_campaign=yelp_api_v3&utm_medium=api_v3_business_search&utm_source=-uBzzloii2ivvF3N0jkhKQ,H-Ke1qRMqKd7rvlMBmcQ6A
138,Abbey Cafe,Coffee & Tea,,,3 Nugent Terrace,51.531848626266,-0.18065861355395,,
139,Beany Green,Coffee & Tea,4.5,££,Unit 6C,51.519873314712,-0.180045690126235,https://www.yelp.com/biz/beany-green-london?adjust_creative=-uBzzloii2ivvF3N0jkhKQ&utm_campaign=yelp_api_v3&utm_medium=api_v3_business_search&utm_source=-uBzzloii2ivvF3N0jkhKQ,za-KLljMB6yelgi2idCQPg
140,Caffe In,Coffee & Tea,4.5,££,3 Shepherd Street,51.506194,-0.146446,https://www.yelp.com/biz/caffe-in-london?adjust_creative=-uBzzloii2ivvF3N0jkhKQ&utm_campaign=yelp_api_v3&utm_medium=api_v3_business_search&utm_source=-uBzzloii2ivvF3N0jkhKQ,UjsIWFM9xcD9PCO0nJoMCQ
141,Tap Coffee No.114,Coffee & Tea,5.0,££,114 Tottenham Court Road,51.523831,-0.137085,https://www.yelp.com/biz/tap-coffee-no-114-london?adjust_creative=-uBzzloii2ivvF3N0jkhKQ&utm_campaign=yelp_api_v3&utm_medium=api_v3_business_search&utm_source=-uBzzloii2ivvF3N0jkhKQ,4LrPlD9U-E0oxyAFBCjChw
142,The Coffee Jar,Coffee & Tea,4.5,££,83 Parkway,51.5373402066451,-0.145319216450743,https://www.yelp.com/biz/the-coffee-jar-london?adjust_creative=-uBzzloii2ivvF3N0jkhKQ&utm_campaign=yelp_api_v3&utm_medium=api_v3_business_search&utm_source=-uBzzloii2ivvF3N0jkhKQ,7Nme-QeQ65gtQEyoB0KyEw
143,Feya,Coffee & Tea,,,23 James St,51.51509,-0.1508,,
144,The Borough Barista,Coffee & Tea,4.5,££,60A Seymour Street,51.514461025878,-0.16090849657059,https://www.yelp.com/biz/the-borough-barista-london?adjust_creative=-uBzzloii2ivvF3N0jkhKQ&utm_campaign=yelp_api_v3&utm_medium=api_v3_business_search&utm_source=-uBzzloii2ivvF3N0jkhKQ,mdy8N4wPOlOSiatLWKjLGg
145,Monmouth Coffee,Coffee & Tea,4.5,££,27 Monmouth Street,51.5143539,-0.1269168,https://www.yelp.com/biz/monmouth-coffee-london-3?adjust_creative=-uBzzloii2ivvF3N0jkhKQ&utm_campaign=yelp_api_v3&utm_medium=api_v3_business_search&utm_source=-uBzzloii2ivvF3N0jkhKQ,Opa8XUwUghxbGFafvubV6A
146,106 Baker St,Coffee & Tea,4.5,£,106 Baker Street,51.5207977,-0.1566825,https://www.yelp.com/biz/106-baker-st-london?adjust_creative=-uBzzloii2ivvF3N0jkhKQ&utm_campaign=yelp_api_v3&utm_medium=api_v3_business_search&utm_source=-uBzzloii2ivvF3N0jkhKQ,k7qmLDOGfESN8fDBQZZL7w
147,The Watch House,Coffee & Tea,4.5,££,199 Bermondsey Street,51.4980461313304,-0.0810502413027092,https://www.yelp.com/biz/the-watch-house-london-5?adjust_creative=-uBzzloii2ivvF3N0jkhKQ&utm_campaign=yelp_api_v3&utm_medium=api_v3_business_search&utm_source=-uBzzloii2ivvF3N0jkhKQ,-EPJuMu8Qbr5azjHu_QOtg
148,Ginger & White,Coffee & Tea,4.0,££,4 Perrin's Court,51.5554778031252,-0.178065,https://www.yelp.com/biz/ginger-and-white-london?adjust_creative=-uBzzloii2ivvF3N0jkhKQ&utm_campaign=yelp_api_v3&utm_medium=api_v3_business_search&utm_source=-uBzzloii2ivvF3N0jkhKQ,ltNrgT5KBga_-G09KPKUGA
149,Bar Italia,Coffee & Tea,4.0,£,22 Frith Street,51.513425,-0.131236,https://www.yelp.com/biz/bar-italia-london?adjust_creative=-uBzzloii2ivvF3N0jkhKQ&utm_campaign=yelp_api_v3&utm_medium=api_v3_business_search&utm_source=-uBzzloii2ivvF3N0jkhKQ,MzF9nlCdHZOaL5ocfY7QqQ
150,Black Sheep Coffee,Coffee & Tea,,,338 Euston Road,51.524656,-0.141609,,
151,Bonne Bouche,Coffee & Tea,4.0,£,2-3 Thayer Street,51.5181053211288,-0.151716128809521,https://www.yelp.com/biz/bonne-bouche-london?adjust_creative=-uBzzloii2ivvF3N0jkhKQ&utm_campaign=yelp_api_v3&utm_medium=api_v3_business_search&utm_source=-uBzzloii2ivvF3N0jkhKQ,nBHgQH6Fo7VZ5ipeV9FZmA
152,Fuckoffee,Coffee & Tea,4.0,£,163-167 Bermondsey Street,51.4993814,-0.0812485,https://www.yelp.com/biz/fuckoffee-london-3?adjust_creative=-uBzzloii2ivvF3N0jkhKQ&utm_campaign=yelp_api_v3&utm_medium=api_v3_business_search&utm_source=-uBzzloii2ivvF3N0jkhKQ,-22PaX8rQyh0ZQrdCiDz4A
153,H R Higgins,Coffee & Tea,4.5,££,79 Duke Street,51.5129642,-0.1508551,https://www.yelp.com/biz/h-r-higgins-london?adjust_creative=-uBzzloii2ivvF3N0jkhKQ&utm_campaign=yelp_api_v3&utm_medium=api_v3_business_search&utm_source=-uBzzloii2ivvF3N0jkhKQ,MIKUeHBDQs46i6YOVeNKyw
154,Kioskafé,Coffee & Tea,4.5,££,31 Norfolk Place,51.516821580645,-0.172688003330827,https://www.yelp.com/biz/kioskaf%C3%A9-london-2?adjust_creative=-uBzzloii2ivvF3N0jkhKQ&utm_campaign=yelp_api_v3&utm_medium=api_v3_business_search&utm_source=-uBzzloii2ivvF3N0jkhKQ,wzDJaIeVV89GVycKwMMeyw
155,Tiffins,Coffee & Tea,4.0,£,24-26 Leather Lane,51.5196881,-0.1090228,https://www.yelp.com/biz/tiffins-london?adjust_creative=-uBzzloii2ivvF3N0jkhKQ&utm_campaign=yelp_api_v3&utm_medium=api_v3_business_search&utm_source=-uBzzloii2ivvF3N0jkhKQ,pb1lTQ-SdGHT2wDkKzQRqA
156,The English Rose Cafe and Tea Shop,Coffee & Tea,4.5,££,4 Lower Grosvenor Place,51.4980558,-0.1444512,https://www.yelp.com/biz/the-english-rose-cafe-and-tea-shop-london?adjust_creative=-uBzzloii2ivvF3N0jkhKQ&utm_campaign=yelp_api_v3&utm_medium=api_v3_business_search&utm_source=-uBzzloii2ivvF3N0jkhKQ,BjPq77aiaKZAVUHIu2S3gA
157,WA Cafe,Coffee & Tea,,,5 New Row,51.51103,-0.12648,,
158,Department of Coffee and Social Affairs,Coffee & Tea,4.5,££,14-16 Leather Lane,51.5194646,-0.1089855,https://www.yelp.com/biz/department-of-coffee-and-social-affairs-london?adjust_creative=-uBzzloii2ivvF3N0jkhKQ&utm_campaign=yelp_api_v3&utm_medium=api_v3_business_search&utm_source=-uBzzloii2ivvF3N0jkhKQ,7fnq7-pePPEM2WaZ4CLg0g
159,Omotesando Koffee,Coffee & Tea,,,8 Newman Street,51.5165656647651,-0.134790412002872,,
160,Paper and Cup,Coffee & Tea,4.5,£,18 Calvert Avenue,51.5262201,-0.076815,https://www.yelp.com/biz/paper-and-cup-london-2?adjust_creative=-uBzzloii2ivvF3N0jkhKQ&utm_campaign=yelp_api_v3&utm_medium=api_v3_business_search&utm_source=-uBzzloii2ivvF3N0jkhKQ,r-USboJFp1ifbtFWtbTGhQ
161,Egg Break,Coffee & Tea,4.0,££,30 Uxbridge Street,51.50832,-0.198022,https://www.yelp.com/biz/egg-break-london?adjust_creative=-uBzzloii2ivvF3N0jkhKQ&utm_campaign=yelp_api_v3&utm_medium=api_v3_business_search&utm_source=-uBzzloii2ivvF3N0jkhKQ,JaveZcrYNz-Pq0UIjgWJCA
162,Monmouth Coffee,Coffee & Tea,4.5,££,2 Park Street,51.5055383383613,-0.0914615294783139,https://www.yelp.com/biz/monmouth-coffee-london?adjust_creative=-uBzzloii2ivvF3N0jkhKQ&utm_campaign=yelp_api_v3&utm_medium=api_v3_business_search&utm_source=-uBzzloii2ivvF3N0jkhKQ,IWl1Y0eQOZSnYeIDw94svg
163,Taylor St Baristas,Coffee & Tea,5.0,£,Exchange Tower,51.4987165702106,-0.0149627110749048,https://www.yelp.com/biz/taylor-st-baristas-london-11?adjust_creative=-uBzzloii2ivvF3N0jkhKQ&utm_campaign=yelp_api_v3&utm_medium=api_v3_business_search&utm_source=-uBzzloii2ivvF3N0jkhKQ,C0WXN7VeBUNg4tg7Fu-N3A
164,Cafe Soho,Coffee & Tea,3.5,£,13 Ingestre Place,51.513148,-0.135845,https://www.yelp.com/biz/cafe-soho-london?adjust_creative=-uBzzloii2ivvF3N0jkhKQ&utm_campaign=yelp_api_v3&utm_medium=api_v3_business_search&utm_source=-uBzzloii2ivvF3N0jkhKQ,b04et4coHh_QwC9752mfSg
165,Saint Espresso,Coffee & Tea,4.5,££,214 Baker Street,51.5233293750657,-0.158073306083679,https://www.yelp.com/biz/saint-espresso-london-2?adjust_creative=-uBzzloii2ivvF3N0jkhKQ&utm_campaign=yelp_api_v3&utm_medium=api_v3_business_search&utm_source=-uBzzloii2ivvF3N0jkhKQ,uN9nxbQlUmXUMv1kt8Ye1w
166,Four Corners Cafe,Coffee & Tea,4.0,£,12 Lower Marsh,51.5003689,-0.1135442,https://www.yelp.com/biz/four-corners-cafe-london-2?adjust_creative=-uBzzloii2ivvF3N0jkhKQ&utm_campaign=yelp_api_v3&utm_medium=api_v3_business_search&utm_source=-uBzzloii2ivvF3N0jkhKQ,4rpkLLSPzVRqdHlM9_-9Cw
167,Oliver's Village Cafe,Coffee & Tea,4.5,£,92 Belsize Lane,51.5484962463379,-0.172924995422363,https://www.yelp.com/biz/olivers-village-cafe-london?adjust_creative=-uBzzloii2ivvF3N0jkhKQ&utm_campaign=yelp_api_v3&utm_medium=api_v3_business_search&utm_source=-uBzzloii2ivvF3N0jkhKQ,JqVOEsAUuhoAu-uRtzMtFQ
168,The Buttery Café,Coffee & Tea,,,Burgh House,51.558188,-0.175104,,
169,Mouse Tail Coffee Stories,Coffee & Tea,4.5,£,Deal Porters Way,51.4978022252176,-0.0478901037367684,https://www.yelp.com/biz/mouse-tail-coffee-stories-london-4?adjust_creative=-uBzzloii2ivvF3N0jkhKQ&utm_campaign=yelp_api_v3&utm_medium=api_v3_business_search&utm_source=-uBzzloii2ivvF3N0jkhKQ,alG0_K6eXYLGTfnDhrEmzA
170,Fix 126,Coffee & Tea,4.0,££,126 Curtain Road,51.5261251,-0.0802153,https://www.yelp.com/biz/fix-126-london?adjust_creative=-uBzzloii2ivvF3N0jkhKQ&utm_campaign=yelp_api_v3&utm_medium=api_v3_business_search&utm_source=-uBzzloii2ivvF3N0jkhKQ,3fDLrrmStQBZFMBHUvMbrQ
171,Fabrique Bakery,Coffee & Tea,4.0,££,212 Portobello Road,51.516469,-0.205223,https://www.yelp.com/biz/fabrique-bakery-london-5?adjust_creative=-uBzzloii2ivvF3N0jkhKQ&utm_campaign=yelp_api_v3&utm_medium=api_v3_business_search&utm_source=-uBzzloii2ivvF3N0jkhKQ,FM2fOny0zttmwnSeHCHzyA
172,Black Sheep Coffee,Coffee & Tea,,,125 Old Broad Street,51.514694,-0.086011,,
173,Bloomsbury Cafe,Coffee & Tea,4.0,£,16 Bloomsbury Street,51.5175164253045,-0.127287250243864,https://www.yelp.com/biz/bloomsbury-cafe-london?adjust_creative=-uBzzloii2ivvF3N0jkhKQ&utm_campaign=yelp_api_v3&utm_medium=api_v3_business_search&utm_source=-uBzzloii2ivvF3N0jkhKQ,BJPoMcoKJxrs_QT4_PcL8A
174,Ozone Coffee,Coffee & Tea,4.5,££,11 Leonard Street,51.524683689256,-0.086674106560876,https://www.yelp.com/biz/ozone-coffee-london-2?adjust_creative=-uBzzloii2ivvF3N0jkhKQ&utm_campaign=yelp_api_v3&utm_medium=api_v3_business_search&utm_source=-uBzzloii2ivvF3N0jkhKQ,68gc1BAE1IT_zZghFafw0Q
175,Montparnasse Cafe,Coffee & Tea,4.5,£,22 Thackeray Street,51.5005205,-0.1885342,https://www.yelp.com/biz/montparnasse-cafe-london-2?adjust_creative=-uBzzloii2ivvF3N0jkhKQ&utm_campaign=yelp_api_v3&utm_medium=api_v3_business_search&utm_source=-uBzzloii2ivvF3N0jkhKQ,riWepzZEIHj82UiDk_WVLQ
176,ArrO Coffee- The Temple of Coffee,Coffee Roasteries,,,67 Chiltern St,51.520333,-0.1557873,,
177,Cowshed,Day Spas,4.5,££££,115 Regent's Park Road,51.5425758,-0.1556083,https://www.yelp.com/biz/cowshed-london-2?adjust_creative=-uBzzloii2ivvF3N0jkhKQ&utm_campaign=yelp_api_v3&utm_medium=api_v3_business_search&utm_source=-uBzzloii2ivvF3N0jkhKQ,I0uedC7kST8RRKLmJ6os-w
178,The Pie Man,Delis,4.0,££,16 Cale Street,51.4906543605701,-0.166865786906551,https://www.yelp.com/biz/the-pie-man-london?adjust_creative=-uBzzloii2ivvF3N0jkhKQ&utm_campaign=yelp_api_v3&utm_medium=api_v3_business_search&utm_source=-uBzzloii2ivvF3N0jkhKQ,NNqPxJdhQRziK8UJpjw2_A
179,Love Walk Café,Delis,4.0,££,81 Denmark Hill,51.4717102050781,-0.092739999294281,https://www.yelp.com/biz/love-walk-caf%C3%A9-london-2?adjust_creative=-uBzzloii2ivvF3N0jkhKQ&utm_campaign=yelp_api_v3&utm_medium=api_v3_business_search&utm_source=-uBzzloii2ivvF3N0jkhKQ,uCNH9aBdcJdRP6D6JiW1lg
180,Lil's Cafe SoHo,Desserts,3.5,£,53 Rupert Street,51.511999,-0.133687,https://www.yelp.com/biz/lils-cafe-soho-london?adjust_creative=-uBzzloii2ivvF3N0jkhKQ&utm_campaign=yelp_api_v3&utm_medium=api_v3_business_search&utm_source=-uBzzloii2ivvF3N0jkhKQ,SNRC7L3NbjgObjwKwOmNZQ
181,Affogato,Desserts,4.0,£££,1457 London Road,51.4098587,-0.1225811,https://www.yelp.com/biz/affogato-london?adjust_creative=-uBzzloii2ivvF3N0jkhKQ&utm_campaign=yelp_api_v3&utm_medium=api_v3_business_search&utm_source=-uBzzloii2ivvF3N0jkhKQ,o3KrewdcT9foq1PK2lsngg
182,Polo 24 Hour Bar,Diners,4.0,£,176 Bishopsgate,51.517821,-0.080269,https://www.yelp.com/biz/polo-24-hour-bar-london-2?adjust_creative=-uBzzloii2ivvF3N0jkhKQ&utm_campaign=yelp_api_v3&utm_medium=api_v3_business_search&utm_source=-uBzzloii2ivvF3N0jkhKQ,O3WaROs_7OFbYv4B-7m02Q
183,Farmstand,Gluten-Free,4.0,£,42 Drury Lane,51.5143394470215,-0.122018814086914,https://www.yelp.com/biz/farmstand-london-3?adjust_creative=-uBzzloii2ivvF3N0jkhKQ&utm_campaign=yelp_api_v3&utm_medium=api_v3_business_search&utm_source=-uBzzloii2ivvF3N0jkhKQ,LYPuCoeoYpRpMcvFfwK3wQ
184,Hotel Café Royal,Hotels,4.5,£££,68 Regent Street,51.510171,-0.135962,https://www.yelp.com/biz/hotel-caf%C3%A9-royal-london?adjust_creative=-uBzzloii2ivvF3N0jkhKQ&utm_campaign=yelp_api_v3&utm_medium=api_v3_business_search&utm_source=-uBzzloii2ivvF3N0jkhKQ,t9-_U2-WmaIee3XDB0Tz0w
185,Princi,Italian,4.0,££,135 Wardour Street,51.5138629586873,-0.134387051472991,https://www.yelp.com/biz/princi-london?adjust_creative=-uBzzloii2ivvF3N0jkhKQ&utm_campaign=yelp_api_v3&utm_medium=api_v3_business_search&utm_source=-uBzzloii2ivvF3N0jkhKQ,-ATEXu2q4Oe4wPQeyrsILw
186,E Pellicci,Italian,4.5,£,332 Bethnal Green Road,51.5265159984371,-0.0635611602914123,https://www.yelp.com/biz/e-pellicci-london?adjust_creative=-uBzzloii2ivvF3N0jkhKQ&utm_campaign=yelp_api_v3&utm_medium=api_v3_business_search&utm_source=-uBzzloii2ivvF3N0jkhKQ,wqZucWHydm2qx-iUCUyJpQ
187,Covent Garden Grind,Juice Bars & Smoothies,4.5,£,42 Maiden Lane,51.5110479046224,-0.122459969000028,https://www.yelp.com/biz/covent-garden-grind-london?adjust_creative=-uBzzloii2ivvF3N0jkhKQ&utm_campaign=yelp_api_v3&utm_medium=api_v3_business_search&utm_source=-uBzzloii2ivvF3N0jkhKQ,sTjZJB20joSHE8oVPHs1Cw
188,Granger & Co,Juice Bars & Smoothies,,,237 Pavilion Road,51.4937584582247,-0.158635840925337,,
189,Freud Café,Lounges,4.0,££,198 Shaftesbury Avenue,51.5151658342822,-0.126793384552002,https://www.yelp.com/biz/freud-caf%C3%A9-london?adjust_creative=-uBzzloii2ivvF3N0jkhKQ&utm_campaign=yelp_api_v3&utm_medium=api_v3_business_search&utm_source=-uBzzloii2ivvF3N0jkhKQ,62YhaqIfyixjj4Z_W57D4w
190,Green & Fortune,Marketing,,,Kings Place,51.534765,-0.1221951,,
191,Somerset House,Museums,4.5,££,South Building,51.5110614108427,-0.117102253177384,https://www.yelp.com/biz/somerset-house-strand?adjust_creative=-uBzzloii2ivvF3N0jkhKQ&utm_campaign=yelp_api_v3&utm_medium=api_v3_business_search&utm_source=-uBzzloii2ivvF3N0jkhKQ,AJ7i8Xqyx70wpcTTcK4GFA
192,Ole and Steen,Patisserie/Cake Shop,4.5,££,56 Haymarket,51.509238,-0.1326965,https://www.yelp.com/biz/ole-and-steen-london-2?adjust_creative=-uBzzloii2ivvF3N0jkhKQ&utm_campaign=yelp_api_v3&utm_medium=api_v3_business_search&utm_source=-uBzzloii2ivvF3N0jkhKQ,5or4AzNouZq8RClNeTdqiA
193,Persepolis,Persian/Iranian,4.5,£,28-30 Peckham High Street,51.4733916,-0.0722307,https://www.yelp.com/biz/persepolis-london?adjust_creative=-uBzzloii2ivvF3N0jkhKQ&utm_campaign=yelp_api_v3&utm_medium=api_v3_business_search&utm_source=-uBzzloii2ivvF3N0jkhKQ,sR_XQYWwLiF5Lkj8-Cu-RA
194,Camden Coffee House,Restaurants,4.0,£,30 Camden Road,51.5399813,-0.1407954,https://www.yelp.com/biz/camden-coffee-house-london?adjust_creative=-uBzzloii2ivvF3N0jkhKQ&utm_campaign=yelp_api_v3&utm_medium=api_v3_business_search&utm_source=-uBzzloii2ivvF3N0jkhKQ,exjNWU4T_uzKOtH3uHIutQ
195,Wesleys Cafe,Restaurants,4.0,£,Central Hall Westminster,51.500258,-0.129931,https://www.yelp.com/biz/wesleys-cafe-london?adjust_creative=-uBzzloii2ivvF3N0jkhKQ&utm_campaign=yelp_api_v3&utm_medium=api_v3_business_search&utm_source=-uBzzloii2ivvF3N0jkhKQ,YXLHj8H0V-6NlczR2DuZqA
196,Café Par,Sandwiches,5.0,£,115 St John Street,51.522873,-0.102466,https://www.yelp.com/biz/caf%C3%A9-par-london?adjust_creative=-uBzzloii2ivvF3N0jkhKQ&utm_campaign=yelp_api_v3&utm_medium=api_v3_business_search&utm_source=-uBzzloii2ivvF3N0jkhKQ,gmQu79rLOaaKmdiXODvH0Q
197,Black Cat,Vegan,4.5,£,76 Clarence Road,51.5513968,-0.055691,https://www.yelp.com/biz/black-cat-london?adjust_creative=-uBzzloii2ivvF3N0jkhKQ&utm_campaign=yelp_api_v3&utm_medium=api_v3_business_search&utm_source=-uBzzloii2ivvF3N0jkhKQ,f8s8dT9Rm4359xUVHtiqRA
198,The Book Club,Venues & Event Spaces,4.0,££,100 Leonard Street,51.524537,-0.081494,https://www.yelp.com/biz/the-book-club-london?adjust_creative=-uBzzloii2ivvF3N0jkhKQ&utm_campaign=yelp_api_v3&utm_medium=api_v3_business_search&utm_source=-uBzzloii2ivvF3N0jkhKQ,UMJxTGTSShg2u1FFwZBWAQ
199,Saint Aymes,Venues & Event Spaces,,,59 Connaught Street,51.5142499,-0.16675,,
