,Restaurant,Type,Rating,Price,Address,Lat,Lng,url,ID
0,Las Iguanas,American (Traditional),3.0,££,Unit 3.03,51.503824,0.004824,https://www.yelp.com/biz/las-iguanas-london-3?adjust_creative=-uBzzloii2ivvF3N0jkhKQ&utm_campaign=yelp_api_v3&utm_medium=api_v3_business_search&utm_source=-uBzzloii2ivvF3N0jkhKQ,ILbwU2v4K1oQOMPKKiR_7g
1,Hard Rock Cafe,American (Traditional),4.0,££,150 Old Park Lane,51.5039577242148,-0.14930784702301,https://www.yelp.com/biz/hard-rock-cafe-london-3?adjust_creative=-uBzzloii2ivvF3N0jkhKQ&utm_campaign=yelp_api_v3&utm_medium=api_v3_business_search&utm_source=-uBzzloii2ivvF3N0jkhKQ,HNWUddTPDn13CdN3tMQsvQ
2,Big Easy,American (Traditional),3.5,££,332-334 Kings Road,51.4852959,-0.1744201,https://www.yelp.com/biz/big-easy-london?adjust_creative=-uBzzloii2ivvF3N0jkhKQ&utm_campaign=yelp_api_v3&utm_medium=api_v3_business_search&utm_source=-uBzzloii2ivvF3N0jkhKQ,PA45Xv1AQ1gFwXyqHWG2sQ
3,Buffalo,American (Traditional),,,33-35 Greenwich Church Street,51.4812448,-0.0100849,,
4,Fat Yankeees,American (Traditional),,,120 Bethnal Green Road,51.5248482688291,-0.0715959889983186,,
5,Hélène Darroze,Bars,4.0,££££,The Connaught Hotel,51.5103135191693,-0.149721418318054,https://www.yelp.com/biz/h%C3%A9l%C3%A8ne-darroze-london?adjust_creative=-uBzzloii2ivvF3N0jkhKQ&utm_campaign=yelp_api_v3&utm_medium=api_v3_business_search&utm_source=-uBzzloii2ivvF3N0jkhKQ,q1of6aL69W-i9E8lWvHKKg
6,Garlic & Shots,Bars,3.5,££,14 Frith Street,51.513850442943,-0.13152700704109,https://www.yelp.com/biz/garlic-and-shots-london?adjust_creative=-uBzzloii2ivvF3N0jkhKQ&utm_campaign=yelp_api_v3&utm_medium=api_v3_business_search&utm_source=-uBzzloii2ivvF3N0jkhKQ,C9jJVGzWhHuZ92FIep0d6g
7,The Copper Cow,Bars,4.0,££,2 Fauconberg Road,51.4867711232836,-0.271878559692213,https://www.yelp.com/biz/the-copper-cow-london?adjust_creative=-uBzzloii2ivvF3N0jkhKQ&utm_campaign=yelp_api_v3&utm_medium=api_v3_business_search&utm_source=-uBzzloii2ivvF3N0jkhKQ,Opo6qgkWCKkRLDMRH0KMYg
8,Camino,Bars,3.5,££,3 Varnishers Yard,51.5312937277784,-0.121793746948242,https://www.yelp.com/biz/camino-london?adjust_creative=-uBzzloii2ivvF3N0jkhKQ&utm_campaign=yelp_api_v3&utm_medium=api_v3_business_search&utm_source=-uBzzloii2ivvF3N0jkhKQ,OyLrjCVSSp5UUAYe9Vm0Hg
9,The Hideaway,Bars,3.5,£,114 Junction Park Road,51.5642660244139,-0.136642456054688,https://www.yelp.com/biz/the-hideaway-london?adjust_creative=-uBzzloii2ivvF3N0jkhKQ&utm_campaign=yelp_api_v3&utm_medium=api_v3_business_search&utm_source=-uBzzloii2ivvF3N0jkhKQ,4oCsLusUzKXYwDJhMuOItQ
10,Annabel's,Bars,4.0,££££,46 Berkeley Square,51.5091997,-0.1461913,https://www.yelp.com/biz/annabels-london?adjust_creative=-uBzzloii2ivvF3N0jkhKQ&utm_campaign=yelp_api_v3&utm_medium=api_v3_business_search&utm_source=-uBzzloii2ivvF3N0jkhKQ,zDVWMFy3DK9sXITX7SGLRA
11,Cafe Sol,Bars,3.5,££,56 Clapham High Street,51.4639254293453,-0.132743139660987,https://www.yelp.com/biz/cafe-sol-london-2?adjust_creative=-uBzzloii2ivvF3N0jkhKQ&utm_campaign=yelp_api_v3&utm_medium=api_v3_business_search&utm_source=-uBzzloii2ivvF3N0jkhKQ,fZYTBfDPRiVB2liTf_C4fQ
12,Made in Brasil,Brazilian,4.0,££,12 Inverness Street,51.539567,-0.143694,https://www.yelp.com/biz/made-in-brasil-london?adjust_creative=-uBzzloii2ivvF3N0jkhKQ&utm_campaign=yelp_api_v3&utm_medium=api_v3_business_search&utm_source=-uBzzloii2ivvF3N0jkhKQ,Jr1fnvoM1SiQa9wPt5armA
13,Caravan,Breakfast & Brunch,4.0,££,11-13 Exmouth Market,51.5254718215956,-0.110122750616417,https://www.yelp.com/biz/caravan-london-3?adjust_creative=-uBzzloii2ivvF3N0jkhKQ&utm_campaign=yelp_api_v3&utm_medium=api_v3_business_search&utm_source=-uBzzloii2ivvF3N0jkhKQ,Bc4GZfIUJu9363QQVACZVA
14,Banner's Restaurant,Breakfast & Brunch,4.0,££,21 Park Road,51.5805632029117,-0.124239921569824,https://www.yelp.com/biz/banners-restaurant-london-3?adjust_creative=-uBzzloii2ivvF3N0jkhKQ&utm_campaign=yelp_api_v3&utm_medium=api_v3_business_search&utm_source=-uBzzloii2ivvF3N0jkhKQ,20wbHVznGl8DZorCyjzvXA
15,Giraffe,British,4.0,££,120 Wilton Rd,51.493899,-0.1423036,https://www.yelp.com/biz/giraffe-london-13?adjust_creative=-uBzzloii2ivvF3N0jkhKQ&utm_campaign=yelp_api_v3&utm_medium=api_v3_business_search&utm_source=-uBzzloii2ivvF3N0jkhKQ,Ck5cgnj3SlLgieo5hMvHQg
16,The Table,British,4.0,££,83 Southwark Street,51.505604,-0.099671,https://www.yelp.com/biz/the-table-london-8?adjust_creative=-uBzzloii2ivvF3N0jkhKQ&utm_campaign=yelp_api_v3&utm_medium=api_v3_business_search&utm_source=-uBzzloii2ivvF3N0jkhKQ,rKwkCvsSfp8z7w1CmNnMMQ
17,The Orange Buffalo,Chicken Wings,4.5,£,The Old Truman Brewery,51.5191115545126,-0.0715720653533936,https://www.yelp.com/biz/the-orange-buffalo-london?adjust_creative=-uBzzloii2ivvF3N0jkhKQ&utm_campaign=yelp_api_v3&utm_medium=api_v3_business_search&utm_source=-uBzzloii2ivvF3N0jkhKQ,onwJAvJkjD9sdIo2pnC7XQ
18,Cartel Battersea,Cocktail Bars,,,519 Battersea Park Rd,51.4718572568258,-0.166284653297639,,
19,The Old School Yard,Cocktail Bars,4.5,££,111 Long Lane,51.5003479610291,-0.0880482846557697,https://www.yelp.com/biz/the-old-school-yard-london?adjust_creative=-uBzzloii2ivvF3N0jkhKQ&utm_campaign=yelp_api_v3&utm_medium=api_v3_business_search&utm_source=-uBzzloii2ivvF3N0jkhKQ,bjJW_gcMrwMHsTKP2m5STw
20,Near & Far Camden,Cocktail Bars,,,48 Chalk Farm Road,51.5430231,-0.148893,,
21,The Blind Pig,Cocktail Bars,4.5,££,58 Poland Street,51.5138271,-0.1367278,https://www.yelp.com/biz/the-blind-pig-london?adjust_creative=-uBzzloii2ivvF3N0jkhKQ&utm_campaign=yelp_api_v3&utm_medium=api_v3_business_search&utm_source=-uBzzloii2ivvF3N0jkhKQ,ZEoJSP5I1H16ekbiJjM2Cw
22,El Patron,Cocktail Bars,2.5,££,141 Upper Richmond Road,51.4604655,-0.2160969,https://www.yelp.com/biz/el-patron-london?adjust_creative=-uBzzloii2ivvF3N0jkhKQ&utm_campaign=yelp_api_v3&utm_medium=api_v3_business_search&utm_source=-uBzzloii2ivvF3N0jkhKQ,TglNc8nXI2N5VNovWuSlFg
23,The Alchemist,Cocktail Bars,4.0,££,6 Bevis Marks,51.5150476,-0.0793474,https://www.yelp.com/biz/the-alchemist-london-3?adjust_creative=-uBzzloii2ivvF3N0jkhKQ&utm_campaign=yelp_api_v3&utm_medium=api_v3_business_search&utm_source=-uBzzloii2ivvF3N0jkhKQ,LpIY4AvlAQZqJEZgcFoFPA
24,Casa Pastor,Cocktail Bars,,,Coal Drops Yard,51.5365463,-0.1256003,,
25,Pamela,Cocktail Bars,4.0,££,428 Kingsland Road,51.542089,-0.075906,https://www.yelp.com/biz/pamela-london?adjust_creative=-uBzzloii2ivvF3N0jkhKQ&utm_campaign=yelp_api_v3&utm_medium=api_v3_business_search&utm_source=-uBzzloii2ivvF3N0jkhKQ,xVD4eNLwZGa5tKqdOtx84Q
26,Barrio Shoreditch,Cocktail Bars,3.0,££,141-143 Shoreditch High Street,51.5261481076847,-0.0781682810583805,https://www.yelp.com/biz/barrio-shoreditch-london?adjust_creative=-uBzzloii2ivvF3N0jkhKQ&utm_campaign=yelp_api_v3&utm_medium=api_v3_business_search&utm_source=-uBzzloii2ivvF3N0jkhKQ,9KmxgynxkZbhXY_KNos3tw
27,Shaker & Company,Cocktail Bars,4.5,££,119 Hampstead Road,51.528,-0.139002,https://www.yelp.com/biz/shaker-and-company-london?adjust_creative=-uBzzloii2ivvF3N0jkhKQ&utm_campaign=yelp_api_v3&utm_medium=api_v3_business_search&utm_source=-uBzzloii2ivvF3N0jkhKQ,IaMoSvzEU3FqzT64GlhbwA
28,The Bar With No Name,Cocktail Bars,4.0,£££,69 Colebrooke Row,51.5366566,-0.1011608,https://www.yelp.com/biz/the-bar-with-no-name-london?adjust_creative=-uBzzloii2ivvF3N0jkhKQ&utm_campaign=yelp_api_v3&utm_medium=api_v3_business_search&utm_source=-uBzzloii2ivvF3N0jkhKQ,wywSYn2OqmP773DAxo5WyQ
29,Burrito Mex,Coffee & Tea,,,368 Garratt Lane,51.4416201644014,-0.187747925519943,,
30,Barrio Central,Dance Clubs,4.0,££,6 Poland Street,51.514237,-0.136493,https://www.yelp.com/biz/barrio-central-london-3?adjust_creative=-uBzzloii2ivvF3N0jkhKQ&utm_campaign=yelp_api_v3&utm_medium=api_v3_business_search&utm_source=-uBzzloii2ivvF3N0jkhKQ,6ElAuspoD2tc7VJnklwumA
31,Maltby Street Market,Farmers Market,4.5,££,Ropewalk,51.4992822180825,-0.0755775595650676,https://www.yelp.com/biz/maltby-street-market-london-2?adjust_creative=-uBzzloii2ivvF3N0jkhKQ&utm_campaign=yelp_api_v3&utm_medium=api_v3_business_search&utm_source=-uBzzloii2ivvF3N0jkhKQ,vrC5KuiEFQFKYtG8n5_n7A
32,Tortilla - Richmond,Fast Food,4.0,£,1-2 Kew Road,51.4642483105444,-0.301135875344606,https://www.yelp.com/biz/tortilla-richmond-richmond-upon-thames?adjust_creative=-uBzzloii2ivvF3N0jkhKQ&utm_campaign=yelp_api_v3&utm_medium=api_v3_business_search&utm_source=-uBzzloii2ivvF3N0jkhKQ,0VFiwdOzj8FRL8ac39Uy1Q
33,Tortilla - Finchley,Fast Food,3.0,£,227 Finchley Road,51.5472532,-0.1801632,https://www.yelp.com/biz/tortilla-finchley-london?adjust_creative=-uBzzloii2ivvF3N0jkhKQ&utm_campaign=yelp_api_v3&utm_medium=api_v3_business_search&utm_source=-uBzzloii2ivvF3N0jkhKQ,YW0F0mk4U5g4kcs6OJeJ2w
34,Chipotle Mexican Grill,Fast Food,3.5,£,334 Upper Street,51.535510650631,-0.10366262637603,https://www.yelp.com/biz/chipotle-mexican-grill-london-3?adjust_creative=-uBzzloii2ivvF3N0jkhKQ&utm_campaign=yelp_api_v3&utm_medium=api_v3_business_search&utm_source=-uBzzloii2ivvF3N0jkhKQ,J4Hfo2oGfezwZD7H1q2vkg
35,HOOK,Fish & Chips,4.5,££,65 Parkway Road,51.5370862317709,-0.14539088465574,https://www.yelp.com/biz/hook-london-5?adjust_creative=-uBzzloii2ivvF3N0jkhKQ&utm_campaign=yelp_api_v3&utm_medium=api_v3_business_search&utm_source=-uBzzloii2ivvF3N0jkhKQ,brpKI4Um8BAgg1Jeu3b_ew
36,Jerusalem Falafel,Food Trucks,5.0,£,Berwick St Market,51.5130273831629,-0.134443044662476,https://www.yelp.com/biz/jerusalem-falafel-london?adjust_creative=-uBzzloii2ivvF3N0jkhKQ&utm_campaign=yelp_api_v3&utm_medium=api_v3_business_search&utm_source=-uBzzloii2ivvF3N0jkhKQ,KLeq-uRVQx0VXkrCtsnPhg
37,Sketch,French,4.0,£££,9 Conduit Street,51.5127614699071,-0.14159163911048,https://www.yelp.com/biz/sketch-london-2?adjust_creative=-uBzzloii2ivvF3N0jkhKQ&utm_campaign=yelp_api_v3&utm_medium=api_v3_business_search&utm_source=-uBzzloii2ivvF3N0jkhKQ,zJNI06Y2zZQFh9OBSFCdgQ
38,Cool Chile Co,Imported Food,4.0,£,46 Westwood Park Trading Estate,51.523005,-0.2778722,https://www.yelp.com/biz/cool-chile-co-london?adjust_creative=-uBzzloii2ivvF3N0jkhKQ&utm_campaign=yelp_api_v3&utm_medium=api_v3_business_search&utm_source=-uBzzloii2ivvF3N0jkhKQ,w2JALpcgGge8gNzsgP0aCQ
39,El Torito,Italian,,,2 Hanger Hill,51.3707875,-0.4515538,,
40,Korrito - Boxpark,Korean,3.5,£,Unit 54,51.523497,-0.076161,https://www.yelp.com/biz/korrito-boxpark-london?adjust_creative=-uBzzloii2ivvF3N0jkhKQ&utm_campaign=yelp_api_v3&utm_medium=api_v3_business_search&utm_source=-uBzzloii2ivvF3N0jkhKQ,BRlDJCcYAFUUQZH1MHbemg
41,La Cabaña,Latin American,5.0,££,1 Granville Arcade,51.4626312255859,-0.111818999052048,https://www.yelp.com/biz/la-caba%C3%B1a-london-3?adjust_creative=-uBzzloii2ivvF3N0jkhKQ&utm_campaign=yelp_api_v3&utm_medium=api_v3_business_search&utm_source=-uBzzloii2ivvF3N0jkhKQ,Ll2lSaHYL_NSGKw5rdleog
42,Las Iguanas,Latin American,3.0,££,Royal Festival Hall Festival Terrace,51.5055947841907,-0.117650182564496,https://www.yelp.com/biz/las-iguanas-london?adjust_creative=-uBzzloii2ivvF3N0jkhKQ&utm_campaign=yelp_api_v3&utm_medium=api_v3_business_search&utm_source=-uBzzloii2ivvF3N0jkhKQ,Lp5AgT02FlvuS4RKUyE9og
43,El Vergel,Latin American,3.5,£,132 Webber Street,51.500707,-0.099151,https://www.yelp.com/biz/el-vergel-london?adjust_creative=-uBzzloii2ivvF3N0jkhKQ&utm_campaign=yelp_api_v3&utm_medium=api_v3_business_search&utm_source=-uBzzloii2ivvF3N0jkhKQ,vBEQW6eX3DFYlDgrzr8VCQ
44,Arepa & Co - Haggerston,Latin American,4.0,££,58A De Beauvoir Cresent,51.5373195,-0.0802071,https://www.yelp.com/biz/arepa-and-co-haggerston-london?adjust_creative=-uBzzloii2ivvF3N0jkhKQ&utm_campaign=yelp_api_v3&utm_medium=api_v3_business_search&utm_source=-uBzzloii2ivvF3N0jkhKQ,-oll3g3Ceix7YJ_e7pSl6w
45,Barrio - North,Lounges,3.5,££,45 Essex Road,51.537376,-0.100738,https://www.yelp.com/biz/barrio-north-london-2?adjust_creative=-uBzzloii2ivvF3N0jkhKQ&utm_campaign=yelp_api_v3&utm_medium=api_v3_business_search&utm_source=-uBzzloii2ivvF3N0jkhKQ,yiHaL1oeWKUqnhxuJFrfeA
46,Azteca Latin Lounge,Lounges,3.5,££,329 King's Road,51.4846173,-0.1757815,https://www.yelp.com/biz/azteca-latin-lounge-london?adjust_creative=-uBzzloii2ivvF3N0jkhKQ&utm_campaign=yelp_api_v3&utm_medium=api_v3_business_search&utm_source=-uBzzloii2ivvF3N0jkhKQ,ONC8V1cx_FUMmeXt_Nj9Sg
47,Lounge Bohemia,Lounges,4.5,££,1E Great Eastern Street,51.5229139449655,-0.0780906239161028,https://www.yelp.com/biz/lounge-bohemia-london?adjust_creative=-uBzzloii2ivvF3N0jkhKQ&utm_campaign=yelp_api_v3&utm_medium=api_v3_business_search&utm_source=-uBzzloii2ivvF3N0jkhKQ,XPrf1WmmdQ3hyjCExAjrIA
48,Lal Art Cafe Restaurant,Mediterranean,3.5,£££,41 Broadway Market,51.5367573,-0.061749,https://www.yelp.com/biz/lal-art-cafe-restaurant-london?adjust_creative=-uBzzloii2ivvF3N0jkhKQ&utm_campaign=yelp_api_v3&utm_medium=api_v3_business_search&utm_source=-uBzzloii2ivvF3N0jkhKQ,dVvt8I0JbAulJvk7J3XH4A
49,Mestizo,Mexican,4.0,££,103 Hampstead Road,51.52752,-0.1387649,https://www.yelp.com/biz/mestizo-london?adjust_creative=-uBzzloii2ivvF3N0jkhKQ&utm_campaign=yelp_api_v3&utm_medium=api_v3_business_search&utm_source=-uBzzloii2ivvF3N0jkhKQ,XeAaUJWcS9RZsE80a1UxjA
50,Ay Caramba,Mexican,2.5,£,14-16 Camden High Street,51.535318,-0.1389216,https://www.yelp.com/biz/ay-caramba-london?adjust_creative=-uBzzloii2ivvF3N0jkhKQ&utm_campaign=yelp_api_v3&utm_medium=api_v3_business_search&utm_source=-uBzzloii2ivvF3N0jkhKQ,HoglYTHFUwkul9QsgFSlZw
51,Fiesta Mexicana,Mexican,5.0,£££,99 High Street,51.3790188677337,0.102337,https://www.yelp.com/biz/fiesta-mexicana-orpington?adjust_creative=-uBzzloii2ivvF3N0jkhKQ&utm_campaign=yelp_api_v3&utm_medium=api_v3_business_search&utm_source=-uBzzloii2ivvF3N0jkhKQ,7XIpQCuBc34CGpZf-RkwSQ
52,Bad Sports,Mexican,4.5,££,184 Hackney Road,51.5305831,-0.0725592,https://www.yelp.com/biz/bad-sports-london?adjust_creative=-uBzzloii2ivvF3N0jkhKQ&utm_campaign=yelp_api_v3&utm_medium=api_v3_business_search&utm_source=-uBzzloii2ivvF3N0jkhKQ,-6FgD8HNhvRdzIiVswQpnQ
53,Chipotle Mexican Grill,Mexican,4.0,£,92-93 St Martins Ln,51.5107880803159,-0.127137002905573,https://www.yelp.com/biz/chipotle-mexican-grill-london-6?adjust_creative=-uBzzloii2ivvF3N0jkhKQ&utm_campaign=yelp_api_v3&utm_medium=api_v3_business_search&utm_source=-uBzzloii2ivvF3N0jkhKQ,QSzOoQ4jxaLU5Jr0ZTNEWQ
54,L'Autre Restaurant,Mexican,3.5,££,5B Shepherd Street,51.50606,-0.146524,https://www.yelp.com/biz/l-autre-restaurant-london?adjust_creative=-uBzzloii2ivvF3N0jkhKQ&utm_campaign=yelp_api_v3&utm_medium=api_v3_business_search&utm_source=-uBzzloii2ivvF3N0jkhKQ,C_R6SlaMeZcMOo4VNo9CpQ
55,Lupita,Mexican,3.0,££,60-62 Commercial Street,51.5177370714042,-0.073783603493891,https://www.yelp.com/biz/lupita-london-8?adjust_creative=-uBzzloii2ivvF3N0jkhKQ&utm_campaign=yelp_api_v3&utm_medium=api_v3_business_search&utm_source=-uBzzloii2ivvF3N0jkhKQ,g1c1yotQHS5EoH0mDTg4Tw
56,Burrito Kitchen,Mexican,,,33 Villiers Street,51.5079797480093,-0.12374471873045,,
57,Wahaca,Mexican,4.0,££,20 Atlantic Road,51.46273047,-0.11329,https://www.yelp.com/biz/wahaca-brixton?adjust_creative=-uBzzloii2ivvF3N0jkhKQ&utm_campaign=yelp_api_v3&utm_medium=api_v3_business_search&utm_source=-uBzzloii2ivvF3N0jkhKQ,lU3msAT4QuNMlP3XfknZhA
58,Benito's Hat,Mexican,3.5,££,12-14 Saint John Street,51.5200806,-0.101544,https://www.yelp.com/biz/benitos-hat-london-6?adjust_creative=-uBzzloii2ivvF3N0jkhKQ&utm_campaign=yelp_api_v3&utm_medium=api_v3_business_search&utm_source=-uBzzloii2ivvF3N0jkhKQ,MmVo5dgMk4yae4HV_tgHWg
59,Desperados Islington,Mexican,,,67 Upper Street,51.5359871,-0.1039159,,
60,Taco Bell,Mexican,,,75 Southampton Row,51.52031,-0.12294,,
61,Bar Burrito,Mexican,3.5,£,Paddington station,51.51658,-0.17566,https://www.yelp.com/biz/bar-burrito-london?adjust_creative=-uBzzloii2ivvF3N0jkhKQ&utm_campaign=yelp_api_v3&utm_medium=api_v3_business_search&utm_source=-uBzzloii2ivvF3N0jkhKQ,1-pWeV6XEFIOSV5KRTy5-A
62,Tortilla - Russell Square,Mexican,,,5 Bernard St,51.5230146,-0.1245645,,
63,Chilango,Mexican,3.5,£,32 Brushfield Street,51.5190050929216,-0.0767411412584686,https://www.yelp.com/biz/chilango-london-4?adjust_creative=-uBzzloii2ivvF3N0jkhKQ&utm_campaign=yelp_api_v3&utm_medium=api_v3_business_search&utm_source=-uBzzloii2ivvF3N0jkhKQ,P_UDn3FrDUTCNJTDvcEK2w
64,Chipotle Mexican Grill,Mexican,3.5,£,49 London Wall,51.5170655,-0.0879968,https://www.yelp.com/biz/chipotle-mexican-grill-london-8?adjust_creative=-uBzzloii2ivvF3N0jkhKQ&utm_campaign=yelp_api_v3&utm_medium=api_v3_business_search&utm_source=-uBzzloii2ivvF3N0jkhKQ,sIL_uJ4OooBz2lRt0_cIFA
65,Tortilla - Islington,Mexican,3.5,£,13 Islington High Street,51.5324512,-0.1064543,https://www.yelp.com/biz/tortilla-islington-london?adjust_creative=-uBzzloii2ivvF3N0jkhKQ&utm_campaign=yelp_api_v3&utm_medium=api_v3_business_search&utm_source=-uBzzloii2ivvF3N0jkhKQ,PLf7nEfZ6etj9EzTOIKOJQ
66,Benito's Hat,Mexican,3.5,£,19 New Row,51.511176885171,-0.12583341157004,https://www.yelp.com/biz/benitos-hat-london-2?adjust_creative=-uBzzloii2ivvF3N0jkhKQ&utm_campaign=yelp_api_v3&utm_medium=api_v3_business_search&utm_source=-uBzzloii2ivvF3N0jkhKQ,Gt5eWlJ0Ls8CQWEHU6N1kA
67,Guaca,Mexican,,,496 Fulham Road,51.4801788,-0.198577,,
68,Kk's Texan Grill House,Mexican,5.0,££,300 High Street,51.368143,-0.099517,https://www.yelp.com/biz/kks-texan-grill-house-london?adjust_creative=-uBzzloii2ivvF3N0jkhKQ&utm_campaign=yelp_api_v3&utm_medium=api_v3_business_search&utm_source=-uBzzloii2ivvF3N0jkhKQ,Sg5zmU8Cu2CcrAk3PBHucQ
69,Burrito Café,Mexican,3.0,£,10 Caledonian Road,51.5313334436308,-0.120796170552832,https://www.yelp.com/biz/burrito-caf%C3%A9-london-2?adjust_creative=-uBzzloii2ivvF3N0jkhKQ&utm_campaign=yelp_api_v3&utm_medium=api_v3_business_search&utm_source=-uBzzloii2ivvF3N0jkhKQ,HQqR9VpLdWITmIlXFg5vxA
70,Chilango,Mexican,3.5,£,142 Fleet Street,51.514441,-0.107097,https://www.yelp.com/biz/chilango-london?adjust_creative=-uBzzloii2ivvF3N0jkhKQ&utm_campaign=yelp_api_v3&utm_medium=api_v3_business_search&utm_source=-uBzzloii2ivvF3N0jkhKQ,2bkBL8aDa3JywhsI8mpy0g
71,Wahaca,Mexican,4.0,£,The Plaza,51.437018,0.270936,https://www.yelp.com/biz/wahaca-dartford?adjust_creative=-uBzzloii2ivvF3N0jkhKQ&utm_campaign=yelp_api_v3&utm_medium=api_v3_business_search&utm_source=-uBzzloii2ivvF3N0jkhKQ,lIkifn2Qn04_D_1SoD8qYg
72,Mi Casa Burritos,Mexican,2.0,££,Euston Road,51.5276218436208,-0.133128858380718,https://www.yelp.com/biz/mi-casa-burritos-london-3?adjust_creative=-uBzzloii2ivvF3N0jkhKQ&utm_campaign=yelp_api_v3&utm_medium=api_v3_business_search&utm_source=-uBzzloii2ivvF3N0jkhKQ,3GikB0oZQJAjEhptGvcqCw
73,Burrito Joe,Mexican,4.0,£,Bow Lane,51.5133705,-0.0935,https://www.yelp.com/biz/burrito-joe-london?adjust_creative=-uBzzloii2ivvF3N0jkhKQ&utm_campaign=yelp_api_v3&utm_medium=api_v3_business_search&utm_source=-uBzzloii2ivvF3N0jkhKQ,xaOAnzIJVVsMolL_s2muzw
74,Nineteen Ten,Mexican,3.5,£££,19 Kensington High Street,51.5022441,-0.1881451,https://www.yelp.com/biz/nineteen-ten-london-2?adjust_creative=-uBzzloii2ivvF3N0jkhKQ&utm_campaign=yelp_api_v3&utm_medium=api_v3_business_search&utm_source=-uBzzloii2ivvF3N0jkhKQ,xFbtKgIq1aNfoz51eoP0dA
75,Mexifresh,Mexican,4.5,£££,22 Weir Road,51.4327,-0.191687,https://www.yelp.com/biz/mexifresh-london?adjust_creative=-uBzzloii2ivvF3N0jkhKQ&utm_campaign=yelp_api_v3&utm_medium=api_v3_business_search&utm_source=-uBzzloii2ivvF3N0jkhKQ,83UvE3V_34ApFUKXf4_y_g
76,Madisons,Mexican,4.0,££,32 Homesdale Road,51.3967334,0.0289047,https://www.yelp.com/biz/madisons-london-4?adjust_creative=-uBzzloii2ivvF3N0jkhKQ&utm_campaign=yelp_api_v3&utm_medium=api_v3_business_search&utm_source=-uBzzloii2ivvF3N0jkhKQ,36DX6hpemerh7QYYqU6Aaw
77,Benito's Hat,Mexican,3.0,£,King's Cross Station Mezzanine Level,51.531109,-0.118537,https://www.yelp.com/biz/benitos-hat-london-4?adjust_creative=-uBzzloii2ivvF3N0jkhKQ&utm_campaign=yelp_api_v3&utm_medium=api_v3_business_search&utm_source=-uBzzloii2ivvF3N0jkhKQ,IoXiuRC3oELRZH8zGJ0Gbw
78,Tortilla - Hammersmith,Mexican,3.5,£,6A King Street,51.4930006929784,-0.225509405136108,https://www.yelp.com/biz/tortilla-hammersmith-hammersmith?adjust_creative=-uBzzloii2ivvF3N0jkhKQ&utm_campaign=yelp_api_v3&utm_medium=api_v3_business_search&utm_source=-uBzzloii2ivvF3N0jkhKQ,ZUuB4FjCo2AVvosdKlMcag
79,El Sombrero,Mexican,3.5,££,281 High Street,51.3682795,-0.0990418,https://www.yelp.com/biz/el-sombrero-croydon?adjust_creative=-uBzzloii2ivvF3N0jkhKQ&utm_campaign=yelp_api_v3&utm_medium=api_v3_business_search&utm_source=-uBzzloii2ivvF3N0jkhKQ,i_6gzh5ceFz6kDaDrCI0sQ
80,MexicanFresh,Mexican,3.0,££,Unit 22,51.43546,-0.191437,https://www.yelp.com/biz/mexicanfresh-london?adjust_creative=-uBzzloii2ivvF3N0jkhKQ&utm_campaign=yelp_api_v3&utm_medium=api_v3_business_search&utm_source=-uBzzloii2ivvF3N0jkhKQ,rp50JE2QEttRhKu5wY8eSA
81,Tienda Roosteria,Mexican,,,45 Curtain Rd,51.5237209,-0.0806178,,
82,Wahaca,Mexican,3.5,££,Westfield London Shopping Centre,51.5065761803096,-0.221941877346825,https://www.yelp.com/biz/wahaca-london-2?adjust_creative=-uBzzloii2ivvF3N0jkhKQ&utm_campaign=yelp_api_v3&utm_medium=api_v3_business_search&utm_source=-uBzzloii2ivvF3N0jkhKQ,XDjYyAtYgR8k9p-bggp0Aw
83,Azteca Cantina & Cocktail Bar,Mexican,,,50 Battersea Park Rd,51.4755935668945,-0.151042997837067,,
84,La Casita Mexicana London,Mexican,,,90A Brick Lane,51.519634,-0.071688,,
85,1910 Mexican Kitchen,Mexican,3.5,££,Westfield London Shopping Centre,51.507578,-0.22128,https://www.yelp.com/biz/1910-mexican-kitchen-london?adjust_creative=-uBzzloii2ivvF3N0jkhKQ&utm_campaign=yelp_api_v3&utm_medium=api_v3_business_search&utm_source=-uBzzloii2ivvF3N0jkhKQ,k26QQDySxt37YkpeJmrR2w
86,Tortilla - Leadenhall,Mexican,4.0,£,28 Leadenhall Market,51.5126327,-0.0831792,https://www.yelp.com/biz/tortilla-leadenhall-london-2?adjust_creative=-uBzzloii2ivvF3N0jkhKQ&utm_campaign=yelp_api_v3&utm_medium=api_v3_business_search&utm_source=-uBzzloii2ivvF3N0jkhKQ,FBTDTkHQTsYaIsB0AIUzNA
87,La Casa Del Burrito,Mexican,,,173B Stoke Newington Road,51.5563884,-0.0745146,,
88,Plaza Pastor,Mexican,,,Coal Drops Yard,51.536012619532,-0.126956039950528,,
89,Chilango,Mexican,3.5,£,64 London Wall,51.516716,-0.0858211,https://www.yelp.com/biz/chilango-london-6?adjust_creative=-uBzzloii2ivvF3N0jkhKQ&utm_campaign=yelp_api_v3&utm_medium=api_v3_business_search&utm_source=-uBzzloii2ivvF3N0jkhKQ,HQTthIEbPUK0ydJl-UfeAA
90,Las Iguanas,Mexican,,,15-17 Brunswick Square,51.5248565673828,-0.123949997127056,,
91,Wahaca,Mexican,4.0,££,Victoria Crescent,51.4199730682261,-0.204851464163828,https://www.yelp.com/biz/wahaca-london-20?adjust_creative=-uBzzloii2ivvF3N0jkhKQ&utm_campaign=yelp_api_v3&utm_medium=api_v3_business_search&utm_source=-uBzzloii2ivvF3N0jkhKQ,naJMPnO25Es_1qcCR77MuQ
92,Chipotle Mexican Grill,Mexican,3.5,£,181-185 Wardour St,51.515177,-0.1354988,https://www.yelp.com/biz/chipotle-mexican-grill-london-4?adjust_creative=-uBzzloii2ivvF3N0jkhKQ&utm_campaign=yelp_api_v3&utm_medium=api_v3_business_search&utm_source=-uBzzloii2ivvF3N0jkhKQ,NnDMTsrJvsxLAOnKybfVaQ
93,Tortilla- Clapham Junction,Mexican,3.5,£,Shopstop Clapham Junction,51.4637356,-0.1683628,https://www.yelp.com/biz/tortilla-clapham-junction-london?adjust_creative=-uBzzloii2ivvF3N0jkhKQ&utm_campaign=yelp_api_v3&utm_medium=api_v3_business_search&utm_source=-uBzzloii2ivvF3N0jkhKQ,eEucXX_MDLS7chzbI5e5QA
94,Barburrito,Mexican,4.0,£,60b Holborn Viaduct,51.51717,-0.1042805,https://www.yelp.com/biz/barburrito-london-2?adjust_creative=-uBzzloii2ivvF3N0jkhKQ&utm_campaign=yelp_api_v3&utm_medium=api_v3_business_search&utm_source=-uBzzloii2ivvF3N0jkhKQ,UZKJ_nFBn_YQUPioT6k4Bg
95,El Mexicana,Mexican,2.5,£,44 New Oxford Street,51.5171967,-0.1260125,https://www.yelp.com/biz/el-mexicana-london?adjust_creative=-uBzzloii2ivvF3N0jkhKQ&utm_campaign=yelp_api_v3&utm_medium=api_v3_business_search&utm_source=-uBzzloii2ivvF3N0jkhKQ,DeyzGC3zSR63FaosQKQCRg
96,Wahaca,Mexican,3.5,££,1st Floor One New Change,51.5144405,-0.0969757,https://www.yelp.com/biz/wahaca-london-14?adjust_creative=-uBzzloii2ivvF3N0jkhKQ&utm_campaign=yelp_api_v3&utm_medium=api_v3_business_search&utm_source=-uBzzloii2ivvF3N0jkhKQ,M4D1MC4xMQfhq-Jd8n5reA
97,Los Amigos,Mexican,3.5,££,27 East Street,51.33544640068,-0.26331584425381,https://www.yelp.com/biz/los-amigos-epsom-2?adjust_creative=-uBzzloii2ivvF3N0jkhKQ&utm_campaign=yelp_api_v3&utm_medium=api_v3_business_search&utm_source=-uBzzloii2ivvF3N0jkhKQ,vqOe1EFmBUrrw6OT8uPZ0w
98,TONTERIA,Mexican,3.0,£££,7-12 Sloane Square,51.49294,-0.1571057,https://www.yelp.com/biz/tonteria-london?adjust_creative=-uBzzloii2ivvF3N0jkhKQ&utm_campaign=yelp_api_v3&utm_medium=api_v3_business_search&utm_source=-uBzzloii2ivvF3N0jkhKQ,8Sk6aaTxj3OBwJm2txGnfQ
99,Chez Lalee,Mexican,,,6 The Griffin Centre,51.409116,-0.306719,,
100,Chiquito,Mexican,1.5,££,Royale Leisure Park,51.525334,-0.281336,https://www.yelp.com/biz/chiquito-london-4?adjust_creative=-uBzzloii2ivvF3N0jkhKQ&utm_campaign=yelp_api_v3&utm_medium=api_v3_business_search&utm_source=-uBzzloii2ivvF3N0jkhKQ,aNhcABkF3wsrDrE91dkz2A
101,Tortilla - Canary Wharf,Mexican,3.5,£,18 North Colonnade,51.50596,-0.02168,https://www.yelp.com/biz/tortilla-canary-wharf-london?adjust_creative=-uBzzloii2ivvF3N0jkhKQ&utm_campaign=yelp_api_v3&utm_medium=api_v3_business_search&utm_source=-uBzzloii2ivvF3N0jkhKQ,5_-cyTT9lgyPwRYeCT3XKQ
102,Wahaca,Mexican,3.5,££,68-69 Upper Street,51.5360012195308,-0.103992093882022,https://www.yelp.com/biz/wahaca-london-16?adjust_creative=-uBzzloii2ivvF3N0jkhKQ&utm_campaign=yelp_api_v3&utm_medium=api_v3_business_search&utm_source=-uBzzloii2ivvF3N0jkhKQ,5Sg_IJHQd4aEdxoq6Asd3Q
103,Wahaca,Mexican,3.5,££,1-3 Widegate St,51.5181593,-0.0780749,https://www.yelp.com/biz/wahaca-london-18?adjust_creative=-uBzzloii2ivvF3N0jkhKQ&utm_campaign=yelp_api_v3&utm_medium=api_v3_business_search&utm_source=-uBzzloii2ivvF3N0jkhKQ,T8RvSLTrxO25Rr-bRvRVDQ
104,Santo,Mexican,3.0,££,299 Portobello Road,51.5192574414881,-0.207714685250098,https://www.yelp.com/biz/santo-london?adjust_creative=-uBzzloii2ivvF3N0jkhKQ&utm_campaign=yelp_api_v3&utm_medium=api_v3_business_search&utm_source=-uBzzloii2ivvF3N0jkhKQ,F-b-5RCwKtNEHeHb41Vx7w
105,Bar Burrito,Mexican,,,Unit 29,51.4922409057617,-0.224571004509926,,
106,Gourmet Gorditas,Mexican,5.0,£,28 Curtain Road,51.5229167,-0.080614,https://www.yelp.com/biz/gourmet-gorditas-london?adjust_creative=-uBzzloii2ivvF3N0jkhKQ&utm_campaign=yelp_api_v3&utm_medium=api_v3_business_search&utm_source=-uBzzloii2ivvF3N0jkhKQ,QUGuf8dbTLQixH6SsAztWw
107,Chimichanga,Mexican,3.0,££,Unit 2b Chaplin Square,51.604688,-0.173384,https://www.yelp.com/biz/chimichanga-london?adjust_creative=-uBzzloii2ivvF3N0jkhKQ&utm_campaign=yelp_api_v3&utm_medium=api_v3_business_search&utm_source=-uBzzloii2ivvF3N0jkhKQ,ACW9NxfBkIrYWhpWSu9Ncg
108,Wahaca,Mexican,4.0,££,66 Chandos Place,51.5103409,-0.1245423,https://www.yelp.com/biz/wahaca-london?adjust_creative=-uBzzloii2ivvF3N0jkhKQ&utm_campaign=yelp_api_v3&utm_medium=api_v3_business_search&utm_source=-uBzzloii2ivvF3N0jkhKQ,7T93JNX8M2PbZ6yWNfM8tw
109,Taquito's,Mexican,4.0,£,78 Wilton Road,51.4925804,-0.1400924,https://www.yelp.com/biz/taquitos-london?adjust_creative=-uBzzloii2ivvF3N0jkhKQ&utm_campaign=yelp_api_v3&utm_medium=api_v3_business_search&utm_source=-uBzzloii2ivvF3N0jkhKQ,NngHADhW2PCSPULih5rnag
110,La Bodega Negra,Mexican,3.5,£££,9 Old Compton Street,51.513622,-0.129989,https://www.yelp.com/biz/la-bodega-negra-london-2?adjust_creative=-uBzzloii2ivvF3N0jkhKQ&utm_campaign=yelp_api_v3&utm_medium=api_v3_business_search&utm_source=-uBzzloii2ivvF3N0jkhKQ,Hqxr3339kpIEC1Bp5XnrMQ
111,Benito's Hat,Mexican,4.0,£,12 Great Castle Street,51.516137604339,-0.14162806261341,https://www.yelp.com/biz/benitos-hat-london-3?adjust_creative=-uBzzloii2ivvF3N0jkhKQ&utm_campaign=yelp_api_v3&utm_medium=api_v3_business_search&utm_source=-uBzzloii2ivvF3N0jkhKQ,fdoG44-7RdgMg2pnofcxaQ
112,Club Mexicana,Mexican,,,KERB Camden Market,51.5411317,-0.1461484,,
113,Tortilla - Charing Cross,Mexican,3.5,£,460 Strand Charing Cross,51.5083278,-0.1264033,https://www.yelp.com/biz/tortilla-charing-cross-london?adjust_creative=-uBzzloii2ivvF3N0jkhKQ&utm_campaign=yelp_api_v3&utm_medium=api_v3_business_search&utm_source=-uBzzloii2ivvF3N0jkhKQ,CvpS9KX_g8kJZ5tzY40YOw
114,Chiquito,Mexican,2.5,££,20-21 Leicester Square,51.510778,-0.129313,https://www.yelp.com/biz/chiquito-london?adjust_creative=-uBzzloii2ivvF3N0jkhKQ&utm_campaign=yelp_api_v3&utm_medium=api_v3_business_search&utm_source=-uBzzloii2ivvF3N0jkhKQ,VMelp_TR_vkEEoDp4jEeVw
115,Mezcalito Chelsea,Mexican,,,119 Sydney St,51.4886306,-0.1697949,,
116,Amigos,Mexican,2.5,£,171 Holloway Road,51.5495834350586,-0.108682997524738,https://www.yelp.com/biz/amigos-london-4?adjust_creative=-uBzzloii2ivvF3N0jkhKQ&utm_campaign=yelp_api_v3&utm_medium=api_v3_business_search&utm_source=-uBzzloii2ivvF3N0jkhKQ,zUTW6R0A9KgAhaNGuk11KQ
117,Del74 - Dalston,Mexican,,,129 Kingsland High Street,51.55039,-0.07542,,
118,Tortilla - Westfield Stratford,Mexican,4.5,£,First Floor The Gallery,51.5443356,-0.0063473,https://www.yelp.com/biz/tortilla-westfield-stratford-london?adjust_creative=-uBzzloii2ivvF3N0jkhKQ&utm_campaign=yelp_api_v3&utm_medium=api_v3_business_search&utm_source=-uBzzloii2ivvF3N0jkhKQ,v8kwViR9fTzsY2vNgQ__8Q
119,Tortilla - Camden,Mexican,3.5,£,144 Camden High Street,51.5383851,-0.1417607,https://www.yelp.com/biz/tortilla-camden-camden?adjust_creative=-uBzzloii2ivvF3N0jkhKQ&utm_campaign=yelp_api_v3&utm_medium=api_v3_business_search&utm_source=-uBzzloii2ivvF3N0jkhKQ,wdKoU58OkcEOOUhzygMjUw
120,Chilango,Mexican,4.0,£,90 Tooley Street,51.5044069,-0.0830305,https://www.yelp.com/biz/chilango-london-10?adjust_creative=-uBzzloii2ivvF3N0jkhKQ&utm_campaign=yelp_api_v3&utm_medium=api_v3_business_search&utm_source=-uBzzloii2ivvF3N0jkhKQ,quiHcYiZ6JaMnnKfXE13QQ
121,El Pastor,Mexican,3.5,££,7A Stoney Street,51.505117,-0.091086,https://www.yelp.com/biz/el-pastor-london?adjust_creative=-uBzzloii2ivvF3N0jkhKQ&utm_campaign=yelp_api_v3&utm_medium=api_v3_business_search&utm_source=-uBzzloii2ivvF3N0jkhKQ,YtmrENipHQqtuf2m_6kLCw
122,Wahaca Kentish Town,Mexican,4.0,££,276 Kentish Town Road,51.550275,-0.140591,https://www.yelp.com/biz/wahaca-kentish-town-london?adjust_creative=-uBzzloii2ivvF3N0jkhKQ&utm_campaign=yelp_api_v3&utm_medium=api_v3_business_search&utm_source=-uBzzloii2ivvF3N0jkhKQ,yeJxZYso-X7409DWFza_IA
123,Cheeky Chico's,Mexican,,,126 St Johns Hill,51.4603623,-0.1773195,,
124,DF Tacos,Mexican,4.0,££,28-29 Tottenham Court Road,51.518335,-0.132347,https://www.yelp.com/biz/df-tacos-london-2?adjust_creative=-uBzzloii2ivvF3N0jkhKQ&utm_campaign=yelp_api_v3&utm_medium=api_v3_business_search&utm_source=-uBzzloii2ivvF3N0jkhKQ,Pa7LnS6EnPkCeWWcJeOiXg
125,Wahaca,Mexican,4.0,££,80 Wardour Street,51.51333452102,-0.13376991245546,https://www.yelp.com/biz/wahaca-london-3?adjust_creative=-uBzzloii2ivvF3N0jkhKQ&utm_campaign=yelp_api_v3&utm_medium=api_v3_business_search&utm_source=-uBzzloii2ivvF3N0jkhKQ,9Iv6083qkdRpDdpIrD1uqA
126,Lupita,Mexican,4.0,££,7 Kensington High Street,51.502229,-0.1879072,https://www.yelp.com/biz/lupita-london-7?adjust_creative=-uBzzloii2ivvF3N0jkhKQ&utm_campaign=yelp_api_v3&utm_medium=api_v3_business_search&utm_source=-uBzzloii2ivvF3N0jkhKQ,qo_hL-KYqIj6zRGbclpPtg
127,Taquería,Mexican,3.5,££,141-145 Westbourne Grove,51.5148344,-0.196085,https://www.yelp.com/biz/taquer%C3%ADa-london-2?adjust_creative=-uBzzloii2ivvF3N0jkhKQ&utm_campaign=yelp_api_v3&utm_medium=api_v3_business_search&utm_source=-uBzzloii2ivvF3N0jkhKQ,jYB7iTfziIuKL6LGqKhlNQ
128,Casa Madera,Mexican,,,Floor 15,51.5178596863011,-0.142478369880564,,
129,Maria Sabina,Mexican,,,Belvedere Road,51.5054824,-0.1158305,,
130,Chilango,Mexican,4.5,£,24 Brewer Street,51.512273,-0.134569,https://www.yelp.com/biz/chilango-london-11?adjust_creative=-uBzzloii2ivvF3N0jkhKQ&utm_campaign=yelp_api_v3&utm_medium=api_v3_business_search&utm_source=-uBzzloii2ivvF3N0jkhKQ,77jo3BWAHC1wY8itsHDIaA
131,POP TACO,Mexican,,,91-93 Great Eastern Street,51.5258046,-0.0836612,,
132,Corazon,Mexican,4.5,££,29 Poland Street,51.5154291,-0.1373084,https://www.yelp.com/biz/corazon-london?adjust_creative=-uBzzloii2ivvF3N0jkhKQ&utm_campaign=yelp_api_v3&utm_medium=api_v3_business_search&utm_source=-uBzzloii2ivvF3N0jkhKQ,uRKk7cwko3TDogkidgkGWg
133,Ella Canta,Mexican,,,One Hamilton Place,51.503868,-0.150415,,
134,Freebird Burritos,Mexican,4.0,£,Rupert Street,51.512248,-0.13368,https://www.yelp.com/biz/freebird-burritos-london?adjust_creative=-uBzzloii2ivvF3N0jkhKQ&utm_campaign=yelp_api_v3&utm_medium=api_v3_business_search&utm_source=-uBzzloii2ivvF3N0jkhKQ,wWut4qB7oqH915VhWkI-lw
135,Jalisco,Mexican,4.0,£,Unit 1 Brixton Village,51.4621783674046,-0.111423796744859,https://www.yelp.com/biz/jalisco-london?adjust_creative=-uBzzloii2ivvF3N0jkhKQ&utm_campaign=yelp_api_v3&utm_medium=api_v3_business_search&utm_source=-uBzzloii2ivvF3N0jkhKQ,z2JyrQrLoA4ajbejJnRVuA
136,El Camion Mexicano,Mexican,3.5,££,25-27 Brewer Street,51.512027,-0.134363,https://www.yelp.com/biz/el-camion-mexicano-london?adjust_creative=-uBzzloii2ivvF3N0jkhKQ&utm_campaign=yelp_api_v3&utm_medium=api_v3_business_search&utm_source=-uBzzloii2ivvF3N0jkhKQ,ukdMnDOvHyiW5E30AamOtg
137,Chilango,Mexican,4.0,£,27 Upper Street,51.534366,-0.1053208,https://www.yelp.com/biz/chilango-london-2?adjust_creative=-uBzzloii2ivvF3N0jkhKQ&utm_campaign=yelp_api_v3&utm_medium=api_v3_business_search&utm_source=-uBzzloii2ivvF3N0jkhKQ,K7VTGghPis9MLzcWPVWISA
138,Cafe Chula,Mexican,4.0,££,75 West Yard,51.5413513,-0.14631,https://www.yelp.com/biz/cafe-chula-london?adjust_creative=-uBzzloii2ivvF3N0jkhKQ&utm_campaign=yelp_api_v3&utm_medium=api_v3_business_search&utm_source=-uBzzloii2ivvF3N0jkhKQ,tMwfRy3TMfwWR-Zdr8M7Jg
139,DF Tacos,Mexican,3.5,££,Old Truman Brewery,51.5203859689409,-0.0731523330745166,https://www.yelp.com/biz/df-tacos-london?adjust_creative=-uBzzloii2ivvF3N0jkhKQ&utm_campaign=yelp_api_v3&utm_medium=api_v3_business_search&utm_source=-uBzzloii2ivvF3N0jkhKQ,McA7jz09rkNzEp29gG1mjg
140,Santo Remedio,Mexican,,,152 Tooley Street,51.5036589,-0.0810358,,
141,Leicester Square Kitchen,Mexican,,,31-36 Leicester Square,51.5098669,-0.1297669,,
142,El Desperado,Mexican,3.5,££,501 London Road,51.3715314,-0.2276057,https://www.yelp.com/biz/el-desperado-sutton?adjust_creative=-uBzzloii2ivvF3N0jkhKQ&utm_campaign=yelp_api_v3&utm_medium=api_v3_business_search&utm_source=-uBzzloii2ivvF3N0jkhKQ,vs1kK3ZyBnmOo39S-hiXbA
143,Wahaca,Mexican,3.5,££,109-117 Waterloo Road,51.502605942111,-0.110155044744384,https://www.yelp.com/biz/wahaca-london-11?adjust_creative=-uBzzloii2ivvF3N0jkhKQ&utm_campaign=yelp_api_v3&utm_medium=api_v3_business_search&utm_source=-uBzzloii2ivvF3N0jkhKQ,dovcOcvGxro-NvXvaFwXQQ
144,Wahaca Oxford Circus,Mexican,4.0,££,26-28 Great Portland Street,51.516863,-0.1410477,https://www.yelp.com/biz/wahaca-oxford-circus-london?adjust_creative=-uBzzloii2ivvF3N0jkhKQ&utm_campaign=yelp_api_v3&utm_medium=api_v3_business_search&utm_source=-uBzzloii2ivvF3N0jkhKQ,YnM_mYrPXV7rFXB1H7dPXA
145,Tortilla - Bankside,Mexican,4.0,£,Unit 11A,51.5061,-0.0999611,https://www.yelp.com/biz/tortilla-bankside-london-3?adjust_creative=-uBzzloii2ivvF3N0jkhKQ&utm_campaign=yelp_api_v3&utm_medium=api_v3_business_search&utm_source=-uBzzloii2ivvF3N0jkhKQ,OmM4K2s3EnqcILqH8_o-Kw
146,Poncho 8,Mexican,3.5,£,12 Sheldon Square,51.5192779,-0.1804098,https://www.yelp.com/biz/poncho-8-london-6?adjust_creative=-uBzzloii2ivvF3N0jkhKQ&utm_campaign=yelp_api_v3&utm_medium=api_v3_business_search&utm_source=-uBzzloii2ivvF3N0jkhKQ,bBq6OVxdaQA_uLuXl6GJTQ
147,Cafe Pacifico,Mexican,3.5,££,5 Langley Street,51.5132318,-0.1251885,https://www.yelp.com/biz/cafe-pacifico-london?adjust_creative=-uBzzloii2ivvF3N0jkhKQ&utm_campaign=yelp_api_v3&utm_medium=api_v3_business_search&utm_source=-uBzzloii2ivvF3N0jkhKQ,FUF8bxkEGeUGpGmtAvAg0A
148,El Bandito,Mexican,,,137 Station Road,51.4350464,0.102097,,
149,Peyote,Mexican,3.5,£££,13 Cork Street,51.5099915,-0.1413405,https://www.yelp.com/biz/peyote-london?adjust_creative=-uBzzloii2ivvF3N0jkhKQ&utm_campaign=yelp_api_v3&utm_medium=api_v3_business_search&utm_source=-uBzzloii2ivvF3N0jkhKQ,k-d9wSl4vBOSmIzSl62g4A
150,Chiquitos,Mexican,,,Goresbrook Fields,51.5360423,0.1401187,,
151,Chilango,Mexican,4.0,£,76 Chancery Lane,51.51788172845,-0.11380271719224,https://www.yelp.com/biz/chilango-london-3?adjust_creative=-uBzzloii2ivvF3N0jkhKQ&utm_campaign=yelp_api_v3&utm_medium=api_v3_business_search&utm_source=-uBzzloii2ivvF3N0jkhKQ,aBET9w4m8Z7t-G1I_U_kyw
152,Tortilla Kings Cross,Mexican,3.5,£,6 Pancras Square,51.5330213744332,-0.125647260049391,https://www.yelp.com/biz/tortilla-kings-cross-london-3?adjust_creative=-uBzzloii2ivvF3N0jkhKQ&utm_campaign=yelp_api_v3&utm_medium=api_v3_business_search&utm_source=-uBzzloii2ivvF3N0jkhKQ,juW4jwhF0CJWMWMYAY1roQ
153,Chimichanga,Mexican,2.5,££,80 The Broadway,51.4197198504351,-0.201696763418999,https://www.yelp.com/biz/chimichanga-london-3?adjust_creative=-uBzzloii2ivvF3N0jkhKQ&utm_campaign=yelp_api_v3&utm_medium=api_v3_business_search&utm_source=-uBzzloii2ivvF3N0jkhKQ,AjAeAQHJ_FV68nIVryHBsg
154,Chimichanga,Mexican,3.0,££,211-213 Haverstock Hill,51.551249308349,-0.165623751063921,https://www.yelp.com/biz/chimichanga-london-7?adjust_creative=-uBzzloii2ivvF3N0jkhKQ&utm_campaign=yelp_api_v3&utm_medium=api_v3_business_search&utm_source=-uBzzloii2ivvF3N0jkhKQ,2nmpWItwQz7OWjrpYWutKw
155,Chipotle Mexican Grill,Mexican,3.5,£,101-103 Baker St,51.520743,-0.157243,https://www.yelp.com/biz/chipotle-mexican-grill-london-2?adjust_creative=-uBzzloii2ivvF3N0jkhKQ&utm_campaign=yelp_api_v3&utm_medium=api_v3_business_search&utm_source=-uBzzloii2ivvF3N0jkhKQ,6BrvrebrWeS1iw9esrtbEw
156,La Bodega Negra,Mexican,3.0,££,16 Moor Street,51.5136147,-0.1298782,https://www.yelp.com/biz/la-bodega-negra-london?adjust_creative=-uBzzloii2ivvF3N0jkhKQ&utm_campaign=yelp_api_v3&utm_medium=api_v3_business_search&utm_source=-uBzzloii2ivvF3N0jkhKQ,h4z2-8JY4ueaQHW_p3PIMg
157,Las Iguanas,Mexican,4.5,££,The Malthouse,51.4074777930841,-0.307493039881135,https://www.yelp.com/biz/las-iguanas-kingston-upon-thames?adjust_creative=-uBzzloii2ivvF3N0jkhKQ&utm_campaign=yelp_api_v3&utm_medium=api_v3_business_search&utm_source=-uBzzloii2ivvF3N0jkhKQ,-Fzsy_KCyiwn1HHSTbEpYA
158,Wahaca,Mexican,3.5,££,Park Pavilion,51.504680546341,-0.0187455472214424,https://www.yelp.com/biz/wahaca-london-4?adjust_creative=-uBzzloii2ivvF3N0jkhKQ&utm_campaign=yelp_api_v3&utm_medium=api_v3_business_search&utm_source=-uBzzloii2ivvF3N0jkhKQ,m5Nr-4eRJf6-LPDpOpc7zg
159,Tortilla - Oxford Circus,Mexican,3.0,££,6 Market Place,51.5164264,-0.1399762,https://www.yelp.com/biz/tortilla-oxford-circus-london-3?adjust_creative=-uBzzloii2ivvF3N0jkhKQ&utm_campaign=yelp_api_v3&utm_medium=api_v3_business_search&utm_source=-uBzzloii2ivvF3N0jkhKQ,Y7tekTinNq4gOK2MD17EZQ
160,Poncho 8,Mexican,4.0,£,11 Queen's Head Passage,51.5152392772053,-0.0989413261413574,https://www.yelp.com/biz/poncho-8-london?adjust_creative=-uBzzloii2ivvF3N0jkhKQ&utm_campaign=yelp_api_v3&utm_medium=api_v3_business_search&utm_source=-uBzzloii2ivvF3N0jkhKQ,0573jqqzjDjqzk4PFQ8Aag
161,El Bandido,Mexican,,,13 Wembley Hill Rd,51.5539291006772,-0.28680793941021,,
162,Cheeky Chicos Mexican Bar & Restaurant,Mexican,4.0,££,8-12 New Bridge Street,51.5134125,-0.1044481,https://www.yelp.com/biz/cheeky-chicos-mexican-bar-and-restaurant-london?adjust_creative=-uBzzloii2ivvF3N0jkhKQ&utm_campaign=yelp_api_v3&utm_medium=api_v3_business_search&utm_source=-uBzzloii2ivvF3N0jkhKQ,mTNixzuXbULJ2K7KKPO4Lg
163,Del74 - Clapton,Mexican,,,87 Lower Clapton Road,51.55167,-0.05214,,
164,Exquisito,Mexican,3.0,££,167 Blackstock Road,51.5611397,-0.0986968,https://www.yelp.com/biz/exquisito-london?adjust_creative=-uBzzloii2ivvF3N0jkhKQ&utm_campaign=yelp_api_v3&utm_medium=api_v3_business_search&utm_source=-uBzzloii2ivvF3N0jkhKQ,TGDcd4gQ2fYifYVxtSHxYQ
165,Cafe Mexicali,Mexican,3.0,££,119 Stroud Green Road,51.5689353942871,-0.11218000203371,https://www.yelp.com/biz/cafe-mexicali-london?adjust_creative=-uBzzloii2ivvF3N0jkhKQ&utm_campaign=yelp_api_v3&utm_medium=api_v3_business_search&utm_source=-uBzzloii2ivvF3N0jkhKQ,E-g-KOD56-55JFt4oK0n5g
166,Loco Mexicano,Mexican,3.0,££,64-65 Wilton Rd,51.493128767241,-0.1407990797988,https://www.yelp.com/biz/loco-mexicano-london?adjust_creative=-uBzzloii2ivvF3N0jkhKQ&utm_campaign=yelp_api_v3&utm_medium=api_v3_business_search&utm_source=-uBzzloii2ivvF3N0jkhKQ,iaPuzHvuQiyRzVVZFKgR5g
167,Daddy Donkey Mexican Grill,Mexican,4.0,£,50b Leather Lane,51.5206105839131,-0.109436213063745,https://www.yelp.com/biz/daddy-donkey-mexican-grill-london-3?adjust_creative=-uBzzloii2ivvF3N0jkhKQ&utm_campaign=yelp_api_v3&utm_medium=api_v3_business_search&utm_source=-uBzzloii2ivvF3N0jkhKQ,8PBUgH26GimDd3fEk0YRUQ
168,Peyotito,Mexican,,,31 Kensington Park Road,51.5153928,-0.2059577,,
169,Wahaca,Mexican,4.0,££,19-23 Charlotte Street,51.5185498585848,-0.135030033674326,https://www.yelp.com/biz/wahaca-london-7?adjust_creative=-uBzzloii2ivvF3N0jkhKQ&utm_campaign=yelp_api_v3&utm_medium=api_v3_business_search&utm_source=-uBzzloii2ivvF3N0jkhKQ,-TSNsHu_nz0oTy_ClWOzkQ
170,Tortilla - Victoria,Mexican,4.0,££,Victoria Place Shopping Centre,51.4945246,-0.1457465,https://www.yelp.com/biz/tortilla-victoria-london?adjust_creative=-uBzzloii2ivvF3N0jkhKQ&utm_campaign=yelp_api_v3&utm_medium=api_v3_business_search&utm_source=-uBzzloii2ivvF3N0jkhKQ,NXUrA1NQUBufdj7q6qhupQ
171,Mexican Grille,Mexican,2.0,££,194 Mile End Road,51.5212104,-0.0481274,https://www.yelp.com/biz/mexican-grille-london?adjust_creative=-uBzzloii2ivvF3N0jkhKQ&utm_campaign=yelp_api_v3&utm_medium=api_v3_business_search&utm_source=-uBzzloii2ivvF3N0jkhKQ,XG_KbocQNWrPDGOFe7axyg
172,The Chelsea Pensioner,Pubs,4.5,£,358 Fulham Road,51.4816873,-0.1875777,https://www.yelp.com/biz/the-chelsea-pensioner-london-2?adjust_creative=-uBzzloii2ivvF3N0jkhKQ&utm_campaign=yelp_api_v3&utm_medium=api_v3_business_search&utm_source=-uBzzloii2ivvF3N0jkhKQ,PUy82KVOXZ7vlS_P5VCK3Q
173,The Hemingway,Pubs,4.0,££,84 Victoria Park Road,51.537232212707,-0.048917991861221,https://www.yelp.com/biz/the-hemingway-london-2?adjust_creative=-uBzzloii2ivvF3N0jkhKQ&utm_campaign=yelp_api_v3&utm_medium=api_v3_business_search&utm_source=-uBzzloii2ivvF3N0jkhKQ,csGhqk_FmQPQVqh1ilZXpw
174,The Grove,Pubs,4.5,££,Ealing Green,51.5102666,-0.3055511,https://www.yelp.com/biz/the-grove-london-6?adjust_creative=-uBzzloii2ivvF3N0jkhKQ&utm_campaign=yelp_api_v3&utm_medium=api_v3_business_search&utm_source=-uBzzloii2ivvF3N0jkhKQ,SD16pw4VXllDSAIoJwzklA
175,The White Horse,Pubs,4.0,££,1-3 Parsons Green,51.4742798177502,-0.200564861297607,https://www.yelp.com/biz/the-white-horse-london-7?adjust_creative=-uBzzloii2ivvF3N0jkhKQ&utm_campaign=yelp_api_v3&utm_medium=api_v3_business_search&utm_source=-uBzzloii2ivvF3N0jkhKQ,VmEefEbDZd3hMP6ohx5Mxg
176,The Coronet,Pubs,3.5,£,338-346 Holloway Road,51.5556538804865,-0.115542213581375,https://www.yelp.com/biz/the-coronet-london?adjust_creative=-uBzzloii2ivvF3N0jkhKQ&utm_campaign=yelp_api_v3&utm_medium=api_v3_business_search&utm_source=-uBzzloii2ivvF3N0jkhKQ,t21BJMc5ulhPX1JPx7maEQ
177,Tossed,Salad,4.0,£,10 Sheldon Square,51.519289,-0.180465,https://www.yelp.com/biz/tossed-london-12?adjust_creative=-uBzzloii2ivvF3N0jkhKQ&utm_campaign=yelp_api_v3&utm_medium=api_v3_business_search&utm_source=-uBzzloii2ivvF3N0jkhKQ,Gaigwkhjigw6WpAbnzK6tg
178,Smack Lobster Roll,Seafood,4.0,££,58 Dean Street,51.5126361,-0.132043,https://www.yelp.com/biz/smack-lobster-roll-london-2?adjust_creative=-uBzzloii2ivvF3N0jkhKQ&utm_campaign=yelp_api_v3&utm_medium=api_v3_business_search&utm_source=-uBzzloii2ivvF3N0jkhKQ,k9sDFW6lHgdFAmQJ-tLMqw
179,Archipelago,Seafood,4.5,££££,53 Cleveland Street,51.5205732,-0.1388012,https://www.yelp.com/biz/archipelago-london-2?adjust_creative=-uBzzloii2ivvF3N0jkhKQ&utm_campaign=yelp_api_v3&utm_medium=api_v3_business_search&utm_source=-uBzzloii2ivvF3N0jkhKQ,RSGW6JHoYGljdL6i2ldHBA
180,Cravings La Carreta,Southern,,,18 Peckham Rye,51.4661158341035,-0.0670546515994452,,
181,Dehesa,Spanish,4.0,£££,25 Ganton Street,51.512781,-0.139333,https://www.yelp.com/biz/dehesa-london?adjust_creative=-uBzzloii2ivvF3N0jkhKQ&utm_campaign=yelp_api_v3&utm_medium=api_v3_business_search&utm_source=-uBzzloii2ivvF3N0jkhKQ,S_WKkcAjy6mL-cysYNcP5A
182,Pinchos,Spanish,,,The Concourse,51.421059,-0.206346,,
183,Tamal UK,Street Vendors,5.0,£,2-5 The Duke Of York Square,51.4906263,-0.1606169,https://www.yelp.com/biz/tamal-uk-london?adjust_creative=-uBzzloii2ivvF3N0jkhKQ&utm_campaign=yelp_api_v3&utm_medium=api_v3_business_search&utm_source=-uBzzloii2ivvF3N0jkhKQ,IxunVFzOEyH15RFuLBdcTQ
184,Santana Grill,Street Vendors,5.0,£,Strutton Ground,51.4968682,-0.1339619,https://www.yelp.com/biz/santana-grill-london?adjust_creative=-uBzzloii2ivvF3N0jkhKQ&utm_campaign=yelp_api_v3&utm_medium=api_v3_business_search&utm_source=-uBzzloii2ivvF3N0jkhKQ,wytQ-0YcnMfwEG_Gnl3S4w
185,Breddos,Street Vendors,3.5,£££,82 Goswell Road,51.523716,-0.0984515093455287,https://www.yelp.com/biz/breddos-london?adjust_creative=-uBzzloii2ivvF3N0jkhKQ&utm_campaign=yelp_api_v3&utm_medium=api_v3_business_search&utm_source=-uBzzloii2ivvF3N0jkhKQ,eM-GEfWvE0wHrboFCnixCQ
186,Porteña,Street Vendors,4.0,£,Stoney Street,51.505426,-0.091237,https://www.yelp.com/biz/porte%C3%B1a-london?adjust_creative=-uBzzloii2ivvF3N0jkhKQ&utm_campaign=yelp_api_v3&utm_medium=api_v3_business_search&utm_source=-uBzzloii2ivvF3N0jkhKQ,cIC_tTHyCvhZKCvr7lo3-w
187,Kimchinary,Street Vendors,4.0,£,,51.5112139,-0.1198244,https://www.yelp.com/biz/kimchinary-london?adjust_creative=-uBzzloii2ivvF3N0jkhKQ&utm_campaign=yelp_api_v3&utm_medium=api_v3_business_search&utm_source=-uBzzloii2ivvF3N0jkhKQ,O84G5k1NcUEBCAk-zIm5Eg
188,Breddos Tacos,Street Vendors,3.5,££££,26 Kingly St,51.5131994,-0.1398036,https://www.yelp.com/biz/breddos-tacos-london-2?adjust_creative=-uBzzloii2ivvF3N0jkhKQ&utm_campaign=yelp_api_v3&utm_medium=api_v3_business_search&utm_source=-uBzzloii2ivvF3N0jkhKQ,N72regBOLqSlggid690Wpg
189,Pink Cactus,Street Vendors,,,Muswell Hill,51.59091,-0.1413,,
190,Pump Shoreditch,Street Vendors,4.0,£,99 Shoreditch High Street,51.5256324,-0.0774524,https://www.yelp.com/biz/pump-shoreditch-london?adjust_creative=-uBzzloii2ivvF3N0jkhKQ&utm_campaign=yelp_api_v3&utm_medium=api_v3_business_search&utm_source=-uBzzloii2ivvF3N0jkhKQ,QaJSQN0rceZelcLCHjCZ0g
191,Condesa,Tapas/Small Plates,4.5,££,15 Maiden Lane,51.5106,-0.123181,https://www.yelp.com/biz/condesa-london?adjust_creative=-uBzzloii2ivvF3N0jkhKQ&utm_campaign=yelp_api_v3&utm_medium=api_v3_business_search&utm_source=-uBzzloii2ivvF3N0jkhKQ,NtAndbH_o7DQLLDz-wuGlA
192,Mezcal Cantina,Tex-Mex,,,127 Kingsland High Street,51.5504050324328,-0.0753188134917764,,
193,Tequila Tex-Mex,Tex-Mex,4.0,££,19-21 Notting Hill Gate,51.5092236449726,-0.194411007387265,https://www.yelp.com/biz/tequila-tex-mex-london?adjust_creative=-uBzzloii2ivvF3N0jkhKQ&utm_campaign=yelp_api_v3&utm_medium=api_v3_business_search&utm_source=-uBzzloii2ivvF3N0jkhKQ,sbm1XFfGk29tpkAp80UCfA
194,Adobo,Tex-Mex,,,15-16 Crown Passage,51.505868,-0.137771,,
195,El Chicos Mexican Cantina & Cocktail Bar,Tex-Mex,3.5,££,62 Streatham High Road,51.4363419,-0.1281123,https://www.yelp.com/biz/el-chicos-mexican-cantina-and-cocktail-bar-london?adjust_creative=-uBzzloii2ivvF3N0jkhKQ&utm_campaign=yelp_api_v3&utm_medium=api_v3_business_search&utm_source=-uBzzloii2ivvF3N0jkhKQ,g6v2CRnoxzqGlXUrfkjdHA
196,Cafe El Paso,Tex-Mex,3.0,££,127 Lordship Lane,51.4568794,-0.0754509,https://www.yelp.com/biz/cafe-el-paso-london-3?adjust_creative=-uBzzloii2ivvF3N0jkhKQ&utm_campaign=yelp_api_v3&utm_medium=api_v3_business_search&utm_source=-uBzzloii2ivvF3N0jkhKQ,5sNCXvcm3BPY3KYc07twTA
197,Chimayo,Tex-Mex,,,562 King's Road,51.479376,-0.187675,,
198,Farmacy,Vegan,4.5,££,74 Westbourne Grove,51.515446,-0.1926381,https://www.yelp.com/biz/farmacy-london?adjust_creative=-uBzzloii2ivvF3N0jkhKQ&utm_campaign=yelp_api_v3&utm_medium=api_v3_business_search&utm_source=-uBzzloii2ivvF3N0jkhKQ,ZTSM33QFv3pwxtSJp8Y02g
199,Al Boccon Di'vino Restaurant Wine Bar,Wine Bars,5.0,£££,14 Red Lion Street,51.4595327,-0.3046693,https://www.yelp.com/biz/al-boccon-divino-restaurant-wine-bar-london?adjust_creative=-uBzzloii2ivvF3N0jkhKQ&utm_campaign=yelp_api_v3&utm_medium=api_v3_business_search&utm_source=-uBzzloii2ivvF3N0jkhKQ,7x6h8pO47UxPNde6tzkxwg
