,Restaurant,Type,Rating,Price,Address,Lat,Lng,url,ID
0,Kredens Polish Bar & Restaurant,Bars,,,63 Atlantic Road,51.461426273365,-0.111316703259945,,
1,Topolski,Bars,3.5,££,150-152 Hungerford Arches,51.5049009709524,-0.11573825037897,https://www.yelp.com/biz/topolski-london-2?adjust_creative=-uBzzloii2ivvF3N0jkhKQ&utm_campaign=yelp_api_v3&utm_medium=api_v3_business_search&utm_source=-uBzzloii2ivvF3N0jkhKQ,vJqzSbmNvK9TpJq_D1m73g
2,Baltic Bar and Restaurant,Bars,4.0,£££,74 Blackfriars Road,51.503466,-0.104866,https://www.yelp.com/biz/baltic-bar-and-restaurant-london?adjust_creative=-uBzzloii2ivvF3N0jkhKQ&utm_campaign=yelp_api_v3&utm_medium=api_v3_business_search&utm_source=-uBzzloii2ivvF3N0jkhKQ,fdwAAs9cm_uLkgxXedYh3w
3,Bob Bob Ricard,British,4.0,££££,1 Upper James Street,51.5123099662701,-0.137234320867947,https://www.yelp.com/biz/bob-bob-ricard-soho?adjust_creative=-uBzzloii2ivvF3N0jkhKQ&utm_campaign=yelp_api_v3&utm_medium=api_v3_business_search&utm_source=-uBzzloii2ivvF3N0jkhKQ,a8FtrgeFoHZ3N8KPVK2lGQ
4,The Ivy,British,4.0,£££,1 - 5 West Street,51.512814,-0.128013,https://www.yelp.com/biz/the-ivy-london?adjust_creative=-uBzzloii2ivvF3N0jkhKQ&utm_campaign=yelp_api_v3&utm_medium=api_v3_business_search&utm_source=-uBzzloii2ivvF3N0jkhKQ,75-HeBBB391Np6T7GdJ5xQ
5,The Fable,Cocktail Bars,3.5,£££,52 Holborn Viaduct,51.516865,-0.1037447,https://www.yelp.com/biz/the-fable-london?adjust_creative=-uBzzloii2ivvF3N0jkhKQ&utm_campaign=yelp_api_v3&utm_medium=api_v3_business_search&utm_source=-uBzzloii2ivvF3N0jkhKQ,sqqCpeU4AEkjwa_SGwTCRw
6,Cafe Maya,Coffee & Tea,,,238-246 King Street,51.4933573,-0.2371255,,
7,Pyrlandia,Farmers Market,,,Rupert Street Market,51.512115761958,-0.133606195449829,,
8,Sketch,French,4.0,£££,9 Conduit Street,51.5127614699071,-0.14159163911048,https://www.yelp.com/biz/sketch-london-2?adjust_creative=-uBzzloii2ivvF3N0jkhKQ&utm_campaign=yelp_api_v3&utm_medium=api_v3_business_search&utm_source=-uBzzloii2ivvF3N0jkhKQ,zJNI06Y2zZQFh9OBSFCdgQ
9,L'Autre Restaurant,Mexican,3.5,££,5B Shepherd Street,51.50606,-0.146524,https://www.yelp.com/biz/l-autre-restaurant-london?adjust_creative=-uBzzloii2ivvF3N0jkhKQ&utm_campaign=yelp_api_v3&utm_medium=api_v3_business_search&utm_source=-uBzzloii2ivvF3N0jkhKQ,C_R6SlaMeZcMOo4VNo9CpQ
10,Smoke & Salt,Modern European,,,Pop Brixton,51.4635098,-0.1123464,,
11,The Spitfire,Polish,4.5,££,93 Fulham Palace Road,51.4888805,-0.2227522,https://www.yelp.com/biz/the-spitfire-london?adjust_creative=-uBzzloii2ivvF3N0jkhKQ&utm_campaign=yelp_api_v3&utm_medium=api_v3_business_search&utm_source=-uBzzloii2ivvF3N0jkhKQ,9P77lZQNRMtq9m2Y82dH7A
12,Antony's,Polish,3.5,££,54 Porchester Road,51.5182352,-0.1888339,https://www.yelp.com/biz/antonys-london?adjust_creative=-uBzzloii2ivvF3N0jkhKQ&utm_campaign=yelp_api_v3&utm_medium=api_v3_business_search&utm_source=-uBzzloii2ivvF3N0jkhKQ,W527BOr-eQYQc8SluoJueA
13,Pasibrzuch Polish Restaurant and Cafe,Polish,2.0,££,18-20 Wilsden High Road,51.54763,-0.226584,https://www.yelp.com/biz/pasibrzuch-polish-restaurant-and-cafe-london?adjust_creative=-uBzzloii2ivvF3N0jkhKQ&utm_campaign=yelp_api_v3&utm_medium=api_v3_business_search&utm_source=-uBzzloii2ivvF3N0jkhKQ,43THdJ2u8iVT8k5OdAvq4A
14,Polish White Eagle Club,Polish,2.5,££,211 Balham High Road,51.4397548910323,-0.155207219662862,https://www.yelp.com/biz/polish-white-eagle-club-london?adjust_creative=-uBzzloii2ivvF3N0jkhKQ&utm_campaign=yelp_api_v3&utm_medium=api_v3_business_search&utm_source=-uBzzloii2ivvF3N0jkhKQ,4P-JlxSkcA--xPKJxDUOng
15,Folvark,Polish,5.0,££,36 Lampton Road,51.4704739,-0.3672207,https://www.yelp.com/biz/folvark-hounslow?adjust_creative=-uBzzloii2ivvF3N0jkhKQ&utm_campaign=yelp_api_v3&utm_medium=api_v3_business_search&utm_source=-uBzzloii2ivvF3N0jkhKQ,-tocMG5z1cqHIc0nq_96eQ
16,Paleta Kitchen,Polish,5.0,£,175 Martindale Road,51.4676351561211,-0.3865934,https://www.yelp.com/biz/paleta-kitchen-hounslow?adjust_creative=-uBzzloii2ivvF3N0jkhKQ&utm_campaign=yelp_api_v3&utm_medium=api_v3_business_search&utm_source=-uBzzloii2ivvF3N0jkhKQ,Woxg5w-1Of4ID1C6LYRNag
17,The Golden Empire,Polish,,,N Circular Road,51.5311666218182,-0.292561839097021,,
18,Londek Cafe,Polish,4.5,£,196 The Grove,51.5452987221191,0.00439359082260513,https://www.yelp.com/biz/londek-cafe-london?adjust_creative=-uBzzloii2ivvF3N0jkhKQ&utm_campaign=yelp_api_v3&utm_medium=api_v3_business_search&utm_source=-uBzzloii2ivvF3N0jkhKQ,tlS84ZzQuHftC8fSjybECQ
19,The Knaypa,Polish,3.5,££,Flat,51.493682,-0.239597,https://www.yelp.com/biz/the-knaypa-london?adjust_creative=-uBzzloii2ivvF3N0jkhKQ&utm_campaign=yelp_api_v3&utm_medium=api_v3_business_search&utm_source=-uBzzloii2ivvF3N0jkhKQ,fdu-BnegfJrCfDMiQdjC3w
20,Gospoda Vita,Polish,,,146 Uxbridge Road,51.5113084,-0.3174954,,
21,Mis Bar Mleczny,Polish,1.0,£,178 Mitcham Road,51.4236129118999,-0.162079882025417,https://www.yelp.com/biz/mis-bar-mleczny-london-2?adjust_creative=-uBzzloii2ivvF3N0jkhKQ&utm_campaign=yelp_api_v3&utm_medium=api_v3_business_search&utm_source=-uBzzloii2ivvF3N0jkhKQ,8yHUhLCiNlX-1bpZBTO0wQ
22,Light Bite,Polish,,,31 Bernard Road,51.5820989,-0.0688994,,
23,Café Grove,Polish,3.5,£,65 The Grove,51.5109666,-0.3013244,https://www.yelp.com/biz/caf%C3%A9-grove-london-2?adjust_creative=-uBzzloii2ivvF3N0jkhKQ&utm_campaign=yelp_api_v3&utm_medium=api_v3_business_search&utm_source=-uBzzloii2ivvF3N0jkhKQ,-zh6KAMi7jHNV7m5iortDA
24,Ognisko,Polish,4.0,£££,55 Princes Gate,51.4990393817465,-0.174058199926435,https://www.yelp.com/biz/ognisko-london?adjust_creative=-uBzzloii2ivvF3N0jkhKQ&utm_campaign=yelp_api_v3&utm_medium=api_v3_business_search&utm_source=-uBzzloii2ivvF3N0jkhKQ,ldduTLJGykX1jtid-GoI7g
25,Zorya Shisha,Polish,,,48 Chalk Farm Rd,51.5429849,-0.1486984,,
26,Cafe Wanda,Polish,3.0,££,153 Clapham High Street,51.462169,-0.13634,https://www.yelp.com/biz/cafe-wanda-london-3?adjust_creative=-uBzzloii2ivvF3N0jkhKQ&utm_campaign=yelp_api_v3&utm_medium=api_v3_business_search&utm_source=-uBzzloii2ivvF3N0jkhKQ,6pjFbloUrfJEaZuJaOkiiA
27,Pierogi Co,Polish,,,Taylor Road,51.416354,-0.167952,,
28,Autograf,Polish,4.5,£,488 West Green Road,51.5877471,-0.0991417,https://www.yelp.com/biz/autograf-london?adjust_creative=-uBzzloii2ivvF3N0jkhKQ&utm_campaign=yelp_api_v3&utm_medium=api_v3_business_search&utm_source=-uBzzloii2ivvF3N0jkhKQ,YEmBywnYiaA78eih0K1LCw
29,Daquise,Polish,4.5,£££,20 Thurloe Street,51.4943231,-0.1736183,https://www.yelp.com/biz/daquise-london-2?adjust_creative=-uBzzloii2ivvF3N0jkhKQ&utm_campaign=yelp_api_v3&utm_medium=api_v3_business_search&utm_source=-uBzzloii2ivvF3N0jkhKQ,IIMtF_7RpIGBBPN9qN0CRA
30,Sowa Restaurant,Polish,,,33 High Street,51.5121721,-0.3050028,,
31,Lowiczanka Polish Centre Restaurant,Polish,5.0,££,238-246 King Street,51.4933573,-0.2371255,https://www.yelp.com/biz/lowiczanka-polish-centre-restaurant-london?adjust_creative=-uBzzloii2ivvF3N0jkhKQ&utm_campaign=yelp_api_v3&utm_medium=api_v3_business_search&utm_source=-uBzzloii2ivvF3N0jkhKQ,fDul4h-8jhWtVB4tDhV9QQ
32,Bar Polski,Polish,4.0,££,11 Little Turnstile,51.5174144,-0.1190414,https://www.yelp.com/biz/bar-polski-london?adjust_creative=-uBzzloii2ivvF3N0jkhKQ&utm_campaign=yelp_api_v3&utm_medium=api_v3_business_search&utm_source=-uBzzloii2ivvF3N0jkhKQ,0SfwQrzLJ_vOEDEJ5Im_5g
33,Mamuska - Polish Kitchen & Bar,Polish,,,9 Addington Street,51.501304,-0.116066,,
34,Cafe The Polish Canteen,Polish,,,Wickes Car Park,51.50037,-0.3062515,,
35,The Centre for Polish Arts and Culture,Polish,4.0,££,238-246 King Street,51.4933971,-0.2381482,https://www.yelp.com/biz/the-centre-for-polish-arts-and-culture-london?adjust_creative=-uBzzloii2ivvF3N0jkhKQ&utm_campaign=yelp_api_v3&utm_medium=api_v3_business_search&utm_source=-uBzzloii2ivvF3N0jkhKQ,acufU3MV5_e5lIlYRi-C0w
36,aqua nueva,Tapas Bars,3.5,£££,5th Floor 240 Regent Street,51.5144175,-0.1406601,https://www.yelp.com/biz/aqua-nueva-london-3?adjust_creative=-uBzzloii2ivvF3N0jkhKQ&utm_campaign=yelp_api_v3&utm_medium=api_v3_business_search&utm_source=-uBzzloii2ivvF3N0jkhKQ,C2oJNq6iCz99exi5C5fQrg
