,Restaurant,Type,Rating,Price,Address,Lat,Lng,url,ID
0,Tofu,Asian Fusion,,,5 Weston Street,51.4191743142751,-0.082696055519591,,
1,Street Hawker Restaurant,Asian Fusion,4.5,££,166 Randolph Avenue,51.5301528,-0.1863199,https://www.yelp.com/biz/street-hawker-restaurant-london-2?adjust_creative=-uBzzloii2ivvF3N0jkhKQ&utm_campaign=yelp_api_v3&utm_medium=api_v3_business_search&utm_source=-uBzzloii2ivvF3N0jkhKQ,1vk1jic2_jaciKPSG6Hy4w
2,Sushisamba,Asian Fusion,3.5,££££,110 Bishopsgate,51.516179,-0.080946,https://www.yelp.com/biz/sushisamba-london-5?adjust_creative=-uBzzloii2ivvF3N0jkhKQ&utm_campaign=yelp_api_v3&utm_medium=api_v3_business_search&utm_source=-uBzzloii2ivvF3N0jkhKQ,JhmrjmyrIhAVlM0D0n3VoQ
3,Novikov Restaurant & Bar,Asian Fusion,3.5,££££,50 Berkeley Street,51.507668,-0.143015,https://www.yelp.com/biz/novikov-restaurant-and-bar-london?adjust_creative=-uBzzloii2ivvF3N0jkhKQ&utm_campaign=yelp_api_v3&utm_medium=api_v3_business_search&utm_source=-uBzzloii2ivvF3N0jkhKQ,y-0qXBp4KMe-JjXSEPRRhA
4,E&O,Asian Fusion,4.0,£££,14 Blenheim Crescent,51.5158364710502,-0.205848282245171,https://www.yelp.com/biz/e-and-o-london?adjust_creative=-uBzzloii2ivvF3N0jkhKQ&utm_campaign=yelp_api_v3&utm_medium=api_v3_business_search&utm_source=-uBzzloii2ivvF3N0jkhKQ,qsQAO0i1z8qlQMECyDyitQ
5,Oka,Asian Fusion,4.5,££,71 Regents Park Road,51.5412318,-0.1573922,https://www.yelp.com/biz/oka-london-3?adjust_creative=-uBzzloii2ivvF3N0jkhKQ&utm_campaign=yelp_api_v3&utm_medium=api_v3_business_search&utm_source=-uBzzloii2ivvF3N0jkhKQ,h1pstufojfFZzWSwck4aWw
6,Foley's,Asian Fusion,4.0,£££,23 Foley Street,51.519373,-0.140492,https://www.yelp.com/biz/foleys-london?adjust_creative=-uBzzloii2ivvF3N0jkhKQ&utm_campaign=yelp_api_v3&utm_medium=api_v3_business_search&utm_source=-uBzzloii2ivvF3N0jkhKQ,_rwBZ2MBkcki5fNVq2bjjQ
7,Mei Ume,Chinese,,,10 Trinity Square,51.5101082134418,-0.0779114243917703,,
8,Oriental Gourmet,Chinese,4.0,££,123A Holloway Road,51.5485546,-0.1072363,https://www.yelp.com/biz/oriental-gourmet-london?adjust_creative=-uBzzloii2ivvF3N0jkhKQ&utm_campaign=yelp_api_v3&utm_medium=api_v3_business_search&utm_source=-uBzzloii2ivvF3N0jkhKQ,hIToS5-cElUAv1Gc2EvLjA
9,Sakurado,Creperies,,,14 Gloucester Road,51.49925,-0.18391,,
10,Yauatcha,Dim Sum,4.0,£££,15-17 Broadwick Street,51.5137076071076,-0.135128831605189,https://www.yelp.com/biz/yauatcha-london-8?adjust_creative=-uBzzloii2ivvF3N0jkhKQ&utm_campaign=yelp_api_v3&utm_medium=api_v3_business_search&utm_source=-uBzzloii2ivvF3N0jkhKQ,sYwBQ7mJYhB35nn-_SZstQ
11,Pham Sushi,Fast Food,4.5,££,159 Whitecross Street,51.5233,-0.093295,https://www.yelp.com/biz/pham-sushi-london?adjust_creative=-uBzzloii2ivvF3N0jkhKQ&utm_campaign=yelp_api_v3&utm_medium=api_v3_business_search&utm_source=-uBzzloii2ivvF3N0jkhKQ,HmOrOohddgdHLdLueTlNqQ
12,Demaezushi,Food Delivery Services,4.0,££,268 Poyser Street,51.529887,-0.056789,https://www.yelp.com/biz/demaezushi-london?adjust_creative=-uBzzloii2ivvF3N0jkhKQ&utm_campaign=yelp_api_v3&utm_medium=api_v3_business_search&utm_source=-uBzzloii2ivvF3N0jkhKQ,iibTTOZ8cKtfyTyzMIArNA
13,Japindo,Indonesian,,,Prince Of Wales,51.498887,-0.067549,,
14,Ukai,Japanese,3.5,££,240 Portobello Road,51.5177381,-0.2062303,https://www.yelp.com/biz/ukai-london-2?adjust_creative=-uBzzloii2ivvF3N0jkhKQ&utm_campaign=yelp_api_v3&utm_medium=api_v3_business_search&utm_source=-uBzzloii2ivvF3N0jkhKQ,cP8FaoDAfbiqJmkJI4oXSA
15,Misumi Sushi Barand Grill,Japanese,,,158 Bexley Road,51.4499969,0.0811298,,
16,Koji,Japanese,4.5,££££,58 New Kings Road,51.472641,-0.2012148,https://www.yelp.com/biz/koji-london?adjust_creative=-uBzzloii2ivvF3N0jkhKQ&utm_campaign=yelp_api_v3&utm_medium=api_v3_business_search&utm_source=-uBzzloii2ivvF3N0jkhKQ,dtyeR7XXnsLdRoUlLmlj5Q
17,Sushi Wa,Japanese,4.5,££,28-30 Highgate Hil london,51.5678346,-0.1387969,https://www.yelp.com/biz/sushi-wa-london-2?adjust_creative=-uBzzloii2ivvF3N0jkhKQ&utm_campaign=yelp_api_v3&utm_medium=api_v3_business_search&utm_source=-uBzzloii2ivvF3N0jkhKQ,YhUnhKZtCEBbelf0N2vABQ
18,Engawa,Japanese,3.5,£££,2 Ham Yard,51.511295,-0.134596,https://www.yelp.com/biz/engawa-london?adjust_creative=-uBzzloii2ivvF3N0jkhKQ&utm_campaign=yelp_api_v3&utm_medium=api_v3_business_search&utm_source=-uBzzloii2ivvF3N0jkhKQ,ulHfFJS33enNVreujPkqLQ
19,Ramen Seto,Japanese,4.0,££,5-6 Plender Street,51.5360440441316,-0.138926342685181,https://www.yelp.com/biz/ramen-seto-london-3?adjust_creative=-uBzzloii2ivvF3N0jkhKQ&utm_campaign=yelp_api_v3&utm_medium=api_v3_business_search&utm_source=-uBzzloii2ivvF3N0jkhKQ,nIRs5Fm4G_2nD3GIIvue3g
20,Ichibuns,Japanese,4.0,££,22 Wardour St,51.5111716,-0.131837,https://www.yelp.com/biz/ichibuns-london?adjust_creative=-uBzzloii2ivvF3N0jkhKQ&utm_campaign=yelp_api_v3&utm_medium=api_v3_business_search&utm_source=-uBzzloii2ivvF3N0jkhKQ,JcqLOhGHLeY9hDQs-HDQyA
21,ROKA Canary Wharf,Japanese,4.0,£££,4 Park Pavilion,51.5049047,-0.0189666,https://www.yelp.com/biz/roka-canary-wharf-london?adjust_creative=-uBzzloii2ivvF3N0jkhKQ&utm_campaign=yelp_api_v3&utm_medium=api_v3_business_search&utm_source=-uBzzloii2ivvF3N0jkhKQ,ux49Cz1sWEMJ4W7Z2KEmxA
22,Hasu,Japanese,,,116 Chrchfield Road,51.5083923,-0.2698103,,
23,Habibi Sushi,Japanese,3.5,££,7A Artillery Passage,51.518095,-0.077413,https://www.yelp.com/biz/habibi-sushi-london?adjust_creative=-uBzzloii2ivvF3N0jkhKQ&utm_campaign=yelp_api_v3&utm_medium=api_v3_business_search&utm_source=-uBzzloii2ivvF3N0jkhKQ,eRaELlnA4wcGvqB6sRlLCg
24,Tamashii,Japanese,,,8 Caledonia Street,51.5315012,-0.1215915,,
25,Anzu,Japanese,,,8 Norris Street,51.5091107284748,-0.13281409726159,,
26,Abeno,Japanese,4.5,££,47 Museum Street,51.5175591,-0.125158,https://www.yelp.com/biz/abeno-london?adjust_creative=-uBzzloii2ivvF3N0jkhKQ&utm_campaign=yelp_api_v3&utm_medium=api_v3_business_search&utm_source=-uBzzloii2ivvF3N0jkhKQ,Zc0HW9Q1HAXNkiiyh9G_Lw
27,Takahashi,Japanese,,,228 Merton Road,51.4162985784747,-0.19232912335263,,
28,Jidori,Japanese,,,89 Kingsland High St,51.549251,-0.0755143,,
29,Edo,Japanese,4.5,£££,18 Westow Hill,51.4196916200588,-0.0821199007927783,https://www.yelp.com/biz/edo-london?adjust_creative=-uBzzloii2ivvF3N0jkhKQ&utm_campaign=yelp_api_v3&utm_medium=api_v3_business_search&utm_source=-uBzzloii2ivvF3N0jkhKQ,BgVIJOmIuxpIpdXBYwS7Mw
30,Kiku Restaurant,Japanese,3.5,££££,17 Half Moon Street,51.5068937,-0.1458221,https://www.yelp.com/biz/kiku-restaurant-london?adjust_creative=-uBzzloii2ivvF3N0jkhKQ&utm_campaign=yelp_api_v3&utm_medium=api_v3_business_search&utm_source=-uBzzloii2ivvF3N0jkhKQ,_4tg3abu_nm0QLPSTX7vIA
31,Kurobuta,Japanese,3.5,£££,17-20 Kendal Street,51.5148166238173,-0.166228984130839,https://www.yelp.com/biz/kurobuta-london?adjust_creative=-uBzzloii2ivvF3N0jkhKQ&utm_campaign=yelp_api_v3&utm_medium=api_v3_business_search&utm_source=-uBzzloii2ivvF3N0jkhKQ,HCWPDH-2-yTtrrvvndOEbA
32,Tonkotsu Mare Street,Japanese,3.5,££,382 Mare Street,51.5484009,-0.0548469,https://www.yelp.com/biz/tonkotsu-mare-street-london?adjust_creative=-uBzzloii2ivvF3N0jkhKQ&utm_campaign=yelp_api_v3&utm_medium=api_v3_business_search&utm_source=-uBzzloii2ivvF3N0jkhKQ,w22qyKCEFcVFTmNRO1JqEg
33,Azuka,Japanese,,,404 Holloway Road,51.5567395690701,-0.117810666561127,,
34,Kiraku,Japanese,4.0,££,8 Station Parade,51.510184539254,-0.28714128247595,https://www.yelp.com/biz/kiraku-london?adjust_creative=-uBzzloii2ivvF3N0jkhKQ&utm_campaign=yelp_api_v3&utm_medium=api_v3_business_search&utm_source=-uBzzloii2ivvF3N0jkhKQ,sHLQK3LXWJ_HKDP4UMb3RA
35,Ichiban Sushi,Japanese,4.0,££,58a Atlantic Road,51.4612919,-0.1113904,https://www.yelp.com/biz/ichiban-sushi-london?adjust_creative=-uBzzloii2ivvF3N0jkhKQ&utm_campaign=yelp_api_v3&utm_medium=api_v3_business_search&utm_source=-uBzzloii2ivvF3N0jkhKQ,E200NknNjxRGN2rwAGtq0w
36,Koya City,Japanese,,,10-12 Bloomberg Arcade,51.506420135498,-0.127210006117821,,
37,Miyako,Japanese,3.5,££,40 Liverpool Street,51.517357,-0.081234,https://www.yelp.com/biz/miyako-london-4?adjust_creative=-uBzzloii2ivvF3N0jkhKQ&utm_campaign=yelp_api_v3&utm_medium=api_v3_business_search&utm_source=-uBzzloii2ivvF3N0jkhKQ,5PlHE70o_2WLb66683qG4A
38,Maki Sushi,Japanese,,,39 Lavender Hill,51.4660094,-0.1517922,,
39,Sagami-ya Japanese Brasserie,Japanese,,,County Hall,51.5012454408064,-0.118619217999253,,
40,Umai Sushi Factory,Japanese,3.5,££,Umai 1 Fresh Food,51.543121,-0.003632,https://www.yelp.com/biz/umai-sushi-factory-london-2?adjust_creative=-uBzzloii2ivvF3N0jkhKQ&utm_campaign=yelp_api_v3&utm_medium=api_v3_business_search&utm_source=-uBzzloii2ivvF3N0jkhKQ,yYaS2JXSOtuO0lE3jYfaSw
41,Sen Nin,Japanese,2.5,£££,206 Upper Street,51.543123719162,-0.10340359276617,https://www.yelp.com/biz/sen-nin-london?adjust_creative=-uBzzloii2ivvF3N0jkhKQ&utm_campaign=yelp_api_v3&utm_medium=api_v3_business_search&utm_source=-uBzzloii2ivvF3N0jkhKQ,7xg6RLkNGWX7PB5jQkD-lQ
42,Kami Japanese Restaurant,Japanese,4.5,££,8 Fortess Road,51.5519315,-0.1408977,https://www.yelp.com/biz/kami-japanese-restaurant-london?adjust_creative=-uBzzloii2ivvF3N0jkhKQ&utm_campaign=yelp_api_v3&utm_medium=api_v3_business_search&utm_source=-uBzzloii2ivvF3N0jkhKQ,_xZ4Ad3cM3fkKg6wVr2K7g
43,Taro,Japanese,4.0,££,293 Finchley Road,51.5494022,-0.1818055,https://www.yelp.com/biz/taro-london-4?adjust_creative=-uBzzloii2ivvF3N0jkhKQ&utm_campaign=yelp_api_v3&utm_medium=api_v3_business_search&utm_source=-uBzzloii2ivvF3N0jkhKQ,BdgSlAop4jDaX28sHntQOA
44,Tonkotsu,Japanese,3.5,££,4 Canvey Street,51.5058304633793,-0.0992763980893469,https://www.yelp.com/biz/tonkotsu-london-3?adjust_creative=-uBzzloii2ivvF3N0jkhKQ&utm_campaign=yelp_api_v3&utm_medium=api_v3_business_search&utm_source=-uBzzloii2ivvF3N0jkhKQ,8KZhqIUYceq7pvHR7DgXxw
45,Sushi Hiroba,Japanese,3.5,££,50-54 Kingsway,51.5162531,-0.1192915,https://www.yelp.com/biz/sushi-hiroba-london-2?adjust_creative=-uBzzloii2ivvF3N0jkhKQ&utm_campaign=yelp_api_v3&utm_medium=api_v3_business_search&utm_source=-uBzzloii2ivvF3N0jkhKQ,zJjoWjtsatRuH0mo1ukgOA
46,Dozo,Japanese,3.5,££,32 Old Compton Street,51.5134151,-0.1309783,https://www.yelp.com/biz/dozo-soho?adjust_creative=-uBzzloii2ivvF3N0jkhKQ&utm_campaign=yelp_api_v3&utm_medium=api_v3_business_search&utm_source=-uBzzloii2ivvF3N0jkhKQ,150lHvwO0IqaXmf4MrxrJQ
47,Zen Mondo,Japanese,3.5,££,326 Upper Street,51.5370162728151,-0.102986698811378,https://www.yelp.com/biz/zen-mondo-london?adjust_creative=-uBzzloii2ivvF3N0jkhKQ&utm_campaign=yelp_api_v3&utm_medium=api_v3_business_search&utm_source=-uBzzloii2ivvF3N0jkhKQ,MYj7kbERym0_bFTRd4urpQ
48,Tombo,Japanese,4.0,££,29 Thurloe Place,51.49494345246,-0.17392901890565,https://www.yelp.com/biz/tombo-london-2?adjust_creative=-uBzzloii2ivvF3N0jkhKQ&utm_campaign=yelp_api_v3&utm_medium=api_v3_business_search&utm_source=-uBzzloii2ivvF3N0jkhKQ,ZX1vN3OEaSvysmYXRoz3Ww
49,Suzu,Japanese,3.5,££,170-172 Hammersmith Road,51.4933037,-0.2193507,https://www.yelp.com/biz/suzu-london?adjust_creative=-uBzzloii2ivvF3N0jkhKQ&utm_campaign=yelp_api_v3&utm_medium=api_v3_business_search&utm_source=-uBzzloii2ivvF3N0jkhKQ,6Vg_eCQmFMtUj6R7cJeM2g
50,Dinings SW3,Japanese,,,Walton House Lennox Gardens Mews,51.495174407959,-0.163965001702309,,
51,Kimura,Japanese,,,167 Priory Road,51.587215448864,-0.132566782772101,,
52,Kisaku,Japanese,4.5,£££,470 Chiswick High Road,51.493012,-0.26829,https://www.yelp.com/biz/kisaku-london?adjust_creative=-uBzzloii2ivvF3N0jkhKQ&utm_campaign=yelp_api_v3&utm_medium=api_v3_business_search&utm_source=-uBzzloii2ivvF3N0jkhKQ,kKq-l6G4VI0GzisoKaP7DQ
53,Soba,Japanese,3.5,££,89 Battersea Rise,51.460701229291,-0.16761720676381,https://www.yelp.com/biz/soba-london?adjust_creative=-uBzzloii2ivvF3N0jkhKQ&utm_campaign=yelp_api_v3&utm_medium=api_v3_business_search&utm_source=-uBzzloii2ivvF3N0jkhKQ,rBamILr9uytGjQo1bXAYbg
54,Sakana Sushi,Japanese,4.5,££,Unit E,51.5172776883545,-0.0735656172037125,https://www.yelp.com/biz/sakana-sushi-london?adjust_creative=-uBzzloii2ivvF3N0jkhKQ&utm_campaign=yelp_api_v3&utm_medium=api_v3_business_search&utm_source=-uBzzloii2ivvF3N0jkhKQ,CYT3VWspJDt7QLsreDRf7g
55,Hare and Tortoise,Japanese,4.0,££,90 New Bridge Street,51.513179121039,-0.103888651528,https://www.yelp.com/biz/hare-and-tortoise-london-4?adjust_creative=-uBzzloii2ivvF3N0jkhKQ&utm_campaign=yelp_api_v3&utm_medium=api_v3_business_search&utm_source=-uBzzloii2ivvF3N0jkhKQ,iXcyR-SwU8S10lV8hDriYQ
56,Kouzu,Japanese,4.0,££££,21 Grosvenor Gardens,51.4973578159379,-0.146161900143457,https://www.yelp.com/biz/kouzu-london?adjust_creative=-uBzzloii2ivvF3N0jkhKQ&utm_campaign=yelp_api_v3&utm_medium=api_v3_business_search&utm_source=-uBzzloii2ivvF3N0jkhKQ,acIbL-6ORyIoe8Wr21tZ1g
57,Kata,Japanese,4.5,££,118 West Green Road,51.5852883,-0.0780582,https://www.yelp.com/biz/kata-london?adjust_creative=-uBzzloii2ivvF3N0jkhKQ&utm_campaign=yelp_api_v3&utm_medium=api_v3_business_search&utm_source=-uBzzloii2ivvF3N0jkhKQ,FFduJC8RjJMQVzSKWTtz9w
58,Nala,Japanese,4.0,££,1 Lower John Street,51.511007,-0.136884,https://www.yelp.com/biz/nala-london?adjust_creative=-uBzzloii2ivvF3N0jkhKQ&utm_campaign=yelp_api_v3&utm_medium=api_v3_business_search&utm_source=-uBzzloii2ivvF3N0jkhKQ,wFj1NIZh1C74uSl8o4cb9w
59,Bincho Yakitori,Japanese,,,2nd Floor Oxo Tower,51.508372,-0.108228,,
60,Benihana,Japanese,4.0,£££,77 King's Road,51.488966,-0.164258,https://www.yelp.com/biz/benihana-london?adjust_creative=-uBzzloii2ivvF3N0jkhKQ&utm_campaign=yelp_api_v3&utm_medium=api_v3_business_search&utm_source=-uBzzloii2ivvF3N0jkhKQ,GZXW9ZfBwlza-p_7SyGoCQ
61,Dozo,Japanese,3.0,£££,68 Old Brompton Road,51.4928905,-0.1769935,https://www.yelp.com/biz/dozo-london?adjust_creative=-uBzzloii2ivvF3N0jkhKQ&utm_campaign=yelp_api_v3&utm_medium=api_v3_business_search&utm_source=-uBzzloii2ivvF3N0jkhKQ,P-uP5Q3hcwG1Yk4GrKd3lQ
62,Fushan,Japanese,,,44 New Oxford Street,51.5171706,-0.126055636822684,,
63,Eat Tokyo,Japanese,3.5,££,50 Red Lion Street,51.5199176811869,-0.117510594427586,https://www.yelp.com/biz/eat-tokyo-london-6?adjust_creative=-uBzzloii2ivvF3N0jkhKQ&utm_campaign=yelp_api_v3&utm_medium=api_v3_business_search&utm_source=-uBzzloii2ivvF3N0jkhKQ,pC9oelkN_hufuLi7ted2ng
64,Itsu,Japanese,3.5,£,6 Great Peter Street,51.4968117,-0.130536,https://www.yelp.com/biz/itsu-london-45?adjust_creative=-uBzzloii2ivvF3N0jkhKQ&utm_campaign=yelp_api_v3&utm_medium=api_v3_business_search&utm_source=-uBzzloii2ivvF3N0jkhKQ,hyvy-9zmbGuJNgJZvpMGkA
65,Akari,Japanese,4.0,££,196 Essex Road,51.540445,-0.095823,https://www.yelp.com/biz/akari-london?adjust_creative=-uBzzloii2ivvF3N0jkhKQ&utm_campaign=yelp_api_v3&utm_medium=api_v3_business_search&utm_source=-uBzzloii2ivvF3N0jkhKQ,UJkCITXVxhrl4T54rz1enw
66,Tokimeite,Japanese,4.0,££££,23 Conduit Street,51.5119332,-0.1425117,https://www.yelp.com/biz/tokimeite-mayfair?adjust_creative=-uBzzloii2ivvF3N0jkhKQ&utm_campaign=yelp_api_v3&utm_medium=api_v3_business_search&utm_source=-uBzzloii2ivvF3N0jkhKQ,ZN0gOBbmjejc15md_adfRg
67,Benihana,Japanese,3.5,£££,37 Sackville Street,51.509113331861,-0.13808223588827,https://www.yelp.com/biz/benihana-london-3?adjust_creative=-uBzzloii2ivvF3N0jkhKQ&utm_campaign=yelp_api_v3&utm_medium=api_v3_business_search&utm_source=-uBzzloii2ivvF3N0jkhKQ,9GEEPTwSLlU_VJJUgyEDbA
68,Don 2 Japanese Cafe,Japanese,4.5,££,6 Farm Lane Fulham,51.4812350999454,-0.197963366054541,https://www.yelp.com/biz/don-2-japanese-cafe-london?adjust_creative=-uBzzloii2ivvF3N0jkhKQ&utm_campaign=yelp_api_v3&utm_medium=api_v3_business_search&utm_source=-uBzzloii2ivvF3N0jkhKQ,9LvXyaUrGUX1tzzhSxaoPA
69,Yoisho Restaurant,Japanese,3.5,££,33 Goodge Street,51.519485,-0.135096,https://www.yelp.com/biz/yoisho-restaurant-london?adjust_creative=-uBzzloii2ivvF3N0jkhKQ&utm_campaign=yelp_api_v3&utm_medium=api_v3_business_search&utm_source=-uBzzloii2ivvF3N0jkhKQ,f9qkXHDXcYvjFJymEsdUNA
70,Yokoya,Japanese,,,9A Delancey Street,51.5369298,-0.1416827,,
71,Machiya,Japanese,,,5 Panton Street,51.5092792,-0.131902,,
72,Sushio,Japanese,,,Finchley road,51.54631,-0.178623,,
73,Tenshi,Japanese,3.0,££,61 Upper Street,51.5358090331919,-0.103988093773997,https://www.yelp.com/biz/tenshi-london?adjust_creative=-uBzzloii2ivvF3N0jkhKQ&utm_campaign=yelp_api_v3&utm_medium=api_v3_business_search&utm_source=-uBzzloii2ivvF3N0jkhKQ,43j-DHFT2s4lN4476IwWog
74,Benihana,Japanese,3.5,£££,Grange Hotel,51.5131721496582,-0.100837998092175,https://www.yelp.com/biz/benihana-london-4?adjust_creative=-uBzzloii2ivvF3N0jkhKQ&utm_campaign=yelp_api_v3&utm_medium=api_v3_business_search&utm_source=-uBzzloii2ivvF3N0jkhKQ,8c1E12QG0VsKfvmMSPAqRw
75,Sushimania,Japanese,3.5,££,130 Golders Green Road,51.5740206,-0.2008089,https://www.yelp.com/biz/sushimania-london-2?adjust_creative=-uBzzloii2ivvF3N0jkhKQ&utm_campaign=yelp_api_v3&utm_medium=api_v3_business_search&utm_source=-uBzzloii2ivvF3N0jkhKQ,9PIMLAFHM38x8vLKlQQqgw
76,Yashin Ocean House,Japanese,4.0,£££,117-119 Old Brompton Road,51.4910517,-0.1804488,https://www.yelp.com/biz/yashin-ocean-house-london?adjust_creative=-uBzzloii2ivvF3N0jkhKQ&utm_campaign=yelp_api_v3&utm_medium=api_v3_business_search&utm_source=-uBzzloii2ivvF3N0jkhKQ,Wh1q0m4Mz-dl5gtoi_0xLQ
77,ROKA Aldwych,Japanese,3.5,£££,71 Aldwych,51.51352,-0.11614,https://www.yelp.com/biz/roka-aldwych-london-2?adjust_creative=-uBzzloii2ivvF3N0jkhKQ&utm_campaign=yelp_api_v3&utm_medium=api_v3_business_search&utm_source=-uBzzloii2ivvF3N0jkhKQ,dzRZuiy_BDN_EMGuDjuwZQ
78,Tsunami,Japanese,3.5,£££,5-7 Voltaire Road,51.464656,-0.131603,https://www.yelp.com/biz/tsunami-london?adjust_creative=-uBzzloii2ivvF3N0jkhKQ&utm_campaign=yelp_api_v3&utm_medium=api_v3_business_search&utm_source=-uBzzloii2ivvF3N0jkhKQ,xX-8kjS73V0Zmw6X3eJeYQ
79,Flat Three Restaurant,Japanese,,,120-122 Holland Park Avenue,51.5066797,-0.2078947,,
80,Taro Restaurants,Japanese,3.5,££,61 Brewer Street,51.5113323,-0.1356103,https://www.yelp.com/biz/taro-restaurants-london?adjust_creative=-uBzzloii2ivvF3N0jkhKQ&utm_campaign=yelp_api_v3&utm_medium=api_v3_business_search&utm_source=-uBzzloii2ivvF3N0jkhKQ,rmCXze8a0iehhkOkT5AKMg
81,Makoto Sushi Bar,Japanese,4.5,££,57 Turnham Green Terrace,51.494278,-0.2554249,https://www.yelp.com/biz/makoto-sushi-bar-london-2?adjust_creative=-uBzzloii2ivvF3N0jkhKQ&utm_campaign=yelp_api_v3&utm_medium=api_v3_business_search&utm_source=-uBzzloii2ivvF3N0jkhKQ,2CM7s0vszr3KJn6M5zdAGA
82,Tokyo Retro,Japanese,4.5,£££,57 Abbeville Road,51.4546715,-0.139628,https://www.yelp.com/biz/tokyo-retro-london?adjust_creative=-uBzzloii2ivvF3N0jkhKQ&utm_campaign=yelp_api_v3&utm_medium=api_v3_business_search&utm_source=-uBzzloii2ivvF3N0jkhKQ,3O9I5Ss82cMt1T48OyJ3bw
83,Sanjugo London,Japanese,4.5,£££,35 Scrutton Street,51.5233245177369,-0.0823555701054897,https://www.yelp.com/biz/sanjugo-london-shoreditch?adjust_creative=-uBzzloii2ivvF3N0jkhKQ&utm_campaign=yelp_api_v3&utm_medium=api_v3_business_search&utm_source=-uBzzloii2ivvF3N0jkhKQ,ye07rq662aeyIXU4cN7ZNw
84,Shogun Restaurant,Japanese,4.5,££££,Millennium Hotel,51.510718,-0.1510786,https://www.yelp.com/biz/shogun-restaurant-london-2?adjust_creative=-uBzzloii2ivvF3N0jkhKQ&utm_campaign=yelp_api_v3&utm_medium=api_v3_business_search&utm_source=-uBzzloii2ivvF3N0jkhKQ,XclY3ded5J3Y0UocnNtdhw
85,Hare & Tortoise,Japanese,4.0,££,296-298 Upper Richmond Road,51.461469995464,-0.219232705187013,https://www.yelp.com/biz/hare-and-tortoise-london-6?adjust_creative=-uBzzloii2ivvF3N0jkhKQ&utm_campaign=yelp_api_v3&utm_medium=api_v3_business_search&utm_source=-uBzzloii2ivvF3N0jkhKQ,ytGDmmWZvLrB6EGEp5dAbg
86,Marks and Spencer,Japanese,4.5,££,71 Crouch End Hill,51.57737156,-0.12467101,https://www.yelp.com/biz/marks-and-spencer-london-769?adjust_creative=-uBzzloii2ivvF3N0jkhKQ&utm_campaign=yelp_api_v3&utm_medium=api_v3_business_search&utm_source=-uBzzloii2ivvF3N0jkhKQ,T9Van7khUlcrso6GF_x1FQ
87,Shabu-Shabu Eat Tokyo,Japanese,4.0,££,628 Finchley Road,51.5712199865709,-0.195242552208397,https://www.yelp.com/biz/shabu-shabu-eat-tokyo-london-2?adjust_creative=-uBzzloii2ivvF3N0jkhKQ&utm_campaign=yelp_api_v3&utm_medium=api_v3_business_search&utm_source=-uBzzloii2ivvF3N0jkhKQ,Gom9_7moJx0uzvcy2-4oMA
88,Tomodachi,Japanese,,,The Arcade,51.5177429423905,-0.0833415985107422,,
89,Yoshi Sushi,Japanese,4.0,££,210 King Street,51.4931209,-0.2359265,https://www.yelp.com/biz/yoshi-sushi-london?adjust_creative=-uBzzloii2ivvF3N0jkhKQ&utm_campaign=yelp_api_v3&utm_medium=api_v3_business_search&utm_source=-uBzzloii2ivvF3N0jkhKQ,N-fNWZYBRN9DXnLZY_c7yQ
90,Eat Tokyo,Japanese,4.0,££,17 Notting Hill Gate,51.509278,-0.194308,https://www.yelp.com/biz/eat-tokyo-london-2?adjust_creative=-uBzzloii2ivvF3N0jkhKQ&utm_campaign=yelp_api_v3&utm_medium=api_v3_business_search&utm_source=-uBzzloii2ivvF3N0jkhKQ,KJVzLC4wesZxWGoRdtNkSQ
91,Sushi Murasaki,Japanese,4.5,£££,12 Lauderdale Road,51.527656,-0.189323,https://www.yelp.com/biz/sushi-murasaki-london?adjust_creative=-uBzzloii2ivvF3N0jkhKQ&utm_campaign=yelp_api_v3&utm_medium=api_v3_business_search&utm_source=-uBzzloii2ivvF3N0jkhKQ,rmhrRhMm5tTmZ7SKpzNbAA
92,Mikawa Sushi,Japanese,,,11 Goldhawk Road,51.5029990641134,-0.223565649268369,,
93,Roka,Japanese,4.0,£££,37 Charlotte Street,51.5189741386939,-0.135395835697745,https://www.yelp.com/biz/roka-london-9?adjust_creative=-uBzzloii2ivvF3N0jkhKQ&utm_campaign=yelp_api_v3&utm_medium=api_v3_business_search&utm_source=-uBzzloii2ivvF3N0jkhKQ,bz-YqeJaLeQCP85S6e0pig
94,Wabi London,Japanese,4.5,££££,36-38 Kingsway,51.5159237,-0.1187847,https://www.yelp.com/biz/wabi-london-london?adjust_creative=-uBzzloii2ivvF3N0jkhKQ&utm_campaign=yelp_api_v3&utm_medium=api_v3_business_search&utm_source=-uBzzloii2ivvF3N0jkhKQ,OLLxnK8lOccNvDXX20EL9Q
95,Wawa,Japanese,4.0,££,173 Tower Bridge Road,51.5016196704509,-0.0781874991903351,https://www.yelp.com/biz/wawa-london-2?adjust_creative=-uBzzloii2ivvF3N0jkhKQ&utm_campaign=yelp_api_v3&utm_medium=api_v3_business_search&utm_source=-uBzzloii2ivvF3N0jkhKQ,pCDyAzA_83ihNdc4jXgD2w
96,Kikuchi,Japanese,4.0,£££,14 Hanway Street,51.516918961279,-0.13172617631368,https://www.yelp.com/biz/kikuchi-london?adjust_creative=-uBzzloii2ivvF3N0jkhKQ&utm_campaign=yelp_api_v3&utm_medium=api_v3_business_search&utm_source=-uBzzloii2ivvF3N0jkhKQ,J4Yyly_R5u7PSA-sTFOrrQ
97,Asakusa,Japanese,4.0,££,265 Eversholt Street,51.533923,-0.138284,https://www.yelp.com/biz/asakusa-london?adjust_creative=-uBzzloii2ivvF3N0jkhKQ&utm_campaign=yelp_api_v3&utm_medium=api_v3_business_search&utm_source=-uBzzloii2ivvF3N0jkhKQ,7EGOAJSnbj9-eB7gYCnHDQ
98,Nanban,Japanese,4.0,££,426 Coldharbour Lane,51.4616382988962,-0.11394808358936,https://www.yelp.com/biz/nanban-london-2?adjust_creative=-uBzzloii2ivvF3N0jkhKQ&utm_campaign=yelp_api_v3&utm_medium=api_v3_business_search&utm_source=-uBzzloii2ivvF3N0jkhKQ,OaidDsYK25MEpSEXe-ps6w
99,Kintan Japanese BBQ,Japanese,4.0,££,34 High Holborn,51.518378197249,-0.113517733307407,https://www.yelp.com/biz/kintan-japanese-bbq-london-2?adjust_creative=-uBzzloii2ivvF3N0jkhKQ&utm_campaign=yelp_api_v3&utm_medium=api_v3_business_search&utm_source=-uBzzloii2ivvF3N0jkhKQ,tnRBfmhN3QfsqOT2ZhG0LA
100,Yamagoya,Japanese,,,49 The Cut,51.5029930746104,-0.107038667169377,,
101,Shibuya Soho,Japanese,3.5,££,110 Shaftesbury Avenue,51.512263,-0.130941,https://www.yelp.com/biz/shibuya-soho-london?adjust_creative=-uBzzloii2ivvF3N0jkhKQ&utm_campaign=yelp_api_v3&utm_medium=api_v3_business_search&utm_source=-uBzzloii2ivvF3N0jkhKQ,H9MlruP4GCfDcEzQtb3Tjg
102,Yokoso,Japanese,3.5,££,Ground Floor Orion Point,51.4919179059836,-0.0257635534380607,https://www.yelp.com/biz/yokoso-london?adjust_creative=-uBzzloii2ivvF3N0jkhKQ&utm_campaign=yelp_api_v3&utm_medium=api_v3_business_search&utm_source=-uBzzloii2ivvF3N0jkhKQ,MYB4e0MQYOzpeTRo_rWLrw
103,Sushi Bar Atari-Ya,Japanese,3.0,££,75 Fairfax Road,51.5424157428963,-0.179696276783943,https://www.yelp.com/biz/sushi-bar-atari-ya-london?adjust_creative=-uBzzloii2ivvF3N0jkhKQ&utm_campaign=yelp_api_v3&utm_medium=api_v3_business_search&utm_source=-uBzzloii2ivvF3N0jkhKQ,dOXG5dwNle72JR0vba9NKg
104,Roka - Mayfair,Japanese,4.0,££££,30 N Audley St London,51.5128278,-0.1535779,https://www.yelp.com/biz/roka-mayfair-london-2?adjust_creative=-uBzzloii2ivvF3N0jkhKQ&utm_campaign=yelp_api_v3&utm_medium=api_v3_business_search&utm_source=-uBzzloii2ivvF3N0jkhKQ,nJ-MqubROdSlB21ZBfp0AA
105,Tokyo Diner,Japanese,4.0,££,2 Newport Place,51.511834541203,-0.129325720555244,https://www.yelp.com/biz/tokyo-diner-london?adjust_creative=-uBzzloii2ivvF3N0jkhKQ&utm_campaign=yelp_api_v3&utm_medium=api_v3_business_search&utm_source=-uBzzloii2ivvF3N0jkhKQ,V3PKWvQlPs2WXLHyfYAudQ
106,izakaya hannah,Japanese,,,1 Belvedere Rd,51.5014886789095,-0.118295493080419,,
107,Okan Okonomiyaki,Japanese,4.0,£,Unit 39,51.4626642688451,-0.111575275863771,https://www.yelp.com/biz/okan-okonomiyaki-london?adjust_creative=-uBzzloii2ivvF3N0jkhKQ&utm_campaign=yelp_api_v3&utm_medium=api_v3_business_search&utm_source=-uBzzloii2ivvF3N0jkhKQ,cOggpdHlOyhkDN4ewTeClQ
108,Itadaki Zen,Japanese,4.0,££,139 King's Cross Road,51.5296729,-0.116012,https://www.yelp.com/biz/itadaki-zen-london?adjust_creative=-uBzzloii2ivvF3N0jkhKQ&utm_campaign=yelp_api_v3&utm_medium=api_v3_business_search&utm_source=-uBzzloii2ivvF3N0jkhKQ,u2T6ZhYb_gNCgNvq_1uJtA
109,Yuhoki Japanese Restaurant,Japanese,4.0,££,Unit 1,51.5008231,-0.0135783,https://www.yelp.com/biz/yuhoki-japanese-restaurant-london?adjust_creative=-uBzzloii2ivvF3N0jkhKQ&utm_campaign=yelp_api_v3&utm_medium=api_v3_business_search&utm_source=-uBzzloii2ivvF3N0jkhKQ,A5PA6fSWBCD-s2D3QsKkjg
110,Mai Food,Japanese,4.5,££,7 Kenway Road,51.493014,-0.193484,https://www.yelp.com/biz/mai-food-london?adjust_creative=-uBzzloii2ivvF3N0jkhKQ&utm_campaign=yelp_api_v3&utm_medium=api_v3_business_search&utm_source=-uBzzloii2ivvF3N0jkhKQ,ViFjYVbpqPdICCO58eDaig
111,Juzu Takoyaki,Japanese,,,91 Brick Lane,51.521716,-0.072301,,
112,Tokyo Sukiyaki-Tei,Japanese,4.0,£££,85 Sloane Avenue,51.4924797,-0.1666259,https://www.yelp.com/biz/tokyo-sukiyaki-tei-london-2?adjust_creative=-uBzzloii2ivvF3N0jkhKQ&utm_campaign=yelp_api_v3&utm_medium=api_v3_business_search&utm_source=-uBzzloii2ivvF3N0jkhKQ,Q47vrEbD-J3c8dgLvF9pmg
113,Jin Kichi,Japanese,4.5,££,73 Heath Street,51.5573015,-0.1784654,https://www.yelp.com/biz/jin-kichi-london?adjust_creative=-uBzzloii2ivvF3N0jkhKQ&utm_campaign=yelp_api_v3&utm_medium=api_v3_business_search&utm_source=-uBzzloii2ivvF3N0jkhKQ,s9AQGxHM3llOULIWXtcmIQ
114,Shoryu Ramen,Japanese,4.0,££,9 Regent Street,51.508494856125,-0.13381448629492,https://www.yelp.com/biz/shoryu-ramen-london?adjust_creative=-uBzzloii2ivvF3N0jkhKQ&utm_campaign=yelp_api_v3&utm_medium=api_v3_business_search&utm_source=-uBzzloii2ivvF3N0jkhKQ,SuOm8qiv8MPAqj71PBI9bg
115,Misato,Japanese,4.0,£,11 Wardour Street,51.5108573078914,-0.131871099951695,https://www.yelp.com/biz/misato-london?adjust_creative=-uBzzloii2ivvF3N0jkhKQ&utm_campaign=yelp_api_v3&utm_medium=api_v3_business_search&utm_source=-uBzzloii2ivvF3N0jkhKQ,iCI1872SCAnbZBEj6pII6g
116,Koya Soho,Japanese,4.0,££,50 Frith Street,51.513632,-0.131762,https://www.yelp.com/biz/koya-soho-london?adjust_creative=-uBzzloii2ivvF3N0jkhKQ&utm_campaign=yelp_api_v3&utm_medium=api_v3_business_search&utm_source=-uBzzloii2ivvF3N0jkhKQ,EkaGxBRXazpwM5-1_krjlw
117,Tanakatsu,Japanese,5.0,£,Chalk Farm Road,51.5429326,-0.1490897,https://www.yelp.com/biz/tanakatsu-london?adjust_creative=-uBzzloii2ivvF3N0jkhKQ&utm_campaign=yelp_api_v3&utm_medium=api_v3_business_search&utm_source=-uBzzloii2ivvF3N0jkhKQ,DGJiDHe5COhl3L0L7ngq6Q
118,Nambu Tei,Japanese,4.5,££,Berkeley Arcade,51.5226969,-0.158014,https://www.yelp.com/biz/nambu-tei-london?adjust_creative=-uBzzloii2ivvF3N0jkhKQ&utm_campaign=yelp_api_v3&utm_medium=api_v3_business_search&utm_source=-uBzzloii2ivvF3N0jkhKQ,OHul9fimgElPU2Jvo5GQPQ
119,Asta 3,Japanese,,,5 Middlesex Street,51.5157046,-0.075367,,
120,Happy Sushi,Japanese,5.0,£,25 Lewisham Road,51.4722223578733,-0.0153697282075882,https://www.yelp.com/biz/happy-sushi-london?adjust_creative=-uBzzloii2ivvF3N0jkhKQ&utm_campaign=yelp_api_v3&utm_medium=api_v3_business_search&utm_source=-uBzzloii2ivvF3N0jkhKQ,Az5SnNm9n05na841zf9Vvw
121,Zuma London,Japanese,4.0,££££,5 Raphael Street,51.500967,-0.163198,https://www.yelp.com/biz/zuma-london-london?adjust_creative=-uBzzloii2ivvF3N0jkhKQ&utm_campaign=yelp_api_v3&utm_medium=api_v3_business_search&utm_source=-uBzzloii2ivvF3N0jkhKQ,OE_mMPt7pGM7kSKvna7hiw
122,"Wasabi, Sushi & Bento",Japanese,4.5,£,Kings Cross Station,51.5309600130297,-0.120162963867188,https://www.yelp.com/biz/wasabi-sushi-and-bento-london-3?adjust_creative=-uBzzloii2ivvF3N0jkhKQ&utm_campaign=yelp_api_v3&utm_medium=api_v3_business_search&utm_source=-uBzzloii2ivvF3N0jkhKQ,wD0aksrjRzx1FxsCTI_2ug
123,Hashi,Japanese,4.5,££,54 Durham Road,51.41114,-0.233016,https://www.yelp.com/biz/hashi-merton?adjust_creative=-uBzzloii2ivvF3N0jkhKQ&utm_campaign=yelp_api_v3&utm_medium=api_v3_business_search&utm_source=-uBzzloii2ivvF3N0jkhKQ,cxCEjxAvTWqIaq9jqvWd9Q
124,Ichiba,Japanese,,,Ariel Way,51.5075798034668,-0.221279993653297,,
125,Mangetsu,Japanese,4.5,££,Unit 29 The High Parade,51.4346982,-0.1281798,https://www.yelp.com/biz/mangetsu-london?adjust_creative=-uBzzloii2ivvF3N0jkhKQ&utm_campaign=yelp_api_v3&utm_medium=api_v3_business_search&utm_source=-uBzzloii2ivvF3N0jkhKQ,h7xs-gyhRaiVYKPJzy8tSA
126,Kazu,Japanese,,,64 Charlotte Street,51.520395,-0.136428,,
127,Ichi-Riki Sushi House,Japanese,4.5,££,17B Strutton Ground,51.4971961975098,-0.133643999695778,https://www.yelp.com/biz/ichi-riki-sushi-house-london?adjust_creative=-uBzzloii2ivvF3N0jkhKQ&utm_campaign=yelp_api_v3&utm_medium=api_v3_business_search&utm_source=-uBzzloii2ivvF3N0jkhKQ,QSOc2O9bXDTBLNqg4KRz6w
128,Sticks'n'Sushi,Japanese,4.0,£££,11 Henrietta Street,51.5110542,-0.1236238,https://www.yelp.com/biz/sticksnsushi-covent-garden?adjust_creative=-uBzzloii2ivvF3N0jkhKQ&utm_campaign=yelp_api_v3&utm_medium=api_v3_business_search&utm_source=-uBzzloii2ivvF3N0jkhKQ,btNuut5hLurv0rkFeMl99w
129,Tanakatsu,Japanese,,,10 Wakley St,51.5302867,-0.1020046,,
130,Umu Restaurant,Japanese,4.0,££££,14-16 Bruton Place,51.511423,-0.144433,https://www.yelp.com/biz/umu-restaurant-london?adjust_creative=-uBzzloii2ivvF3N0jkhKQ&utm_campaign=yelp_api_v3&utm_medium=api_v3_business_search&utm_source=-uBzzloii2ivvF3N0jkhKQ,sh2fym7x-sbwpMkF1lIdPA
131,Hot Stone,Japanese,,,9 Chapel Market,51.5335312,-0.1102469,,
132,Ai Sushi,Japanese,4.5,££,830 High Road,51.61739,-0.176588,https://www.yelp.com/biz/ai-sushi-north-finchley?adjust_creative=-uBzzloii2ivvF3N0jkhKQ&utm_campaign=yelp_api_v3&utm_medium=api_v3_business_search&utm_source=-uBzzloii2ivvF3N0jkhKQ,7AvJ9MKK-YOq-P8axtVY5A
133,Sakagura London,Japanese,4.0,£££,8 Heddon Street,51.510965,-0.13935,https://www.yelp.com/biz/sakagura-london-london?adjust_creative=-uBzzloii2ivvF3N0jkhKQ&utm_campaign=yelp_api_v3&utm_medium=api_v3_business_search&utm_source=-uBzzloii2ivvF3N0jkhKQ,-94aRzkubsXvhecNDMbz9A
134,Oka ,Japanese,4.0,££,Kingly Court,51.5125937846007,-0.138684892449739,https://www.yelp.com/biz/oka-london-4?adjust_creative=-uBzzloii2ivvF3N0jkhKQ&utm_campaign=yelp_api_v3&utm_medium=api_v3_business_search&utm_source=-uBzzloii2ivvF3N0jkhKQ,IWVEU86yXrqHtc_MeG40ZA
135,Kulu Kulu Sushi,Japanese,4.0,££,76 Brewer Street,51.5110382,-0.1367478,https://www.yelp.com/biz/kulu-kulu-sushi-london-2?adjust_creative=-uBzzloii2ivvF3N0jkhKQ&utm_campaign=yelp_api_v3&utm_medium=api_v3_business_search&utm_source=-uBzzloii2ivvF3N0jkhKQ,e-OsUh3rbQaXdmDcI3ttlg
136,Midori,Japanese,4.5,££,271 Muswell Hill Broadway,51.591606,-0.143117,https://www.yelp.com/biz/midori-london?adjust_creative=-uBzzloii2ivvF3N0jkhKQ&utm_campaign=yelp_api_v3&utm_medium=api_v3_business_search&utm_source=-uBzzloii2ivvF3N0jkhKQ,Zx5kW7MHExCIl4bSBqBxfQ
137,Tosa,Japanese,4.0,££,332 King Street,51.493609,-0.243055,https://www.yelp.com/biz/tosa-london?adjust_creative=-uBzzloii2ivvF3N0jkhKQ&utm_campaign=yelp_api_v3&utm_medium=api_v3_business_search&utm_source=-uBzzloii2ivvF3N0jkhKQ,t86YrAwB32JMqOKfQMzzvg
138,Nobu,Japanese,4.0,££££,19 Old Park Lane,51.5050546,-0.1500369,https://www.yelp.com/biz/nobu-london-4?adjust_creative=-uBzzloii2ivvF3N0jkhKQ&utm_campaign=yelp_api_v3&utm_medium=api_v3_business_search&utm_source=-uBzzloii2ivvF3N0jkhKQ,BfJFuB7057CVc6vwFMk1cw
139,Cafe Japan,Japanese,4.5,££,626 Finchley Road,51.571131,-0.195092,https://www.yelp.com/biz/cafe-japan-london?adjust_creative=-uBzzloii2ivvF3N0jkhKQ&utm_campaign=yelp_api_v3&utm_medium=api_v3_business_search&utm_source=-uBzzloii2ivvF3N0jkhKQ,YXSS8MF5_dKUQuQu9bBkyQ
140,Sakana-Tei,Japanese,,,11 Maddox Street,51.513285,-0.141619,,
141,Sensuru Japanese Restaurant,Japanese,5.0,££,139 Woolwich Road,51.486257,0.0144092,https://www.yelp.com/biz/sensuru-japanese-restaurant-london?adjust_creative=-uBzzloii2ivvF3N0jkhKQ&utm_campaign=yelp_api_v3&utm_medium=api_v3_business_search&utm_source=-uBzzloii2ivvF3N0jkhKQ,XZiCgRDEpWzUqvb3I8jtig
142,Kiru,Japanese,4.5,£££,2 Elystan Street,51.490847,-0.166112,https://www.yelp.com/biz/kiru-london?adjust_creative=-uBzzloii2ivvF3N0jkhKQ&utm_campaign=yelp_api_v3&utm_medium=api_v3_business_search&utm_source=-uBzzloii2ivvF3N0jkhKQ,VY9MH3qK6H7p3vI6KMzE8w
143,Wagamama,Japanese,3.5,££,Cardinal Place,51.4967799888926,-0.141947122753891,https://www.yelp.com/biz/wagamama-london-7?adjust_creative=-uBzzloii2ivvF3N0jkhKQ&utm_campaign=yelp_api_v3&utm_medium=api_v3_business_search&utm_source=-uBzzloii2ivvF3N0jkhKQ,9PV9JzlECK1e6qW0lBbaMA
144,Defune,Japanese,4.0,££££,34 George Street,51.517877933198,-0.15384633872215,https://www.yelp.com/biz/defune-london?adjust_creative=-uBzzloii2ivvF3N0jkhKQ&utm_campaign=yelp_api_v3&utm_medium=api_v3_business_search&utm_source=-uBzzloii2ivvF3N0jkhKQ,kCS8lbxoxfFw0pX5ZocioA
145,Shackfuyu,Japanese,4.0,££,14a Old Compton Street,51.5137786865234,-0.130199000239372,https://www.yelp.com/biz/shackfuyu-london?adjust_creative=-uBzzloii2ivvF3N0jkhKQ&utm_campaign=yelp_api_v3&utm_medium=api_v3_business_search&utm_source=-uBzzloii2ivvF3N0jkhKQ,nQImsJdozdLh6Xgodv_Q5Q
146,Japanika,Japanese,4.0,£,10 Hanbury Street,51.5201651,-0.07374,https://www.yelp.com/biz/japanika-london?adjust_creative=-uBzzloii2ivvF3N0jkhKQ&utm_campaign=yelp_api_v3&utm_medium=api_v3_business_search&utm_source=-uBzzloii2ivvF3N0jkhKQ,C6RLMKea-t9rUcmpZkQ4Yg
147,Eat Tokyo,Japanese,3.5,££,16 Old Compton Street,51.513816,-0.130327,https://www.yelp.com/biz/eat-tokyo-london-8?adjust_creative=-uBzzloii2ivvF3N0jkhKQ&utm_campaign=yelp_api_v3&utm_medium=api_v3_business_search&utm_source=-uBzzloii2ivvF3N0jkhKQ,9VgTWKJXbBT2FVBDj6C6HA
148,Hana,Japanese,3.5,££,150a Seven Sisters Road,51.561152,-0.11292,https://www.yelp.com/biz/hana-london?adjust_creative=-uBzzloii2ivvF3N0jkhKQ&utm_campaign=yelp_api_v3&utm_medium=api_v3_business_search&utm_source=-uBzzloii2ivvF3N0jkhKQ,0zpvQ4tDya7fxHSyGjhYUQ
149,Yoshino,Japanese,4.0,£££,3 Piccadilly Place,51.509242,-0.13715,https://www.yelp.com/biz/yoshino-london-2?adjust_creative=-uBzzloii2ivvF3N0jkhKQ&utm_campaign=yelp_api_v3&utm_medium=api_v3_business_search&utm_source=-uBzzloii2ivvF3N0jkhKQ,3sDiGULcDzkPrZbB2h_E7Q
150,FUJI,Japanese,4.0,££,15A Stoke Newington Church Street,51.5619223,-0.0748759,https://www.yelp.com/biz/fuji-london?adjust_creative=-uBzzloii2ivvF3N0jkhKQ&utm_campaign=yelp_api_v3&utm_medium=api_v3_business_search&utm_source=-uBzzloii2ivvF3N0jkhKQ,kz7Q2w0Am9moU59yH6aEyg
151,Bone Daddies,Japanese,3.5,££,30-31 Peter Street,51.512829,-0.133884,https://www.yelp.com/biz/bone-daddies-london?adjust_creative=-uBzzloii2ivvF3N0jkhKQ&utm_campaign=yelp_api_v3&utm_medium=api_v3_business_search&utm_source=-uBzzloii2ivvF3N0jkhKQ,uR8LyabQij0naLafZtHd2w
152,C&R Izakaya,Japanese,,,52 Westbourne Grove,51.5155566,-0.1916334,,
153,Maguro,Japanese,4.0,£££,5 Lanark Place,51.52547,-0.178892,https://www.yelp.com/biz/maguro-london?adjust_creative=-uBzzloii2ivvF3N0jkhKQ&utm_campaign=yelp_api_v3&utm_medium=api_v3_business_search&utm_source=-uBzzloii2ivvF3N0jkhKQ,45oXNUc6b1Hz9aOx672KtA
154,Eat Tokyo,Japanese,4.0,££,169 King Street,51.4925438,-0.2338802,https://www.yelp.com/biz/eat-tokyo-london-7?adjust_creative=-uBzzloii2ivvF3N0jkhKQ&utm_campaign=yelp_api_v3&utm_medium=api_v3_business_search&utm_source=-uBzzloii2ivvF3N0jkhKQ,9SaE41jcYDRiHnAJgy7zAQ
155,Yama Momo,Japanese,4.0,££,72 Lordship Lane,51.458262,-0.075267,https://www.yelp.com/biz/yama-momo-london?adjust_creative=-uBzzloii2ivvF3N0jkhKQ&utm_campaign=yelp_api_v3&utm_medium=api_v3_business_search&utm_source=-uBzzloii2ivvF3N0jkhKQ,4DdnHQRGuoWn7AbVwbJmaA
156,Yijo Restaurant,Korean,4.0,£££,1 Station Road,51.6006634,-0.193336,https://www.yelp.com/biz/yijo-restaurant-london?adjust_creative=-uBzzloii2ivvF3N0jkhKQ&utm_campaign=yelp_api_v3&utm_medium=api_v3_business_search&utm_source=-uBzzloii2ivvF3N0jkhKQ,zv7oAMBx2aPrvY4o-OeaMQ
157,Bi-Won,Korean,3.5,££,24 Coptic Street,51.517261505127,-0.125876992940903,https://www.yelp.com/biz/bi-won-london?adjust_creative=-uBzzloii2ivvF3N0jkhKQ&utm_campaign=yelp_api_v3&utm_medium=api_v3_business_search&utm_source=-uBzzloii2ivvF3N0jkhKQ,k8dvPyYzmzvZR9Vg3GfLdg
158,Naru,Korean,4.0,££,230 Shaftsbury Avenue,51.516772350748,-0.125953473951252,https://www.yelp.com/biz/naru-london?adjust_creative=-uBzzloii2ivvF3N0jkhKQ&utm_campaign=yelp_api_v3&utm_medium=api_v3_business_search&utm_source=-uBzzloii2ivvF3N0jkhKQ,3wimQGFaqwIhW_nyRbC0Xg
159,Dotori,Korean,4.0,££,3 Stroud Green Road,51.564744,-0.105326,https://www.yelp.com/biz/dotori-london?adjust_creative=-uBzzloii2ivvF3N0jkhKQ&utm_campaign=yelp_api_v3&utm_medium=api_v3_business_search&utm_source=-uBzzloii2ivvF3N0jkhKQ,lgKo9rC664oNAUEQIV2lCw
160,Bone Daddies,Ramen,,,Nova Development,51.4973552212733,-0.144187358823444,,
161,Toro Ramen Japanese restaurant,Ramen,,,80 Lee High Road,51.4613049076,-0.00650603324175,,
162,Bone Daddies,Ramen,3.5,££,Unit C,51.5268061076008,-0.0890483700222122,https://www.yelp.com/biz/bone-daddies-london-7?adjust_creative=-uBzzloii2ivvF3N0jkhKQ&utm_campaign=yelp_api_v3&utm_medium=api_v3_business_search&utm_source=-uBzzloii2ivvF3N0jkhKQ,hze-MCmj6NNmXH9_2I8g2g
163,Monohon Ramen,Ramen,4.5,££,102 Old Street,51.5248797507695,-0.0926597679367343,https://www.yelp.com/biz/monohon-ramen-london?adjust_creative=-uBzzloii2ivvF3N0jkhKQ&utm_campaign=yelp_api_v3&utm_medium=api_v3_business_search&utm_source=-uBzzloii2ivvF3N0jkhKQ,0KWaFfC4UvmN8nK5Gt8VSA
164,Ippudo,Ramen,,,31A Villiers St,51.5081,-0.12366,,
165,Ramo Ramen,Ramen,,,157 Kentish Town Rd,51.54546,-0.14181,,
166,kanada-ya Ramen Bar,Ramen,,,35 Upper St,51.53477,-0.105158,,
167,Koi Ramen Bar,Ramen,,,21-23 Tooting High Street,51.4288087300914,-0.165912906486946,,
168,Kanada-Ya,Ramen,4.0,££,3 Panton Street,51.509282,-0.131954,https://www.yelp.com/biz/kanada-ya-london-3?adjust_creative=-uBzzloii2ivvF3N0jkhKQ&utm_campaign=yelp_api_v3&utm_medium=api_v3_business_search&utm_source=-uBzzloii2ivvF3N0jkhKQ,gnV87j9kILMGD2HiPPZUFg
169,Kanada-Ya,Ramen,4.5,££,64 St Giles High Street,51.51555,-0.127588,https://www.yelp.com/biz/kanada-ya-london?adjust_creative=-uBzzloii2ivvF3N0jkhKQ&utm_campaign=yelp_api_v3&utm_medium=api_v3_business_search&utm_source=-uBzzloii2ivvF3N0jkhKQ,Odvs0d73SgqDiOQVPNi0dQ
170,Tatami Ramen,Ramen,,,68 Union Street,51.504146,-0.095157,,
171,Tonkotsu,Ramen,3.5,££,7 Blenheim Crescent,51.515681,-0.205442,https://www.yelp.com/biz/tonkotsu-london-4?adjust_creative=-uBzzloii2ivvF3N0jkhKQ&utm_campaign=yelp_api_v3&utm_medium=api_v3_business_search&utm_source=-uBzzloii2ivvF3N0jkhKQ,NhwLQyJTHMxJAW1sRSwo7g
172,Atari-Ya Foods,Seafood Markets,5.0,££,595 High Rd,51.6085392,-0.1753474,https://www.yelp.com/biz/atari-ya-foods-london-5?adjust_creative=-uBzzloii2ivvF3N0jkhKQ&utm_campaign=yelp_api_v3&utm_medium=api_v3_business_search&utm_source=-uBzzloii2ivvF3N0jkhKQ,pjHPwY-4nMchn7YPlHxUyA
173,Hoppers,Sri Lankan,4.5,££,49 Frith Street,51.5135765075684,-0.131750002503395,https://www.yelp.com/biz/hoppers-soho?adjust_creative=-uBzzloii2ivvF3N0jkhKQ&utm_campaign=yelp_api_v3&utm_medium=api_v3_business_search&utm_source=-uBzzloii2ivvF3N0jkhKQ,2U4muki2mQXmkefOtL1VYQ
174,Yoobi,Sushi Bars,4.0,££,38 Lexington Street,51.5128974914551,-0.136000007390976,https://www.yelp.com/biz/yoobi-london-2?adjust_creative=-uBzzloii2ivvF3N0jkhKQ&utm_campaign=yelp_api_v3&utm_medium=api_v3_business_search&utm_source=-uBzzloii2ivvF3N0jkhKQ,BDvtZdt8fuOqGZsYxS-9JQ
175,UNI,Sushi Bars,4.0,£££,18A Ebury Street,51.4961395,-0.1473595,https://www.yelp.com/biz/uni-london?adjust_creative=-uBzzloii2ivvF3N0jkhKQ&utm_campaign=yelp_api_v3&utm_medium=api_v3_business_search&utm_source=-uBzzloii2ivvF3N0jkhKQ,vwMEXJ4u0t6PpywdqeCquQ
176,Sushi Heads,Sushi Bars,,,205B Philip Lane,,,,
177,Dinings,Sushi Bars,4.5,££££,22 Harcourt Street,51.519827,-0.164761,https://www.yelp.com/biz/dinings-london?adjust_creative=-uBzzloii2ivvF3N0jkhKQ&utm_campaign=yelp_api_v3&utm_medium=api_v3_business_search&utm_source=-uBzzloii2ivvF3N0jkhKQ,je97zHcsRbKm5Ji10JtNSA
178,Sushi Tetsu,Sushi Bars,5.0,££££,12 Jerusalem Passage,51.5232787973028,-0.103991949209005,https://www.yelp.com/biz/sushi-tetsu-london?adjust_creative=-uBzzloii2ivvF3N0jkhKQ&utm_campaign=yelp_api_v3&utm_medium=api_v3_business_search&utm_source=-uBzzloii2ivvF3N0jkhKQ,cmwx_XwnncPLX0hyRomD8A
179,Sushino En,Sushi Bars,3.5,££,2 Whitechurch Lane,51.516104,-0.06934,https://www.yelp.com/biz/sushino-en-london-2?adjust_creative=-uBzzloii2ivvF3N0jkhKQ&utm_campaign=yelp_api_v3&utm_medium=api_v3_business_search&utm_source=-uBzzloii2ivvF3N0jkhKQ,_iaadzUgRJzd1S2zaesG6A
180,Ohayo Sushi,Sushi Bars,5.0,££,3 Keswick Broadway,51.4587452,-0.2096187,https://www.yelp.com/biz/ohayo-sushi-london?adjust_creative=-uBzzloii2ivvF3N0jkhKQ&utm_campaign=yelp_api_v3&utm_medium=api_v3_business_search&utm_source=-uBzzloii2ivvF3N0jkhKQ,RG0Iq_WT6_pgLIPM3agAkA
181,Zaibatsu,Sushi Bars,3.5,££,96 Trafalgar Road,51.484032,0.001537,https://www.yelp.com/biz/zaibatsu-london?adjust_creative=-uBzzloii2ivvF3N0jkhKQ&utm_campaign=yelp_api_v3&utm_medium=api_v3_business_search&utm_source=-uBzzloii2ivvF3N0jkhKQ,AI3BYF97wrs5y7zOCKnuxw
182,Sticks N Sushi,Sushi Bars,4.0,£££,1 Canada Square,51.506069801941,-0.0180960511608269,https://www.yelp.com/biz/sticks-n-sushi-london-6?adjust_creative=-uBzzloii2ivvF3N0jkhKQ&utm_campaign=yelp_api_v3&utm_medium=api_v3_business_search&utm_source=-uBzzloii2ivvF3N0jkhKQ,8CoNJzQT2oQY2l31gxBdqw
183,Sushiology,Sushi Bars,4.0,££,20 James Street,51.514667485804,-0.15030826259542,https://www.yelp.com/biz/sushiology-london?adjust_creative=-uBzzloii2ivvF3N0jkhKQ&utm_campaign=yelp_api_v3&utm_medium=api_v3_business_search&utm_source=-uBzzloii2ivvF3N0jkhKQ,_eS9wgqmIpQ5ILx_6kakXQ
184,Aburi Japanese Restaurant,Sushi Bars,,,190 Goswell Road,51.5263814,-0.0999230834323726,,
185,Cocoro,Sushi Bars,3.5,££,31 Marylebone Lane,51.5167205,-0.1508015,https://www.yelp.com/biz/cocoro-london?adjust_creative=-uBzzloii2ivvF3N0jkhKQ&utm_campaign=yelp_api_v3&utm_medium=api_v3_business_search&utm_source=-uBzzloii2ivvF3N0jkhKQ,lCMl-LQSYuAlcNx8fc86VQ
186,Mai Sushi,Sushi Bars,4.0,££,36-38 Chalton Street,51.5293543386131,-0.129357154379363,https://www.yelp.com/biz/mai-sushi-london?adjust_creative=-uBzzloii2ivvF3N0jkhKQ&utm_campaign=yelp_api_v3&utm_medium=api_v3_business_search&utm_source=-uBzzloii2ivvF3N0jkhKQ,0BsMtJbmhRfWd6jgr5vdzA
187,The Araki,Sushi Bars,4.0,££££,12 New Burlington Street,51.5118942,-0.1406649,https://www.yelp.com/biz/the-araki-london?adjust_creative=-uBzzloii2ivvF3N0jkhKQ&utm_campaign=yelp_api_v3&utm_medium=api_v3_business_search&utm_source=-uBzzloii2ivvF3N0jkhKQ,rvAl8ZlL4vqqItpGW59DIg
188,Atari-Ya Foods,Sushi Bars,4.5,££,7 Station Parade,51.517749,-0.280473,https://www.yelp.com/biz/atari-ya-foods-london-4?adjust_creative=-uBzzloii2ivvF3N0jkhKQ&utm_campaign=yelp_api_v3&utm_medium=api_v3_business_search&utm_source=-uBzzloii2ivvF3N0jkhKQ,Vsdd8b6Dw707dDGnBioUDA
189,Yashin Sushi,Sushi Bars,4.0,££££,1A Argyll Road,51.5007620563954,-0.195618867874146,https://www.yelp.com/biz/yashin-sushi-london?adjust_creative=-uBzzloii2ivvF3N0jkhKQ&utm_campaign=yelp_api_v3&utm_medium=api_v3_business_search&utm_source=-uBzzloii2ivvF3N0jkhKQ,3cxehtFJIiYyS2WNmOnygQ
190,Okiko House Of Sushi,Sushi Bars,,,42 East Street,51.40754,0.016686,,
191,Wasabi,Sushi Bars,4.0,£,Kings Cross Station,51.53317,-0.125727,https://www.yelp.com/biz/wasabi-london-36?adjust_creative=-uBzzloii2ivvF3N0jkhKQ&utm_campaign=yelp_api_v3&utm_medium=api_v3_business_search&utm_source=-uBzzloii2ivvF3N0jkhKQ,DZ7hOHrrq7f1OamM2xglhw
192,OHISAMA SUSHI,Sushi Bars,3.5,££,39 Paddington Street,51.5202272987735,-0.155845356367743,https://www.yelp.com/biz/ohisama-sushi-london?adjust_creative=-uBzzloii2ivvF3N0jkhKQ&utm_campaign=yelp_api_v3&utm_medium=api_v3_business_search&utm_source=-uBzzloii2ivvF3N0jkhKQ,Q_c02FoontNKYwgjGkvjSA
193,Choja Sushi,Sushi Bars,,,182 Lavender Hill,51.4644592,-0.1630459,,
194,Cocoro,Sushi Bars,5.0,££,232 Archway Road,51.574471,-0.141708,https://www.yelp.com/biz/cocoro-london-3?adjust_creative=-uBzzloii2ivvF3N0jkhKQ&utm_campaign=yelp_api_v3&utm_medium=api_v3_business_search&utm_source=-uBzzloii2ivvF3N0jkhKQ,l4YPCDgsOsBHnPoPetfo9w
195,Yazu Sushi,Sushi Bars,4.0,£££,Unit 2 46 Curzon Street,51.50679,-0.146552,https://www.yelp.com/biz/yazu-sushi-london?adjust_creative=-uBzzloii2ivvF3N0jkhKQ&utm_campaign=yelp_api_v3&utm_medium=api_v3_business_search&utm_source=-uBzzloii2ivvF3N0jkhKQ,38XT_amMEtYUhshaPKme1A
196,Midori Sushi,Sushi Bars,5.0,££,220 Upper Richmond Road,51.4612274,-0.2180692,https://www.yelp.com/biz/midori-sushi-london?adjust_creative=-uBzzloii2ivvF3N0jkhKQ&utm_campaign=yelp_api_v3&utm_medium=api_v3_business_search&utm_source=-uBzzloii2ivvF3N0jkhKQ,hlKe6zwJ_z8ugFr3iT09Rg
197,Yida Sushi,Sushi Bars,4.0,££,246 St Paul Road,51.546681,-0.099399,https://www.yelp.com/biz/yida-sushi-london-2?adjust_creative=-uBzzloii2ivvF3N0jkhKQ&utm_campaign=yelp_api_v3&utm_medium=api_v3_business_search&utm_source=-uBzzloii2ivvF3N0jkhKQ,OZYCQPb4quKnCoc-9eMVww
198,Twist,Tapas/Small Plates,4.5,£££,42 Crawford Street,51.5193012900495,-0.16238228962316,https://www.yelp.com/biz/twist-london-2?adjust_creative=-uBzzloii2ivvF3N0jkhKQ&utm_campaign=yelp_api_v3&utm_medium=api_v3_business_search&utm_source=-uBzzloii2ivvF3N0jkhKQ,BVlzDuPtmnupkLA41HaH5A
199,Salvation in Noodles,Vietnamese,4.0,££,122 Balls Pond Road,51.5466842,-0.0833915,https://www.yelp.com/biz/salvation-in-noodles-london?adjust_creative=-uBzzloii2ivvF3N0jkhKQ&utm_campaign=yelp_api_v3&utm_medium=api_v3_business_search&utm_source=-uBzzloii2ivvF3N0jkhKQ,Owt02Z7EStFiVTk7ZL0Xig
