,Restaurant,Type,Rating,Price,Address,Lat,Lng,url,ID
0,Brooklyn Blend,American (New),4.5,$$,194 Tompkins Ave,40.6923575699329,-73.9457686990499,https://www.yelp.com/biz/brooklyn-blend-brooklyn?adjust_creative=-uBzzloii2ivvF3N0jkhKQ&utm_campaign=yelp_api_v3&utm_medium=api_v3_business_search&utm_source=-uBzzloii2ivvF3N0jkhKQ,X3ToKHjzofO8EzfiHYewWg
1,David's Cafe,American (New),4.0,$$,110 St Marks Pl,40.7269310030458,-73.9843428879976,https://www.yelp.com/biz/davids-cafe-new-york?adjust_creative=-uBzzloii2ivvF3N0jkhKQ&utm_campaign=yelp_api_v3&utm_medium=api_v3_business_search&utm_source=-uBzzloii2ivvF3N0jkhKQ,3V20VbC45XL4TBYTL9DrOg
2,The Bluebell Cafe,American (New),4.0,$$,293 3rd Ave,40.73845,-73.98321,https://www.yelp.com/biz/the-bluebell-cafe-new-york?adjust_creative=-uBzzloii2ivvF3N0jkhKQ&utm_campaign=yelp_api_v3&utm_medium=api_v3_business_search&utm_source=-uBzzloii2ivvF3N0jkhKQ,63nYipWuA42RZmESBMUNkQ
3,Mad Morton,American (New),,,47 7th Ave S,40.731365,-74.003888,,
4,Duke Eatery,American (New),4.0,$$,300 Park Ave,40.7569688575924,-73.9750746534424,https://www.yelp.com/biz/duke-eatery-new-york-2?adjust_creative=-uBzzloii2ivvF3N0jkhKQ&utm_campaign=yelp_api_v3&utm_medium=api_v3_business_search&utm_source=-uBzzloii2ivvF3N0jkhKQ,ZtjF2N3eYOjtnI3cES2fpw
5,The Cabin NYC,American (New),4.0,$$,205 E 4th St,40.72393,-73.98383,https://www.yelp.com/biz/the-cabin-nyc-new-york-2?adjust_creative=-uBzzloii2ivvF3N0jkhKQ&utm_campaign=yelp_api_v3&utm_medium=api_v3_business_search&utm_source=-uBzzloii2ivvF3N0jkhKQ,J3NT61-AH5d5Gu5tFJhYSw
6,Tribeca's Kitchen,American (New),4.0,$$,200 Church St,40.7162705535921,-74.0072225927912,https://www.yelp.com/biz/tribecas-kitchen-new-york?adjust_creative=-uBzzloii2ivvF3N0jkhKQ&utm_campaign=yelp_api_v3&utm_medium=api_v3_business_search&utm_source=-uBzzloii2ivvF3N0jkhKQ,MHtbBc2np3sR7jiV9GphNg
7,Natureworks,American (New),4.0,$$,113 E 31st St,40.745068,-73.981859,https://www.yelp.com/biz/natureworks-new-york-2?adjust_creative=-uBzzloii2ivvF3N0jkhKQ&utm_campaign=yelp_api_v3&utm_medium=api_v3_business_search&utm_source=-uBzzloii2ivvF3N0jkhKQ,Y39SdfmS0Z_GepcFnFqlMA
8,The Osprey,American (New),4.0,$$,60 Furman St,40.702241,-73.995539,https://www.yelp.com/biz/the-osprey-brooklyn?adjust_creative=-uBzzloii2ivvF3N0jkhKQ&utm_campaign=yelp_api_v3&utm_medium=api_v3_business_search&utm_source=-uBzzloii2ivvF3N0jkhKQ,q11TljTQd33XCWlVoPyRqg
9,Bocado Cafe,American (New),3.5,$$,1293 Lexington Ave,40.7802514169278,-73.9549089244757,https://www.yelp.com/biz/bocado-cafe-new-york?adjust_creative=-uBzzloii2ivvF3N0jkhKQ&utm_campaign=yelp_api_v3&utm_medium=api_v3_business_search&utm_source=-uBzzloii2ivvF3N0jkhKQ,Tt9Mkrgd5Zj_ZJEeU0L7Gg
10,Dig,American (New),3.5,$$,80 Pine St,40.7062847,-74.0070115,https://www.yelp.com/biz/dig-new-york-4?adjust_creative=-uBzzloii2ivvF3N0jkhKQ&utm_campaign=yelp_api_v3&utm_medium=api_v3_business_search&utm_source=-uBzzloii2ivvF3N0jkhKQ,_rzVYnChUVRaQb7VyuI7IQ
11,Krave Cafe & Grill,American (New),3.5,$$,4501 Ditmars Blvd,40.770849,-73.902925,https://www.yelp.com/biz/krave-cafe-and-grill-astoria?adjust_creative=-uBzzloii2ivvF3N0jkhKQ&utm_campaign=yelp_api_v3&utm_medium=api_v3_business_search&utm_source=-uBzzloii2ivvF3N0jkhKQ,2adt0VMnQxso1NGUzhY5qg
12,Montagu's Gusto,American (New),4.5,$,645 2nd Ave,40.74571,-73.97553,https://www.yelp.com/biz/montagus-gusto-new-york?adjust_creative=-uBzzloii2ivvF3N0jkhKQ&utm_campaign=yelp_api_v3&utm_medium=api_v3_business_search&utm_source=-uBzzloii2ivvF3N0jkhKQ,or0Op4EDk95L0vhLwSATcQ
13,Clancey,American (New),4.5,$$,79 Clinton St,40.7190299,-73.98521,https://www.yelp.com/biz/clancey-new-york?adjust_creative=-uBzzloii2ivvF3N0jkhKQ&utm_campaign=yelp_api_v3&utm_medium=api_v3_business_search&utm_source=-uBzzloii2ivvF3N0jkhKQ,7qtIemPU3LlNix8CVWdhwA
14,Purbird,American (New),4.0,$$,82 Sixth Ave,40.67985,-73.97518,https://www.yelp.com/biz/purbird-brooklyn?adjust_creative=-uBzzloii2ivvF3N0jkhKQ&utm_campaign=yelp_api_v3&utm_medium=api_v3_business_search&utm_source=-uBzzloii2ivvF3N0jkhKQ,shTLI1GCcZ9rosFdt8d2Xg
15,The Quarter Brooklyn,American (New),4.0,$$,87 Lafayette Ave,40.6874192552749,-73.9748689904809,https://www.yelp.com/biz/the-quarter-brooklyn-brooklyn?adjust_creative=-uBzzloii2ivvF3N0jkhKQ&utm_campaign=yelp_api_v3&utm_medium=api_v3_business_search&utm_source=-uBzzloii2ivvF3N0jkhKQ,HdYmIA2jRBbKnU1mGJ9a3Q
16,Wolfnights ,American (New),4.0,$$,99 Rivington St,40.720021354453756,-73.9885666,https://www.yelp.com/biz/wolfnights-new-york-6?adjust_creative=-uBzzloii2ivvF3N0jkhKQ&utm_campaign=yelp_api_v3&utm_medium=api_v3_business_search&utm_source=-uBzzloii2ivvF3N0jkhKQ,jpw7iGUzsj_AECKt351X8w
17,Mr Wraps,American (New),3.5,$,741 Garden St,40.7455771582294,-74.0301996982031,https://www.yelp.com/biz/mr-wraps-hoboken?adjust_creative=-uBzzloii2ivvF3N0jkhKQ&utm_campaign=yelp_api_v3&utm_medium=api_v3_business_search&utm_source=-uBzzloii2ivvF3N0jkhKQ,BWuKxlkZvjejYxQ6-haLeg
18,Muscle Maker Grill,American (New),4.0,$$,4041 E Tremont Ave,40.8195,-73.8171,https://www.yelp.com/biz/muscle-maker-grill-bronx?adjust_creative=-uBzzloii2ivvF3N0jkhKQ&utm_campaign=yelp_api_v3&utm_medium=api_v3_business_search&utm_source=-uBzzloii2ivvF3N0jkhKQ,1lU3jq0jI527nlRC-aTKXg
19,Satyr Grill,American (Traditional),3.5,$,1109 Cypress Ave,40.6960902,-73.8994532,https://www.yelp.com/biz/satyr-grill-ridgewood?adjust_creative=-uBzzloii2ivvF3N0jkhKQ&utm_campaign=yelp_api_v3&utm_medium=api_v3_business_search&utm_source=-uBzzloii2ivvF3N0jkhKQ,pMdGxqqo_bJQNwvwj2XpcA
20,Greenwich Street Tavern,American (Traditional),4.0,$$,399 Greenwich St,40.720839,-74.0096888,https://www.yelp.com/biz/greenwich-street-tavern-new-york-2?adjust_creative=-uBzzloii2ivvF3N0jkhKQ&utm_campaign=yelp_api_v3&utm_medium=api_v3_business_search&utm_source=-uBzzloii2ivvF3N0jkhKQ,tS57VDB7MA81rzOsQkTrmw
21,Wrap and Roll Grill,American (Traditional),2.0,$,1530 3rd Ave,40.779129,-73.954162,https://www.yelp.com/biz/wrap-and-roll-grill-new-york-2?adjust_creative=-uBzzloii2ivvF3N0jkhKQ&utm_campaign=yelp_api_v3&utm_medium=api_v3_business_search&utm_source=-uBzzloii2ivvF3N0jkhKQ,10B5dlMaQ_l3m5QrlCPNzA
22,Winona's,American (Traditional),,,676 Flushing Ave,40.700038,-73.945787,,
23,Cafe Panino Mucho Giusto,Bagels,4.0,$,551 Hudson St,40.735256,-74.006309,https://www.yelp.com/biz/cafe-panino-mucho-giusto-new-york?adjust_creative=-uBzzloii2ivvF3N0jkhKQ&utm_campaign=yelp_api_v3&utm_medium=api_v3_business_search&utm_source=-uBzzloii2ivvF3N0jkhKQ,jewdjZyGcAXIepOeTBae6g
24,Best Bagel & Coffee,Bagels,4.5,$,225 W 35th St,40.7522683,-73.9910861,https://www.yelp.com/biz/best-bagel-and-coffee-new-york?adjust_creative=-uBzzloii2ivvF3N0jkhKQ&utm_campaign=yelp_api_v3&utm_medium=api_v3_business_search&utm_source=-uBzzloii2ivvF3N0jkhKQ,j1S3NUrkB3BVT49n_e76NQ
25,Ess-a-Bagel,Bakeries,4.0,$,831 3rd Ave,40.756300559255,-73.9703701025162,https://www.yelp.com/biz/ess-a-bagel-new-york?adjust_creative=-uBzzloii2ivvF3N0jkhKQ&utm_campaign=yelp_api_v3&utm_medium=api_v3_business_search&utm_source=-uBzzloii2ivvF3N0jkhKQ,c3eMI4_o4dPDDhPV_ibBYQ
26,Parisi Bakery,Bakeries,4.5,$$,198 Mott St,40.7211836,-73.9954365,https://www.yelp.com/biz/parisi-bakery-new-york-4?adjust_creative=-uBzzloii2ivvF3N0jkhKQ&utm_campaign=yelp_api_v3&utm_medium=api_v3_business_search&utm_source=-uBzzloii2ivvF3N0jkhKQ,6q6WWGaO75PQkpWOQ2zzHQ
27,The Juicy Box,Bars,4.0,$$,2281 Nostrand Ave,40.629069,-73.947001,https://www.yelp.com/biz/the-juicy-box-brooklyn?adjust_creative=-uBzzloii2ivvF3N0jkhKQ&utm_campaign=yelp_api_v3&utm_medium=api_v3_business_search&utm_source=-uBzzloii2ivvF3N0jkhKQ,MgGY2TEfFCyzxmMzcqAO6w
28,Skinny's Cantina,Bars,3.0,$$,4705 Center Blvd,40.7457158661738,-73.9563131306885,https://www.yelp.com/biz/skinnys-cantina-long-island-city?adjust_creative=-uBzzloii2ivvF3N0jkhKQ&utm_campaign=yelp_api_v3&utm_medium=api_v3_business_search&utm_source=-uBzzloii2ivvF3N0jkhKQ,NvyOagUcodDPHSDF5Vhbmg
29,Forrest Point,Bars,4.0,$$,970 Flushing Ave,40.70319,-73.93229,https://www.yelp.com/biz/forrest-point-brooklyn?adjust_creative=-uBzzloii2ivvF3N0jkhKQ&utm_campaign=yelp_api_v3&utm_medium=api_v3_business_search&utm_source=-uBzzloii2ivvF3N0jkhKQ,zHqDuMznom7CLp2lqV8q0g
30,Saravá - The Modern Bistro,Breakfast & Brunch,4.5,$$,6819 Third Ave,40.635841,-74.025738,https://www.yelp.com/biz/sarav%C3%A1-the-modern-bistro-brooklyn?adjust_creative=-uBzzloii2ivvF3N0jkhKQ&utm_campaign=yelp_api_v3&utm_medium=api_v3_business_search&utm_source=-uBzzloii2ivvF3N0jkhKQ,g3FOPlO-Gp0J4HfjurW74Q
31,Devon and Blakely,Breakfast & Brunch,,,185 Greenwich St,40.71158,-74.01141,,
32,Jack's Wife Freda,Breakfast & Brunch,4.0,$$,224 Lafayette St,40.72213,-73.99756,https://www.yelp.com/biz/jacks-wife-freda-new-york?adjust_creative=-uBzzloii2ivvF3N0jkhKQ&utm_campaign=yelp_api_v3&utm_medium=api_v3_business_search&utm_source=-uBzzloii2ivvF3N0jkhKQ,Me4TxTbPPQZQopW1wOGx5g
33,The Blue Dog Cookhouse & Bar,Breakfast & Brunch,4.0,$$,308 W 50th St,40.76244,-73.98674,https://www.yelp.com/biz/the-blue-dog-cookhouse-and-bar-new-york?adjust_creative=-uBzzloii2ivvF3N0jkhKQ&utm_campaign=yelp_api_v3&utm_medium=api_v3_business_search&utm_source=-uBzzloii2ivvF3N0jkhKQ,I6optu9x0JAf8oT5lqJ8qw
34,Banter,Breakfast & Brunch,4.5,$$,169 Sullivan St,40.72787,-74.0010999,https://www.yelp.com/biz/banter-new-york?adjust_creative=-uBzzloii2ivvF3N0jkhKQ&utm_campaign=yelp_api_v3&utm_medium=api_v3_business_search&utm_source=-uBzzloii2ivvF3N0jkhKQ,Zc7Jbuwe3XO-EaVXIh_TYQ
35,Toasties,Breakfast & Brunch,3.5,$,23 E 51st St,40.758511,-73.9748188,https://www.yelp.com/biz/toasties-new-york-9?adjust_creative=-uBzzloii2ivvF3N0jkhKQ&utm_campaign=yelp_api_v3&utm_medium=api_v3_business_search&utm_source=-uBzzloii2ivvF3N0jkhKQ,F2TE6sQpywj3bkVi8L_nLw
36,Energy Fuel Healthy Grill,Breakfast & Brunch,3.0,$$,386 Myrtle Ave,40.69294,-73.970508,https://www.yelp.com/biz/energy-fuel-healthy-grill-brooklyn-4?adjust_creative=-uBzzloii2ivvF3N0jkhKQ&utm_campaign=yelp_api_v3&utm_medium=api_v3_business_search&utm_source=-uBzzloii2ivvF3N0jkhKQ,YedhNxIynx2FAVkYZCG09g
37,Weekends,Breakfast & Brunch,4.5,$,155 S 4th St,40.71162,-73.96184,https://www.yelp.com/biz/weekends-brooklyn?adjust_creative=-uBzzloii2ivvF3N0jkhKQ&utm_campaign=yelp_api_v3&utm_medium=api_v3_business_search&utm_source=-uBzzloii2ivvF3N0jkhKQ,RszJexNjHiS1As9cJ7eWpQ
38,Tio Pio,Breakfast & Brunch,3.0,$,78 Willoughby St,40.69208,-73.98566,https://www.yelp.com/biz/tio-pio-brooklyn?adjust_creative=-uBzzloii2ivvF3N0jkhKQ&utm_campaign=yelp_api_v3&utm_medium=api_v3_business_search&utm_source=-uBzzloii2ivvF3N0jkhKQ,36C1DDb_8WatJkMt-pg4Iw
39,Pure Bistro,Breakfast & Brunch,4.0,$$,88 5th Ave,40.680452,-73.977961,https://www.yelp.com/biz/pure-bistro-brooklyn?adjust_creative=-uBzzloii2ivvF3N0jkhKQ&utm_campaign=yelp_api_v3&utm_medium=api_v3_business_search&utm_source=-uBzzloii2ivvF3N0jkhKQ,7Wd4pLyM6rqlC8YQexBJbg
40,Wrap-N-Run,Burgers,3.5,$,1125 Lexington Ave,40.774368,-73.959106,https://www.yelp.com/biz/wrap-n-run-new-york?adjust_creative=-uBzzloii2ivvF3N0jkhKQ&utm_campaign=yelp_api_v3&utm_medium=api_v3_business_search&utm_source=-uBzzloii2ivvF3N0jkhKQ,Eomoxptcfby96iDCkxMzIg
41,Superiority Burger,Burgers,4.0,$,430 E 9th St,40.72739,-73.98355,https://www.yelp.com/biz/superiority-burger-new-york?adjust_creative=-uBzzloii2ivvF3N0jkhKQ&utm_campaign=yelp_api_v3&utm_medium=api_v3_business_search&utm_source=-uBzzloii2ivvF3N0jkhKQ,tf3RVircY9-8adku41N6VQ
42,Breakroom,Burgers,4.5,$$,83 Baxter St,40.7166907225542,-73.9999440120647,https://www.yelp.com/biz/breakroom-new-york?adjust_creative=-uBzzloii2ivvF3N0jkhKQ&utm_campaign=yelp_api_v3&utm_medium=api_v3_business_search&utm_source=-uBzzloii2ivvF3N0jkhKQ,MfbVI5reXLIIs8Cc2HwgQw
43,Citizens of Soho,Cafes,,,201 Lafayette St,40.72134,-73.99777,,
44,Three Owls Market,Cafes,4.0,$$,800 Washington St,40.73887,-74.0082,https://www.yelp.com/biz/three-owls-market-new-york?adjust_creative=-uBzzloii2ivvF3N0jkhKQ&utm_campaign=yelp_api_v3&utm_medium=api_v3_business_search&utm_source=-uBzzloii2ivvF3N0jkhKQ,nI9a2XEe0kM6sEBZr-gxXg
45,The Picnic Basket,Cafes,4.0,$$,65 W 37th St,40.7516246,-73.9858858,https://www.yelp.com/biz/the-picnic-basket-new-york?adjust_creative=-uBzzloii2ivvF3N0jkhKQ&utm_campaign=yelp_api_v3&utm_medium=api_v3_business_search&utm_source=-uBzzloii2ivvF3N0jkhKQ,qYqe-kArMUebiEvxUPUlVg
46,Yafa Cafe,Cafes,5.0,$,4415 4th Ave,40.64938,-74.00925,https://www.yelp.com/biz/yafa-cafe-brooklyn-2?adjust_creative=-uBzzloii2ivvF3N0jkhKQ&utm_campaign=yelp_api_v3&utm_medium=api_v3_business_search&utm_source=-uBzzloii2ivvF3N0jkhKQ,NrKCM1h3CsC-sfhg-t1awg
47,certé,Caterers,4.0,$$,22 W 55th St,40.761965,-73.97617,https://www.yelp.com/biz/cert%C3%A9-new-york-4?adjust_creative=-uBzzloii2ivvF3N0jkhKQ&utm_campaign=yelp_api_v3&utm_medium=api_v3_business_search&utm_source=-uBzzloii2ivvF3N0jkhKQ,mmO9muETmuX4Noyitqw8xQ
48,Lamazou,Cheese Shops,4.5,$,370 3rd Ave,40.74125,-73.98162,https://www.yelp.com/biz/lamazou-new-york?adjust_creative=-uBzzloii2ivvF3N0jkhKQ&utm_campaign=yelp_api_v3&utm_medium=api_v3_business_search&utm_source=-uBzzloii2ivvF3N0jkhKQ,Z-yRKPcZQS5dhw_ph-cWBg
49,Louie's Chicken,Chicken Shop,4.5,$$,1026 2nd Ave,40.757416,-73.966329,https://www.yelp.com/biz/louies-chicken-new-york-2?adjust_creative=-uBzzloii2ivvF3N0jkhKQ&utm_campaign=yelp_api_v3&utm_medium=api_v3_business_search&utm_source=-uBzzloii2ivvF3N0jkhKQ,13_1t_3MtLn-Y5ZBKHrmww
50,Tanner Smiths,Cocktail Bars,4.5,$$,204 W 55th St,40.76442,-73.98169,https://www.yelp.com/biz/tanner-smiths-new-york-2?adjust_creative=-uBzzloii2ivvF3N0jkhKQ&utm_campaign=yelp_api_v3&utm_medium=api_v3_business_search&utm_source=-uBzzloii2ivvF3N0jkhKQ,z5hRX3iJ5Ty_S38iG_WY3Q
51,Perk Kafe,Coffee & Tea,,,534 East 14th St,40.72959,-73.9788,,
52,Lenwich,Coffee & Tea,,,10 Hanover Sq,40.70457,-74.00886,,
53,Cafe Peanut,Coffee & Tea,4.5,$$,586 Newark Ave,40.732359,-74.056997,https://www.yelp.com/biz/cafe-peanut-jersey-city?adjust_creative=-uBzzloii2ivvF3N0jkhKQ&utm_campaign=yelp_api_v3&utm_medium=api_v3_business_search&utm_source=-uBzzloii2ivvF3N0jkhKQ,R1ElNcvQx0JXTlegPb4i7A
54,The Grey Dog - Nolita,Coffee & Tea,4.0,$$,244 Mulberry St,40.7229699,-73.99576,https://www.yelp.com/biz/the-grey-dog-nolita-new-york-3?adjust_creative=-uBzzloii2ivvF3N0jkhKQ&utm_campaign=yelp_api_v3&utm_medium=api_v3_business_search&utm_source=-uBzzloii2ivvF3N0jkhKQ,jzQNE09rRKz8Ou-bEdEY1Q
55,The Grey Dog - Union Square,Coffee & Tea,4.0,$$,90 University Pl,40.733828,-73.993052,https://www.yelp.com/biz/the-grey-dog-union-square-new-york?adjust_creative=-uBzzloii2ivvF3N0jkhKQ&utm_campaign=yelp_api_v3&utm_medium=api_v3_business_search&utm_source=-uBzzloii2ivvF3N0jkhKQ,VCqNjupCWZ5INzOcyBMJSg
56,The Grey Dog,Coffee & Tea,4.0,$$,242 W 16th St,40.740624,-74.000648,https://www.yelp.com/biz/the-grey-dog-new-york-5?adjust_creative=-uBzzloii2ivvF3N0jkhKQ&utm_campaign=yelp_api_v3&utm_medium=api_v3_business_search&utm_source=-uBzzloii2ivvF3N0jkhKQ,QpkKEFHK5dz8XT-osEXgJw
57,Cafe One,Coffee & Tea,4.5,$,1619 Amsterdam Ave,40.822166,-73.949569,https://www.yelp.com/biz/cafe-one-new-york?adjust_creative=-uBzzloii2ivvF3N0jkhKQ&utm_campaign=yelp_api_v3&utm_medium=api_v3_business_search&utm_source=-uBzzloii2ivvF3N0jkhKQ,aI1yals6ghSQuXS_vMIbPw
58,Milk & Honey Cafe,Coffee & Tea,4.0,$$,1119 Newkirk Ave,40.634356735221,-73.9661046515558,https://www.yelp.com/biz/milk-and-honey-cafe-brooklyn-2?adjust_creative=-uBzzloii2ivvF3N0jkhKQ&utm_campaign=yelp_api_v3&utm_medium=api_v3_business_search&utm_source=-uBzzloii2ivvF3N0jkhKQ,x_YWFkTcxEu1lo8Nlrog5A
59,Pickler,Coffee & Tea,4.0,$$,216 E 45th St,40.75219,-73.9721,https://www.yelp.com/biz/pickler-new-york?adjust_creative=-uBzzloii2ivvF3N0jkhKQ&utm_campaign=yelp_api_v3&utm_medium=api_v3_business_search&utm_source=-uBzzloii2ivvF3N0jkhKQ,v4X0_xdRmVDQ5qgyGAubHw
60,Bond St Coffee and Goods,Coffee & Tea,,,365 Bond St,40.67795748253778,-73.9908596760598,,
61,Dr Smood - Soho,Coffee & Tea,4.0,$$,470 Broome St,40.72282,-74.0014,https://www.yelp.com/biz/dr-smood-soho-new-york-5?adjust_creative=-uBzzloii2ivvF3N0jkhKQ&utm_campaign=yelp_api_v3&utm_medium=api_v3_business_search&utm_source=-uBzzloii2ivvF3N0jkhKQ,3RdrV08_Ni-4xRDxROTYHA
62,Seitan Rising Vegan Cafe,Custom Cakes,,,2 Morgan Ave,40.704129,-73.931139,,
63,Brooklyn Gourmet Deli,Delis,4.5,$,313 Bedford Ave,40.713143,-73.962035,https://www.yelp.com/biz/brooklyn-gourmet-deli-brooklyn?adjust_creative=-uBzzloii2ivvF3N0jkhKQ&utm_campaign=yelp_api_v3&utm_medium=api_v3_business_search&utm_source=-uBzzloii2ivvF3N0jkhKQ,pNAzYa46vVgMIrPbdvSnww
64,West Village Finest Deli,Delis,3.5,$,84 7th Ave,40.7317498633619,-74.0037668296812,https://www.yelp.com/biz/west-village-finest-deli-new-york?adjust_creative=-uBzzloii2ivvF3N0jkhKQ&utm_campaign=yelp_api_v3&utm_medium=api_v3_business_search&utm_source=-uBzzloii2ivvF3N0jkhKQ,HNFt-Qvat4hQNMk-LV8apQ
65,Lassen & Hennigs,Delis,4.0,$$,114 Montague St,40.69484,-73.9949,https://www.yelp.com/biz/lassen-and-hennigs-brooklyn?adjust_creative=-uBzzloii2ivvF3N0jkhKQ&utm_campaign=yelp_api_v3&utm_medium=api_v3_business_search&utm_source=-uBzzloii2ivvF3N0jkhKQ,UsDeDLDJzYp91t6akkueqw
66,Bedford Gourmet Food,Delis,3.5,$,160 Bedford Ave,40.718636,-73.957161,https://www.yelp.com/biz/bedford-gourmet-food-brooklyn?adjust_creative=-uBzzloii2ivvF3N0jkhKQ&utm_campaign=yelp_api_v3&utm_medium=api_v3_business_search&utm_source=-uBzzloii2ivvF3N0jkhKQ,HFLrwgg8A8_1l0RZVKyxGQ
67,Awesome Deli,Delis,4.5,$,60 Broadway,40.7102999,-73.96629,https://www.yelp.com/biz/awesome-deli-brooklyn?adjust_creative=-uBzzloii2ivvF3N0jkhKQ&utm_campaign=yelp_api_v3&utm_medium=api_v3_business_search&utm_source=-uBzzloii2ivvF3N0jkhKQ,PQAIs-ZPN7QrBvJ-F9pE8w
68,LIC Bagel & Deli,Delis,,,41-04 27th St,40.751623,-73.938682,,
69,Bread and Butter,Delis,3.0,$$,462 7th Ave,40.7518918650105,-73.9900231361389,https://www.yelp.com/biz/bread-and-butter-new-york-10?adjust_creative=-uBzzloii2ivvF3N0jkhKQ&utm_campaign=yelp_api_v3&utm_medium=api_v3_business_search&utm_source=-uBzzloii2ivvF3N0jkhKQ,XWtuNUqtd4RH70uZUZagDw
70,The Original John's Deli,Delis,4.0,$$,2033 Stillwell Ave,40.5971199,-73.984982,https://www.yelp.com/biz/the-original-johns-deli-brooklyn?adjust_creative=-uBzzloii2ivvF3N0jkhKQ&utm_campaign=yelp_api_v3&utm_medium=api_v3_business_search&utm_source=-uBzzloii2ivvF3N0jkhKQ,Etg2R7kFSSExsvki0sOqug
71,Heavenly Market,Delis,,,1692 York Ave,40.777709,-73.9456163,,
72,ESSEN,Delis,2.5,$$,100 Broad St,40.7034499,-74.01213,https://www.yelp.com/biz/essen-new-york-3?adjust_creative=-uBzzloii2ivvF3N0jkhKQ&utm_campaign=yelp_api_v3&utm_medium=api_v3_business_search&utm_source=-uBzzloii2ivvF3N0jkhKQ,SaVBP5ompofkzz4FywdYZQ
73,NY Grill & Deli,Delis,,,882 1st Ave,40.753608,-73.966163,,
74,Toasties,Delis,3.5,$,214 7th Ave,40.743746,-73.996185,https://www.yelp.com/biz/toasties-new-york-7?adjust_creative=-uBzzloii2ivvF3N0jkhKQ&utm_campaign=yelp_api_v3&utm_medium=api_v3_business_search&utm_source=-uBzzloii2ivvF3N0jkhKQ,LP_T7GUwoGy-f-KXYXmk3g
75,Milano Market,Delis,3.5,$$,1582 3rd Ave,40.78071,-73.95283,https://www.yelp.com/biz/milano-market-new-york-2?adjust_creative=-uBzzloii2ivvF3N0jkhKQ&utm_campaign=yelp_api_v3&utm_medium=api_v3_business_search&utm_source=-uBzzloii2ivvF3N0jkhKQ,6dg4oT600Qc4YVDWZyk5jg
76,Santa Barbara Deli,Delis,4.0,$,551 E 12th St,40.7282296,-73.9791262,https://www.yelp.com/biz/santa-barbara-deli-manhattan?adjust_creative=-uBzzloii2ivvF3N0jkhKQ&utm_campaign=yelp_api_v3&utm_medium=api_v3_business_search&utm_source=-uBzzloii2ivvF3N0jkhKQ,eJzVEVIHql5Vyi0jNxT0Xg
77,Hana Food,Delis,4.0,$,534 Metropolitan Ave,40.7139499,-73.95103,https://www.yelp.com/biz/hana-food-brooklyn?adjust_creative=-uBzzloii2ivvF3N0jkhKQ&utm_campaign=yelp_api_v3&utm_medium=api_v3_business_search&utm_source=-uBzzloii2ivvF3N0jkhKQ,IIxj6StgYM6nE-NoEy7hDw
78,Homefront Deli,Delis,4.0,$,41 E 41st St,40.75204,-73.97924,https://www.yelp.com/biz/homefront-deli-new-york-2?adjust_creative=-uBzzloii2ivvF3N0jkhKQ&utm_campaign=yelp_api_v3&utm_medium=api_v3_business_search&utm_source=-uBzzloii2ivvF3N0jkhKQ,Phmh-dTT3fg_Zgw4JguxIw
79,5th Avenue Market & Deli,Delis,4.5,$,185 5th Ave,40.67711,-73.97984,https://www.yelp.com/biz/5th-avenue-market-and-deli-brooklyn?adjust_creative=-uBzzloii2ivvF3N0jkhKQ&utm_campaign=yelp_api_v3&utm_medium=api_v3_business_search&utm_source=-uBzzloii2ivvF3N0jkhKQ,PNPTSkU2HuYKMFmzDX7atA
80,The Fillmore Delicatessen,Delis,4.0,$$,1668 3rd Ave,40.7836739433032,-73.9508441090584,https://www.yelp.com/biz/the-fillmore-delicatessen-new-york-2?adjust_creative=-uBzzloii2ivvF3N0jkhKQ&utm_campaign=yelp_api_v3&utm_medium=api_v3_business_search&utm_source=-uBzzloii2ivvF3N0jkhKQ,QG8pqZsrnr-wTCMLn3UeBQ
81,Spring Streets Finest Deli,Delis,4.0,$,322 Spring St,40.72589,-74.0092899,https://www.yelp.com/biz/spring-streets-finest-deli-new-york?adjust_creative=-uBzzloii2ivvF3N0jkhKQ&utm_campaign=yelp_api_v3&utm_medium=api_v3_business_search&utm_source=-uBzzloii2ivvF3N0jkhKQ,w7zQ47EyJ6R7K_TEWZnInA
82,Fresh 2 Go,Delis,,,104-02 Liberty Ave,40.68184,-73.83677,,
83,No Ho Juice Bar & Deli,Delis,4.5,$,208 Mercer St,40.7266505,-73.9968021,https://www.yelp.com/biz/no-ho-juice-bar-and-deli-new-york?adjust_creative=-uBzzloii2ivvF3N0jkhKQ&utm_campaign=yelp_api_v3&utm_medium=api_v3_business_search&utm_source=-uBzzloii2ivvF3N0jkhKQ,I9cLwCosV_fzbIaKfLubpg
84,45 Deli Market,Delis,4.0,$,839 2nd Ave,40.751762,-73.971145,https://www.yelp.com/biz/45-deli-market-new-york?adjust_creative=-uBzzloii2ivvF3N0jkhKQ&utm_campaign=yelp_api_v3&utm_medium=api_v3_business_search&utm_source=-uBzzloii2ivvF3N0jkhKQ,qhoqHDmzpEudR9nnEy6g_g
85,Taim West Village,Falafel,4.5,$$,222 Waverly Pl,40.736002376347,-74.0019588366439,https://www.yelp.com/biz/taim-west-village-new-york?adjust_creative=-uBzzloii2ivvF3N0jkhKQ&utm_campaign=yelp_api_v3&utm_medium=api_v3_business_search&utm_source=-uBzzloii2ivvF3N0jkhKQ,j0n_poMVZnODYOFviLbh0Q
86,Flip Sigi,Filipino,4.0,$$,131 7th Ave S,40.7344965,-74.0020674,https://www.yelp.com/biz/flip-sigi-new-york-2?adjust_creative=-uBzzloii2ivvF3N0jkhKQ&utm_campaign=yelp_api_v3&utm_medium=api_v3_business_search&utm_source=-uBzzloii2ivvF3N0jkhKQ,8WnHtvMdPWE66eSkUdbLhQ
87,Dekalb Market Hall,Food Court,4.0,$$,445 Albee Square W,40.691025,-73.983311,https://www.yelp.com/biz/dekalb-market-hall-brooklyn-2?adjust_creative=-uBzzloii2ivvF3N0jkhKQ&utm_campaign=yelp_api_v3&utm_medium=api_v3_business_search&utm_source=-uBzzloii2ivvF3N0jkhKQ,HFOiW4RvijuoblE4DD3JwA
88,Barney Brown,Food Delivery Services,4.5,$$,822 6th Ave,40.7461897,-73.990062,https://www.yelp.com/biz/barney-brown-new-york?adjust_creative=-uBzzloii2ivvF3N0jkhKQ&utm_campaign=yelp_api_v3&utm_medium=api_v3_business_search&utm_source=-uBzzloii2ivvF3N0jkhKQ,wJhm-RhgPhvlqF80s5D49Q
89,Lafayette Grand Café & Bakery,French,3.5,$$$,380 Lafayette St,40.727617,-73.993464,https://www.yelp.com/biz/lafayette-grand-caf%C3%A9-and-bakery-new-york?adjust_creative=-uBzzloii2ivvF3N0jkhKQ&utm_campaign=yelp_api_v3&utm_medium=api_v3_business_search&utm_source=-uBzzloii2ivvF3N0jkhKQ,g3jNtkQZVZrrC823oBxdtg
90,Copinette,French,,,891 1st Ave,40.75407,-73.96623,,
91,Oda House,Georgian,4.5,$$,406 E 73rd St,40.768084,-73.954979,https://www.yelp.com/biz/oda-house-new-york-3?adjust_creative=-uBzzloii2ivvF3N0jkhKQ&utm_campaign=yelp_api_v3&utm_medium=api_v3_business_search&utm_source=-uBzzloii2ivvF3N0jkhKQ,r7z65v8cnBP0MhGP4oQ0bQ
92,Souvlaki GR,Greek,4.0,$$,116 Stanton St,40.721196,-73.987118,https://www.yelp.com/biz/souvlaki-gr-new-york-3?adjust_creative=-uBzzloii2ivvF3N0jkhKQ&utm_campaign=yelp_api_v3&utm_medium=api_v3_business_search&utm_source=-uBzzloii2ivvF3N0jkhKQ,gG0pitVnSaUMGbEL3boF0g
93,East Village Finest Deli,Grocery,4.0,$,50 Avenue B,40.723259711912455,-73.98278911095151,https://www.yelp.com/biz/east-village-finest-deli-new-york?adjust_creative=-uBzzloii2ivvF3N0jkhKQ&utm_campaign=yelp_api_v3&utm_medium=api_v3_business_search&utm_source=-uBzzloii2ivvF3N0jkhKQ,QqVpY9s282CN-VP3zlJcQw
94,Milano Market Westside,Grocery,4.0,$$,2892 Broadway,40.8056679,-73.965275,https://www.yelp.com/biz/milano-market-westside-new-york?adjust_creative=-uBzzloii2ivvF3N0jkhKQ&utm_campaign=yelp_api_v3&utm_medium=api_v3_business_search&utm_source=-uBzzloii2ivvF3N0jkhKQ,JY576sTpB3ljay2IAajZ2w
95,Space Market,Grocery,3.0,$,1 University Pl,40.730835,-73.995219,https://www.yelp.com/biz/space-market-new-york?adjust_creative=-uBzzloii2ivvF3N0jkhKQ&utm_campaign=yelp_api_v3&utm_medium=api_v3_business_search&utm_source=-uBzzloii2ivvF3N0jkhKQ,OxK9hn4SRr6BuHsCEGRCHQ
96,Healthy Greens Gourmet Deli,Grocery,,,48 3rd Ave,40.7309286639192,-73.9891720831899,,
97,Reyes Deli & Grocery,Grocery,4.5,$,532 4th Ave,40.66731,-73.99162,https://www.yelp.com/biz/reyes-deli-and-grocery-brooklyn?adjust_creative=-uBzzloii2ivvF3N0jkhKQ&utm_campaign=yelp_api_v3&utm_medium=api_v3_business_search&utm_source=-uBzzloii2ivvF3N0jkhKQ,MT8a8H25oeQ6eATdffxWmA
98,Peri Peri Grill House,Halal,,,173 4th Ave,40.67851812678404,-73.98198889999999,,
99,Call It A Wrap,Health Markets,3.5,$$,1198 Forest Ave,40.62609,-74.1298599,https://www.yelp.com/biz/call-it-a-wrap-staten-island?adjust_creative=-uBzzloii2ivvF3N0jkhKQ&utm_campaign=yelp_api_v3&utm_medium=api_v3_business_search&utm_source=-uBzzloii2ivvF3N0jkhKQ,srDU0CprYKrvQXFZ7AuzxA
100,The Drunken Munkey - UES,Indian,4.5,$$,338 E 92nd St,40.78098,-73.94751,https://www.yelp.com/biz/the-drunken-munkey-ues-new-york?adjust_creative=-uBzzloii2ivvF3N0jkhKQ&utm_campaign=yelp_api_v3&utm_medium=api_v3_business_search&utm_source=-uBzzloii2ivvF3N0jkhKQ,9pMhRYYgV7E9L7pzECtJKA
101,The Kati Roll Company,Indian,4.0,$$,99 MacDougal St,40.72966,-74.00109,https://www.yelp.com/biz/the-kati-roll-company-new-york?adjust_creative=-uBzzloii2ivvF3N0jkhKQ&utm_campaign=yelp_api_v3&utm_medium=api_v3_business_search&utm_source=-uBzzloii2ivvF3N0jkhKQ,kB3QyyhHFVyhGgp35Rnuew
102,Panino Rustico of Mill Basin,Italian,4.5,$$,5801 Ave N,40.619645,-73.919084,https://www.yelp.com/biz/panino-rustico-of-mill-basin-brooklyn?adjust_creative=-uBzzloii2ivvF3N0jkhKQ&utm_campaign=yelp_api_v3&utm_medium=api_v3_business_search&utm_source=-uBzzloii2ivvF3N0jkhKQ,ZgIs3x73_b29wiwPMIiOnQ
103,Panino Rustico,Italian,4.5,$$,8222 17th Ave,40.610494,-74.003153,https://www.yelp.com/biz/panino-rustico-brooklyn-6?adjust_creative=-uBzzloii2ivvF3N0jkhKQ&utm_campaign=yelp_api_v3&utm_medium=api_v3_business_search&utm_source=-uBzzloii2ivvF3N0jkhKQ,FwMyv3CVIxbI6ngodw7s3w
104,Olives Organic Market,Juice Bars & Smoothies,4.0,$$,4237 27th St,40.74919,-73.94051,https://www.yelp.com/biz/olives-organic-market-long-island-city-2?adjust_creative=-uBzzloii2ivvF3N0jkhKQ&utm_campaign=yelp_api_v3&utm_medium=api_v3_business_search&utm_source=-uBzzloii2ivvF3N0jkhKQ,F8H1wsnL8pnUQWy3ql9GHg
105,Cafe Bliss & Organic Juice Bar,Juice Bars & Smoothies,,,44-17 48th Ave,40.7396237,-73.9210149,,
106,The Bklyn Juice Bar,Juice Bars & Smoothies,4.5,$,2873 Atlantic Ave,40.67722,-73.88825,https://www.yelp.com/biz/the-bklyn-juice-bar-brooklyn?adjust_creative=-uBzzloii2ivvF3N0jkhKQ&utm_campaign=yelp_api_v3&utm_medium=api_v3_business_search&utm_source=-uBzzloii2ivvF3N0jkhKQ,uwm2qUJvHY5UU_roUey5Jg
107,Elmhurst Deli & Juice Bar,Juice Bars & Smoothies,3.5,$,80-03 Broadway,40.7437352,-73.8845266,https://www.yelp.com/biz/elmhurst-deli-and-juice-bar-elmhurst?adjust_creative=-uBzzloii2ivvF3N0jkhKQ&utm_campaign=yelp_api_v3&utm_medium=api_v3_business_search&utm_source=-uBzzloii2ivvF3N0jkhKQ,LadVV0-x3FK7yIagrezX9A
108,Green Blend,Juice Bars & Smoothies,4.0,$,387 8th Ave,40.74929,-73.9958,https://www.yelp.com/biz/green-blend-new-york?adjust_creative=-uBzzloii2ivvF3N0jkhKQ&utm_campaign=yelp_api_v3&utm_medium=api_v3_business_search&utm_source=-uBzzloii2ivvF3N0jkhKQ,GhIGKjOnCnfDdIv6a84xXA
109,Nature's Grill Cafe,Juice Bars & Smoothies,3.0,$$,283 Smith St,40.682309,-73.993272,https://www.yelp.com/biz/natures-grill-cafe-brooklyn-2?adjust_creative=-uBzzloii2ivvF3N0jkhKQ&utm_campaign=yelp_api_v3&utm_medium=api_v3_business_search&utm_source=-uBzzloii2ivvF3N0jkhKQ,kjf6ytTnwFaSxfYtzhLzWg
110,Olympias Finest Deli,Juice Bars & Smoothies,4.5,$,761 6th Ave,40.7444138481323,-73.9918421691789,https://www.yelp.com/biz/olympias-finest-deli-new-york-5?adjust_creative=-uBzzloii2ivvF3N0jkhKQ&utm_campaign=yelp_api_v3&utm_medium=api_v3_business_search&utm_source=-uBzzloii2ivvF3N0jkhKQ,TCYy1ULREceEiEu5h5FHPA
111,Quinoa Kitchen,Juice Bars & Smoothies,4.5,$$,287 Bedford Ave,40.71403,-73.96147,https://www.yelp.com/biz/quinoa-kitchen-brooklyn?adjust_creative=-uBzzloii2ivvF3N0jkhKQ&utm_campaign=yelp_api_v3&utm_medium=api_v3_business_search&utm_source=-uBzzloii2ivvF3N0jkhKQ,IT7fmvejMygNXsV71jvZtg
112,Fresh From Hell,Juice Bars & Smoothies,4.5,$$,326 W 47th St,40.7608265,-73.9889803,https://www.yelp.com/biz/fresh-from-hell-new-york?adjust_creative=-uBzzloii2ivvF3N0jkhKQ&utm_campaign=yelp_api_v3&utm_medium=api_v3_business_search&utm_source=-uBzzloii2ivvF3N0jkhKQ,BqKuDTR5UfzaXA39_wH3Yg
113,Color Me Greens,Juice Bars & Smoothies,3.5,$$,1522 Myrtle Ave,40.699209,-73.912948,https://www.yelp.com/biz/color-me-greens-brooklyn?adjust_creative=-uBzzloii2ivvF3N0jkhKQ&utm_campaign=yelp_api_v3&utm_medium=api_v3_business_search&utm_source=-uBzzloii2ivvF3N0jkhKQ,d9OFd2AgqRfXfJRo7pGIEA
114,KoBa,Korean,,,470 7th Ave,40.75206,-73.99008,,
115,YUBU,Korean,4.5,$,86 E 7th St,40.72702,-73.98608,https://www.yelp.com/biz/yubu-new-york?adjust_creative=-uBzzloii2ivvF3N0jkhKQ&utm_campaign=yelp_api_v3&utm_medium=api_v3_business_search&utm_source=-uBzzloii2ivvF3N0jkhKQ,aZ_a78wVWnQnV6BdMwcFVA
116,Wrap N' Roll,Kosher,4.0,$,1119 Quentin Rd,40.6081347,-73.9612046,https://www.yelp.com/biz/wrap-n-roll-brooklyn?adjust_creative=-uBzzloii2ivvF3N0jkhKQ&utm_campaign=yelp_api_v3&utm_medium=api_v3_business_search&utm_source=-uBzzloii2ivvF3N0jkhKQ,MNE4muxVXnbZ8mDFxJLPLA
117,Manousheh Bleecker,Lebanese,4.5,$,193 Bleecker St,40.729511,-74.001275,https://www.yelp.com/biz/manousheh-bleecker-new-york-5?adjust_creative=-uBzzloii2ivvF3N0jkhKQ&utm_campaign=yelp_api_v3&utm_medium=api_v3_business_search&utm_source=-uBzzloii2ivvF3N0jkhKQ,VSPkVw9gSQx-5v4A6aC_YA
118,El Toum,Lebanese,,,35-62 76th St,40.749352,-73.890394,,
119,The Hummus & Pita,Mediterranean,4.0,$$,585 6th Ave,40.73928,-73.99605,https://www.yelp.com/biz/the-hummus-and-pita-new-york-4?adjust_creative=-uBzzloii2ivvF3N0jkhKQ&utm_campaign=yelp_api_v3&utm_medium=api_v3_business_search&utm_source=-uBzzloii2ivvF3N0jkhKQ,dzI6MzwKbrhJN5dEeUbX0w
120,Lava Shawarma,Mediterranean,4.5,$,57 Clinton St,40.71964,-73.98507,https://www.yelp.com/biz/lava-shawarma-new-york?adjust_creative=-uBzzloii2ivvF3N0jkhKQ&utm_campaign=yelp_api_v3&utm_medium=api_v3_business_search&utm_source=-uBzzloii2ivvF3N0jkhKQ,0AoaUlXkQOlalpA3v-Ivqw
121,CAVA,Mediterranean,4.5,$$,143 4th Ave,40.7337897786475,-73.9896078601189,https://www.yelp.com/biz/cava-new-york-4?adjust_creative=-uBzzloii2ivvF3N0jkhKQ&utm_campaign=yelp_api_v3&utm_medium=api_v3_business_search&utm_source=-uBzzloii2ivvF3N0jkhKQ,mMuAsPSy2T56j0ENSTPL9w
122,Pita Pan,Mediterranean,4.0,$,167 7th Ave,40.67194,-73.9771899,https://www.yelp.com/biz/pita-pan-brooklyn?adjust_creative=-uBzzloii2ivvF3N0jkhKQ&utm_campaign=yelp_api_v3&utm_medium=api_v3_business_search&utm_source=-uBzzloii2ivvF3N0jkhKQ,ZG953qDRSrVap2QKm2OG1g
123,CAVA,Mediterranean,4.0,$$,325 Park Ave S,40.7408422,-73.9855104,https://www.yelp.com/biz/cava-new-york-6?adjust_creative=-uBzzloii2ivvF3N0jkhKQ&utm_campaign=yelp_api_v3&utm_medium=api_v3_business_search&utm_source=-uBzzloii2ivvF3N0jkhKQ,_HDL2GbVd6OsbBYDUWx8Zg
124,The Hummus & Pita,Mediterranean,4.0,$,79 Chambers St,40.7146406,-74.00677421396293,https://www.yelp.com/biz/the-hummus-and-pita-new-york-8?adjust_creative=-uBzzloii2ivvF3N0jkhKQ&utm_campaign=yelp_api_v3&utm_medium=api_v3_business_search&utm_source=-uBzzloii2ivvF3N0jkhKQ,ZoVVcwwbCxIhEmstLWrRvw
125,Miznon,Mediterranean,4.0,$$,435 W 15th St,40.742575,-74.006206,https://www.yelp.com/biz/miznon-new-york?adjust_creative=-uBzzloii2ivvF3N0jkhKQ&utm_campaign=yelp_api_v3&utm_medium=api_v3_business_search&utm_source=-uBzzloii2ivvF3N0jkhKQ,kTQ0rRfgtlPwX9_O8OY_UA
126,Chamoun’s Way,Mediterranean,,,1237 1st Ave,40.764614,-73.95875,,
127,NAYA - Midtown East,Mediterranean,4.0,$$,688 3rd Ave,40.751708,-73.973977,https://www.yelp.com/biz/naya-midtown-east-new-york?adjust_creative=-uBzzloii2ivvF3N0jkhKQ&utm_campaign=yelp_api_v3&utm_medium=api_v3_business_search&utm_source=-uBzzloii2ivvF3N0jkhKQ,4fNKBr3mlxKHfCojW0i_Uw
128,Taboonette,Mediterranean,4.5,$$,30 E 13th St,40.7346038818359,-73.9928283691406,https://www.yelp.com/biz/taboonette-new-york?adjust_creative=-uBzzloii2ivvF3N0jkhKQ&utm_campaign=yelp_api_v3&utm_medium=api_v3_business_search&utm_source=-uBzzloii2ivvF3N0jkhKQ,owYYuyLvlsdjLz68c3SSfg
129,Electric Burrito,Mexican,4.5,$$,81 St Marks Pl,40.727858,-73.985473,https://www.yelp.com/biz/electric-burrito-new-york?adjust_creative=-uBzzloii2ivvF3N0jkhKQ&utm_campaign=yelp_api_v3&utm_medium=api_v3_business_search&utm_source=-uBzzloii2ivvF3N0jkhKQ,8A7qOO6r1ZpZwVaYndA6-A
130,Jajaja Plantas Mexicana,Mexican,4.5,$$,162 E Broadway,40.7141530317142,-73.9904247969389,https://www.yelp.com/biz/jajaja-plantas-mexicana-new-york-2?adjust_creative=-uBzzloii2ivvF3N0jkhKQ&utm_campaign=yelp_api_v3&utm_medium=api_v3_business_search&utm_source=-uBzzloii2ivvF3N0jkhKQ,XipQLDbyTl5tsLlyzAWzug
131,Guadalupe Restaurant,Mexican,4.0,$$,597 W 207th St,40.86739,-73.92083,https://www.yelp.com/biz/guadalupe-restaurant-new-york-3?adjust_creative=-uBzzloii2ivvF3N0jkhKQ&utm_campaign=yelp_api_v3&utm_medium=api_v3_business_search&utm_source=-uBzzloii2ivvF3N0jkhKQ,2IrwjU67gguqLqQqZ1nFPg
132,Fast and Fresh Burrito Deli,Mexican,4.0,$,84 Hoyt St,40.68806,-73.98694,https://www.yelp.com/biz/fast-and-fresh-burrito-deli-brooklyn?adjust_creative=-uBzzloii2ivvF3N0jkhKQ&utm_campaign=yelp_api_v3&utm_medium=api_v3_business_search&utm_source=-uBzzloii2ivvF3N0jkhKQ,1vkYZbdwMpqteI8x_sS68g
133,The Burrito Box,Mexican,4.0,$,885 9th Ave,40.76831,-73.98565,https://www.yelp.com/biz/the-burrito-box-new-york?adjust_creative=-uBzzloii2ivvF3N0jkhKQ&utm_campaign=yelp_api_v3&utm_medium=api_v3_business_search&utm_source=-uBzzloii2ivvF3N0jkhKQ,v4_89HfTm05NFTuukjsl_g
134,EL Gallo Taqueria,Mexican,,,369 Broome St,40.719886,-73.995982,,
135,Zatar,Middle Eastern,4.5,$$,1294 Myrtle Ave,40.6980763644669,-73.9245712108767,https://www.yelp.com/biz/zatar-brooklyn-2?adjust_creative=-uBzzloii2ivvF3N0jkhKQ&utm_campaign=yelp_api_v3&utm_medium=api_v3_business_search&utm_source=-uBzzloii2ivvF3N0jkhKQ,CviK6c6BkxN_TTZahdvwyA
136,Black Iris,Middle Eastern,4.0,$$,228 Dekalb Ave,40.6894701719284,-73.9702398329973,https://www.yelp.com/biz/black-iris-brooklyn?adjust_creative=-uBzzloii2ivvF3N0jkhKQ&utm_campaign=yelp_api_v3&utm_medium=api_v3_business_search&utm_source=-uBzzloii2ivvF3N0jkhKQ,-JBFRO2z1Fr6og-3VGYRxQ
137,Mamoun's Falafel,Middle Eastern,4.0,$,119 MacDougal St,40.7302874,-74.0004383,https://www.yelp.com/biz/mamouns-falafel-new-york-2?adjust_creative=-uBzzloii2ivvF3N0jkhKQ&utm_campaign=yelp_api_v3&utm_medium=api_v3_business_search&utm_source=-uBzzloii2ivvF3N0jkhKQ,L-IuiVoFMDSw2K6OAciP1g
138,Zaytoons,Middle Eastern,4.0,$$,594 Vanderbilt Ave,40.678733,-73.968803,https://www.yelp.com/biz/zaytoons-brooklyn-3?adjust_creative=-uBzzloii2ivvF3N0jkhKQ&utm_campaign=yelp_api_v3&utm_medium=api_v3_business_search&utm_source=-uBzzloii2ivvF3N0jkhKQ,szrkleW0KeKcoKqnGa2Tew
139,Holy Pita,Middle Eastern,,,10 Clermont Ave,40.69756,-73.9719,,
140,Garden Basket Market,Organic Stores,4.0,$$,354 Lewis Ave,40.68336,-73.93526,https://www.yelp.com/biz/garden-basket-market-brooklyn-8?adjust_creative=-uBzzloii2ivvF3N0jkhKQ&utm_campaign=yelp_api_v3&utm_medium=api_v3_business_search&utm_source=-uBzzloii2ivvF3N0jkhKQ,OuCrhwmNFn3gAsv6CRRuKw
141,Miraj Healthy Grill,Persian/Iranian,4.5,$$,120 E 34th St,40.7464441,-73.9802022,https://www.yelp.com/biz/miraj-healthy-grill-new-york?adjust_creative=-uBzzloii2ivvF3N0jkhKQ&utm_campaign=yelp_api_v3&utm_medium=api_v3_business_search&utm_source=-uBzzloii2ivvF3N0jkhKQ,FVGTLWis-xBCrLmprgVXEg
142,Fatoosh Pitza & Grill,Pizza,4.5,$,330 Hicks St,40.69148,-73.9978,https://www.yelp.com/biz/fatoosh-pitza-and-grill-brooklyn?adjust_creative=-uBzzloii2ivvF3N0jkhKQ&utm_campaign=yelp_api_v3&utm_medium=api_v3_business_search&utm_source=-uBzzloii2ivvF3N0jkhKQ,z3vcYpnDgnBzZNqhQMOHUA
143,Pure Ktchn,Salad,4.5,$$,352 West 46th St,40.76053,-73.98992,https://www.yelp.com/biz/pure-ktchn-new-york?adjust_creative=-uBzzloii2ivvF3N0jkhKQ&utm_campaign=yelp_api_v3&utm_medium=api_v3_business_search&utm_source=-uBzzloii2ivvF3N0jkhKQ,q7U2GCMWIZxIqWeMDml0LQ
144,Fields Good Chicken,Salad,3.5,$$,101 Maiden Ln,40.707,-74.00686,https://www.yelp.com/biz/fields-good-chicken-new-york?adjust_creative=-uBzzloii2ivvF3N0jkhKQ&utm_campaign=yelp_api_v3&utm_medium=api_v3_business_search&utm_source=-uBzzloii2ivvF3N0jkhKQ,W4mnJcaf42jqkSOHVjnWVw
145,Alfalfa,Salad,,,1110 Washington St,40.75048,-74.02725,,
146,Nurish,Salad,4.5,$$,637 Washington Ave,40.67834,-73.96363,https://www.yelp.com/biz/nurish-brooklyn-2?adjust_creative=-uBzzloii2ivvF3N0jkhKQ&utm_campaign=yelp_api_v3&utm_medium=api_v3_business_search&utm_source=-uBzzloii2ivvF3N0jkhKQ,8mKF1Nud4Ye3PMHwIMwW_A
147,d Elici,Salad,4.0,$,71 Nassau St,40.7097126477894,-74.0083819832646,https://www.yelp.com/biz/d-elici-new-york?adjust_creative=-uBzzloii2ivvF3N0jkhKQ&utm_campaign=yelp_api_v3&utm_medium=api_v3_business_search&utm_source=-uBzzloii2ivvF3N0jkhKQ,XSvT4-d8mDeXBJDoG7pZHw
148,The Healthy Kitchen,Salad,4.0,$$,1135C Morris Park Ave,40.85035,-73.851727,https://www.yelp.com/biz/the-healthy-kitchen-bronx-3?adjust_creative=-uBzzloii2ivvF3N0jkhKQ&utm_campaign=yelp_api_v3&utm_medium=api_v3_business_search&utm_source=-uBzzloii2ivvF3N0jkhKQ,SbVbE4VRZ0XvMoZZx1itUg
149,"Freshmix Salads, Wraps and Bowls",Salad,,,15315 Union Tpke,40.71985102585194,-73.81006479999999,,
150,Lenwich,Salad,3.0,$$,25 Park Pl,40.71339,-74.00874,https://www.yelp.com/biz/lenwich-new-york-20?adjust_creative=-uBzzloii2ivvF3N0jkhKQ&utm_campaign=yelp_api_v3&utm_medium=api_v3_business_search&utm_source=-uBzzloii2ivvF3N0jkhKQ,PAKsNbLzuFCXfJ9Ne8OGlg
151,Beatnic - Flatiron,Salad,4.0,$$,60 W 22nd St,40.7418636,-73.9929947,https://www.yelp.com/biz/beatnic-flatiron-new-york?adjust_creative=-uBzzloii2ivvF3N0jkhKQ&utm_campaign=yelp_api_v3&utm_medium=api_v3_business_search&utm_source=-uBzzloii2ivvF3N0jkhKQ,CEEUDBFxvUPKGlA65qJ8JQ
152,One12 Hoboken,Salad,,,112 Willow Ave,40.7386538789986,-74.0345756,,
153,Tony Boloney's - Hoboken,Salad,3.5,$$,263 1st St,40.7378974,-74.0343764,https://www.yelp.com/biz/tony-boloneys-hoboken-hoboken?adjust_creative=-uBzzloii2ivvF3N0jkhKQ&utm_campaign=yelp_api_v3&utm_medium=api_v3_business_search&utm_source=-uBzzloii2ivvF3N0jkhKQ,5C0vGV5YVjvsuvZuKvo6-w
154,Chop & Go,Salad,,,85 John St,40.708501,-74.006489,,
155,NY Grill & Deli,Salad,,,191 Ave A,40.7290190124722,-73.9814085513353,,
156,Eisenberg's Sandwich Shop,Sandwiches,3.5,$$,174 5th Ave,40.74114,-73.99011,https://www.yelp.com/biz/eisenbergs-sandwich-shop-new-york?adjust_creative=-uBzzloii2ivvF3N0jkhKQ&utm_campaign=yelp_api_v3&utm_medium=api_v3_business_search&utm_source=-uBzzloii2ivvF3N0jkhKQ,UNSdhsl2KL6w92ovHlFh9A
157,Sub Master,Sandwiches,,,305 1st St,40.738095,-74.0348865,,
158,Via Quadronno,Sandwiches,4.0,$$,25 E 73rd St,40.77277,-73.96514,https://www.yelp.com/biz/via-quadronno-new-york?adjust_creative=-uBzzloii2ivvF3N0jkhKQ&utm_campaign=yelp_api_v3&utm_medium=api_v3_business_search&utm_source=-uBzzloii2ivvF3N0jkhKQ,kLJfizeHMQqesp1K9mfUtg
159,East Way Gourmet,Sandwiches,4.0,$$,169 3rd Ave,40.7346609,-73.985973,https://www.yelp.com/biz/east-way-gourmet-new-york?adjust_creative=-uBzzloii2ivvF3N0jkhKQ&utm_campaign=yelp_api_v3&utm_medium=api_v3_business_search&utm_source=-uBzzloii2ivvF3N0jkhKQ,qdmqhIYedl_AFR_sXyYfKA
160,Press 195 - Bayside,Sandwiches,4.0,$$,4011 Bell Blvd,40.763961,-73.770781,https://www.yelp.com/biz/press-195-bayside-bayside-2?adjust_creative=-uBzzloii2ivvF3N0jkhKQ&utm_campaign=yelp_api_v3&utm_medium=api_v3_business_search&utm_source=-uBzzloii2ivvF3N0jkhKQ,Y7cKrhINvxMtYGh5I_V60g
161,Wilson Food Market,Sandwiches,,,625 Wilson Ave,40.68982,-73.90635,,
162,Sub Culture,Sandwiches,4.0,$$,260 Newark Ave,40.72318,-74.04883,https://www.yelp.com/biz/sub-culture-jersey-city?adjust_creative=-uBzzloii2ivvF3N0jkhKQ&utm_campaign=yelp_api_v3&utm_medium=api_v3_business_search&utm_source=-uBzzloii2ivvF3N0jkhKQ,RZvtSI9aEegNpDQXfBZtHQ
163,Bite,Sandwiches,4.0,$$,211 E 14th St,40.733163,-73.986158,https://www.yelp.com/biz/bite-new-york-3?adjust_creative=-uBzzloii2ivvF3N0jkhKQ&utm_campaign=yelp_api_v3&utm_medium=api_v3_business_search&utm_source=-uBzzloii2ivvF3N0jkhKQ,PpxJsItHTF6sDAK6XnDJ9w
164,Krave It Pizza & Sandwich Joint,Sandwiches,4.0,$$,40-15 Bell Blvd,40.7637637393418,-73.7709849487713,https://www.yelp.com/biz/krave-it-pizza-and-sandwich-joint-bayside?adjust_creative=-uBzzloii2ivvF3N0jkhKQ&utm_campaign=yelp_api_v3&utm_medium=api_v3_business_search&utm_source=-uBzzloii2ivvF3N0jkhKQ,qYq2EW0LqO34HrvEa1rK_A
165,Cheeky Sandwiches,Sandwiches,4.5,$,35 Orchard St,40.7158,-73.99169,https://www.yelp.com/biz/cheeky-sandwiches-new-york?adjust_creative=-uBzzloii2ivvF3N0jkhKQ&utm_campaign=yelp_api_v3&utm_medium=api_v3_business_search&utm_source=-uBzzloii2ivvF3N0jkhKQ,gHdejB1Mx2P5UjAgZ6BT2w
166,Wolfnights ,Sandwiches,,,2675 Broadway,40.79851158278784,-73.9693477,,
167,Sunny and Annie's,Sandwiches,4.5,$,94 Ave B,40.724653,-73.981702,https://www.yelp.com/biz/sunny-and-annies-new-york?adjust_creative=-uBzzloii2ivvF3N0jkhKQ&utm_campaign=yelp_api_v3&utm_medium=api_v3_business_search&utm_source=-uBzzloii2ivvF3N0jkhKQ,pWywDImlX0n_XKPNg0Bizg
168,The Sandwich Shop,Sandwiches,4.0,$$,658A Grand St,40.71132,-73.94618,https://www.yelp.com/biz/the-sandwich-shop-brooklyn?adjust_creative=-uBzzloii2ivvF3N0jkhKQ&utm_campaign=yelp_api_v3&utm_medium=api_v3_business_search&utm_source=-uBzzloii2ivvF3N0jkhKQ,FOf_vQQ2HshtN3HUBPlNiw
169,That's A Wrap,Sandwiches,4.0,$$,45-52 Bell Blvd,40.75874,-73.76888,https://www.yelp.com/biz/thats-a-wrap-bayside?adjust_creative=-uBzzloii2ivvF3N0jkhKQ&utm_campaign=yelp_api_v3&utm_medium=api_v3_business_search&utm_source=-uBzzloii2ivvF3N0jkhKQ,0BJOYDFPW1UtsSOeRtc42g
170,Smith Gourmet Deli,Sandwiches,5.0,$,126 Smith St,40.68751,-73.99007,https://www.yelp.com/biz/smith-gourmet-deli-brooklyn?adjust_creative=-uBzzloii2ivvF3N0jkhKQ&utm_campaign=yelp_api_v3&utm_medium=api_v3_business_search&utm_source=-uBzzloii2ivvF3N0jkhKQ,GHA89UOpqFmylJ5dO03NfQ
171,Anthony & Son Panini Shoppe,Sandwiches,4.0,$$,433 Graham Ave,40.71792,-73.945234,https://www.yelp.com/biz/anthony-and-son-panini-shoppe-brooklyn?adjust_creative=-uBzzloii2ivvF3N0jkhKQ&utm_campaign=yelp_api_v3&utm_medium=api_v3_business_search&utm_source=-uBzzloii2ivvF3N0jkhKQ,YLVvBYOumnR9ewrrqQbcxA
172,Sandwich House,Sandwiches,4.0,$,17 Ann St,40.71096,-74.0077699,https://www.yelp.com/biz/sandwich-house-new-york?adjust_creative=-uBzzloii2ivvF3N0jkhKQ&utm_campaign=yelp_api_v3&utm_medium=api_v3_business_search&utm_source=-uBzzloii2ivvF3N0jkhKQ,rvoyaPumkhL5FA2zTqk13w
173,Sanpanino,Sandwiches,,,187 State St,40.69034,-73.991676,,
174,Sassy's Specialty Sandwiches,Sandwiches,,,233 S 4th St,40.71049556921111,-73.95878491242027,,
175,Toasties,Sandwiches,4.0,$,148 W 49th St,40.76006,-73.98306,https://www.yelp.com/biz/toasties-new-york-6?adjust_creative=-uBzzloii2ivvF3N0jkhKQ&utm_campaign=yelp_api_v3&utm_medium=api_v3_business_search&utm_source=-uBzzloii2ivvF3N0jkhKQ,0dO6JJPmkivbK8-Qu5eUYg
176,GreenStreets Salads,Sandwiches,4.0,$,67 Irving Ave,40.70455,-73.9238699,https://www.yelp.com/biz/greenstreets-salads-brooklyn?adjust_creative=-uBzzloii2ivvF3N0jkhKQ&utm_campaign=yelp_api_v3&utm_medium=api_v3_business_search&utm_source=-uBzzloii2ivvF3N0jkhKQ,o__rNMK8xCSPKPVe6yIlxQ
177,Shorty's,Sandwiches,4.0,$$,62 Pearl St,40.7034454,-74.0110779,https://www.yelp.com/biz/shortys-new-york-3?adjust_creative=-uBzzloii2ivvF3N0jkhKQ&utm_campaign=yelp_api_v3&utm_medium=api_v3_business_search&utm_source=-uBzzloii2ivvF3N0jkhKQ,Ai9zcAveCf-eRPup4HIXhw
178,Xe May Sandwich Shop,Sandwiches,4.5,$,96 Saint Marks Pl,40.7272,-73.98493,https://www.yelp.com/biz/xe-may-sandwich-shop-new-york?adjust_creative=-uBzzloii2ivvF3N0jkhKQ&utm_campaign=yelp_api_v3&utm_medium=api_v3_business_search&utm_source=-uBzzloii2ivvF3N0jkhKQ,8M_0cxAChoXl7Ls9YkWJlg
179,Savor,Sandwiches,,,1661 1st Ave,40.777391,-73.9493227,,
180,My Belly's Playlist,Sandwiches,4.0,$$,218 West 35th St,40.751792,-73.991027,https://www.yelp.com/biz/my-bellys-playlist-new-york-8?adjust_creative=-uBzzloii2ivvF3N0jkhKQ&utm_campaign=yelp_api_v3&utm_medium=api_v3_business_search&utm_source=-uBzzloii2ivvF3N0jkhKQ,h--B7M-Sfs1Y8hhlPay0Qw
181,That's A Wrap,Sandwiches,3.0,$$,16312 Crossbay Blvd,40.6519862,-73.8383651,https://www.yelp.com/biz/thats-a-wrap-howard-beach?adjust_creative=-uBzzloii2ivvF3N0jkhKQ&utm_campaign=yelp_api_v3&utm_medium=api_v3_business_search&utm_source=-uBzzloii2ivvF3N0jkhKQ,ycYQEh4yHTdfxxZesK8cMw
182,Munchinette,Sandwiches,4.5,$,1738 Sheepshead Bay Rd,40.585056,-73.951484,https://www.yelp.com/biz/munchinette-brooklyn?adjust_creative=-uBzzloii2ivvF3N0jkhKQ&utm_campaign=yelp_api_v3&utm_medium=api_v3_business_search&utm_source=-uBzzloii2ivvF3N0jkhKQ,Ty5VZ8X8Z1Pksk6F1iyRWA
183,Olive's,Sandwiches,3.5,$$,191 Prince St,40.72662,-74.00241,https://www.yelp.com/biz/olives-new-york-3?adjust_creative=-uBzzloii2ivvF3N0jkhKQ&utm_campaign=yelp_api_v3&utm_medium=api_v3_business_search&utm_source=-uBzzloii2ivvF3N0jkhKQ,nZC3WQp6XrmIYIoZSa6r3Q
184,K & L Delicatessen,Sandwiches,4.0,$$,76-01 37th Ave,40.7493000570022,-73.8897827858352,https://www.yelp.com/biz/k-and-l-delicatessen-jackson-heights-2?adjust_creative=-uBzzloii2ivvF3N0jkhKQ&utm_campaign=yelp_api_v3&utm_medium=api_v3_business_search&utm_source=-uBzzloii2ivvF3N0jkhKQ,6ZD12J5ZLqKod2ekJDfJQw
185,Lenwich,Sandwiches,3.0,$$,16 W 23rd St,40.74161,-73.99045,https://www.yelp.com/biz/lenwich-new-york-10?adjust_creative=-uBzzloii2ivvF3N0jkhKQ&utm_campaign=yelp_api_v3&utm_medium=api_v3_business_search&utm_source=-uBzzloii2ivvF3N0jkhKQ,CneFQFfg8leJrgMqsleUUQ
186,Lenwich,Sandwiches,3.5,$$,1269 1st Ave,40.7655954,-73.9579606,https://www.yelp.com/biz/lenwich-new-york-28?adjust_creative=-uBzzloii2ivvF3N0jkhKQ&utm_campaign=yelp_api_v3&utm_medium=api_v3_business_search&utm_source=-uBzzloii2ivvF3N0jkhKQ,C1RjQkXeQVdvShMP1IkqAw
187,Grace Cafe,Sandwiches,3.5,$,572 8th Ave,40.7547799,-73.99135,https://www.yelp.com/biz/grace-cafe-new-york?adjust_creative=-uBzzloii2ivvF3N0jkhKQ&utm_campaign=yelp_api_v3&utm_medium=api_v3_business_search&utm_source=-uBzzloii2ivvF3N0jkhKQ,NVq6ZTNnQucOBNn5m6ubow
188,Lenwich,Sandwiches,3.0,$,1 Penn Plz,40.750688,-73.991541,https://www.yelp.com/biz/lenwich-new-york-16?adjust_creative=-uBzzloii2ivvF3N0jkhKQ&utm_campaign=yelp_api_v3&utm_medium=api_v3_business_search&utm_source=-uBzzloii2ivvF3N0jkhKQ,rPMjnhve3w6NYZk74Bs3Dg
189,Eva's Kitchen,Specialty Food,4.5,$$,12036 Queens Blvd,40.7132359,-73.8293642,https://www.yelp.com/biz/evas-kitchen-kew-gardens?adjust_creative=-uBzzloii2ivvF3N0jkhKQ&utm_campaign=yelp_api_v3&utm_medium=api_v3_business_search&utm_source=-uBzzloii2ivvF3N0jkhKQ,nDhhVuhDyP-QRi0lwk0j3w
190,Eva's Kitchen,Specialty Food,4.5,$,11 W 8th St,40.732822,-73.997152,https://www.yelp.com/biz/evas-kitchen-new-york?adjust_creative=-uBzzloii2ivvF3N0jkhKQ&utm_campaign=yelp_api_v3&utm_medium=api_v3_business_search&utm_source=-uBzzloii2ivvF3N0jkhKQ,tKog0Ewz1roBME_kX1G6hg
191,Public Village,Szechuan,,,23 Essex St N,40.715441,-73.99006,,
192,Burrito Republic,Tacos,4.5,$$,59-15 71st Ave,40.7006779324274,-73.8991589471698,https://www.yelp.com/biz/burrito-republic-ridgewood?adjust_creative=-uBzzloii2ivvF3N0jkhKQ&utm_campaign=yelp_api_v3&utm_medium=api_v3_business_search&utm_source=-uBzzloii2ivvF3N0jkhKQ,c921DfWPCxG5qJ687TU6Xw
193,Yoongkao Thai Dining,Thai,,,625 2nd Ave,40.74505,-73.97591,,
194,Good Health Cafe,Vegetarian,4.0,$$,1435 1st Ave,40.76948,-73.95499,https://www.yelp.com/biz/good-health-cafe-new-york-4?adjust_creative=-uBzzloii2ivvF3N0jkhKQ&utm_campaign=yelp_api_v3&utm_medium=api_v3_business_search&utm_source=-uBzzloii2ivvF3N0jkhKQ,S9DvhHSe9V7cJaLQ5m5SjA
195,Le Botaniste,Vegetarian,4.5,$$,127 Grand St,40.7204278,-74.0002028,https://www.yelp.com/biz/le-botaniste-new-york-4?adjust_creative=-uBzzloii2ivvF3N0jkhKQ&utm_campaign=yelp_api_v3&utm_medium=api_v3_business_search&utm_source=-uBzzloii2ivvF3N0jkhKQ,4b43TOXpskBPZqQzbKkwDQ
196,Bolero,Vietnamese,,,177 Bedford Ave,40.71799,-73.95741,,
197,Two Wheels,Vietnamese,4.0,$$,1382 2nd Ave,40.768152386167,-73.95856094841727,https://www.yelp.com/biz/two-wheels-new-york-5?adjust_creative=-uBzzloii2ivvF3N0jkhKQ&utm_campaign=yelp_api_v3&utm_medium=api_v3_business_search&utm_source=-uBzzloii2ivvF3N0jkhKQ,1Z030QuMVjMvs2SWZ1zYTQ
198,MMM...That's a Wrap,Wraps,3.5,$,38-01 30th Ave,40.7642361148797,-73.9156047673675,https://www.yelp.com/biz/mmm-thats-a-wrap-astoria-2?adjust_creative=-uBzzloii2ivvF3N0jkhKQ&utm_campaign=yelp_api_v3&utm_medium=api_v3_business_search&utm_source=-uBzzloii2ivvF3N0jkhKQ,zTGptEQeSwBgwftNPAh7DQ
199,Wolfnights - The Gourmet Wrap,Wraps,4.5,$$,235 Bleecker St,40.7306,-74.00252,https://www.yelp.com/biz/wolfnights-new-york-3?adjust_creative=-uBzzloii2ivvF3N0jkhKQ&utm_campaign=yelp_api_v3&utm_medium=api_v3_business_search&utm_source=-uBzzloii2ivvF3N0jkhKQ,kycAM7GyA1pEMmkdVS3xuw
