,Restaurant,Type,Rating,Price,Address,Lat,Lng,url,ID
0,Upland,American (New),4.0,$$$,345 Park Ave S,40.7418912,-73.9846396,https://www.yelp.com/biz/upland-new-york?adjust_creative=-uBzzloii2ivvF3N0jkhKQ&utm_campaign=yelp_api_v3&utm_medium=api_v3_business_search&utm_source=-uBzzloii2ivvF3N0jkhKQ,xkvv0n7jbl4Ra3Vm_jfxaA
1,Henry's End,American (New),4.0,$$$,72 Henry St,40.69869,-73.99257,https://www.yelp.com/biz/henrys-end-brooklyn-4?adjust_creative=-uBzzloii2ivvF3N0jkhKQ&utm_campaign=yelp_api_v3&utm_medium=api_v3_business_search&utm_source=-uBzzloii2ivvF3N0jkhKQ,xhuDOqY9G5mPuSqBnMCaYw
2,Westville Dumbo,American (New),4.0,$$,81 Washington St,40.70208865020039,-73.9894541379247,https://www.yelp.com/biz/westville-dumbo-brooklyn?adjust_creative=-uBzzloii2ivvF3N0jkhKQ&utm_campaign=yelp_api_v3&utm_medium=api_v3_business_search&utm_source=-uBzzloii2ivvF3N0jkhKQ,56qlj1cYlqNzmG0xllGg-w
3,The Smith,American (New),4.0,$$,1900 Broadway,40.7716201269986,-73.9818377981476,https://www.yelp.com/biz/the-smith-new-york-3?adjust_creative=-uBzzloii2ivvF3N0jkhKQ&utm_campaign=yelp_api_v3&utm_medium=api_v3_business_search&utm_source=-uBzzloii2ivvF3N0jkhKQ,JYNBy2r3LVhJbLHE1bASfg
4,Anella,American (New),4.0,$$,222 Franklin St,40.73327,-73.95786,https://www.yelp.com/biz/anella-brooklyn?adjust_creative=-uBzzloii2ivvF3N0jkhKQ&utm_campaign=yelp_api_v3&utm_medium=api_v3_business_search&utm_source=-uBzzloii2ivvF3N0jkhKQ,J5y7oRfiGtxFDkYGKxFZkw
5,St. Anselm,American (New),4.0,$$$,355 Metropolitan Ave,40.7143299,-73.95604,https://www.yelp.com/biz/st-anselm-brooklyn?adjust_creative=-uBzzloii2ivvF3N0jkhKQ&utm_campaign=yelp_api_v3&utm_medium=api_v3_business_search&utm_source=-uBzzloii2ivvF3N0jkhKQ,hiTfA7vnxDSLv77nl6UQXQ
6,Bacall's Family Steakhouse,American (New),,,220 West 44th St,40.7576,-73.98693,,
7,Gramercy Tavern,American (New),4.5,$$$$,42 E 20th St,40.73844,-73.98825,https://www.yelp.com/biz/gramercy-tavern-new-york?adjust_creative=-uBzzloii2ivvF3N0jkhKQ&utm_campaign=yelp_api_v3&utm_medium=api_v3_business_search&utm_source=-uBzzloii2ivvF3N0jkhKQ,veq1Bl1DW3UWMekZJUsG1Q
8,High Street On Hudson,American (New),4.0,$$,637 Hudson St,40.73888,-74.00574,https://www.yelp.com/biz/high-street-on-hudson-new-york?adjust_creative=-uBzzloii2ivvF3N0jkhKQ&utm_campaign=yelp_api_v3&utm_medium=api_v3_business_search&utm_source=-uBzzloii2ivvF3N0jkhKQ,Oq1mej1BYfjcdPKkM_5o8g
9,The River Café,American (New),4.0,$$$$,1 Water St,40.70318,-73.9946499,https://www.yelp.com/biz/the-river-caf%C3%A9-brooklyn-3?adjust_creative=-uBzzloii2ivvF3N0jkhKQ&utm_campaign=yelp_api_v3&utm_medium=api_v3_business_search&utm_source=-uBzzloii2ivvF3N0jkhKQ,4XX-zF8h5Lvrr22_tqU6-Q
10,The Quarter Brooklyn,American (New),4.0,$$,87 Lafayette Ave,40.6874192552749,-73.9748689904809,https://www.yelp.com/biz/the-quarter-brooklyn-brooklyn?adjust_creative=-uBzzloii2ivvF3N0jkhKQ&utm_campaign=yelp_api_v3&utm_medium=api_v3_business_search&utm_source=-uBzzloii2ivvF3N0jkhKQ,HdYmIA2jRBbKnU1mGJ9a3Q
11,Sweetwater Restaurant,American (New),4.0,$$,105 N 6th St,40.7184736,-73.9600178,https://www.yelp.com/biz/sweetwater-restaurant-brooklyn-2?adjust_creative=-uBzzloii2ivvF3N0jkhKQ&utm_campaign=yelp_api_v3&utm_medium=api_v3_business_search&utm_source=-uBzzloii2ivvF3N0jkhKQ,8wMJdpw2R_4VfS55itB_gQ
12,Traif,American (New),4.5,$$$$,229 S 4th St,40.710658,-73.958872,https://www.yelp.com/biz/traif-brooklyn?adjust_creative=-uBzzloii2ivvF3N0jkhKQ&utm_campaign=yelp_api_v3&utm_medium=api_v3_business_search&utm_source=-uBzzloii2ivvF3N0jkhKQ,qLLxS7RwNEjP_jq_KQrPfA
13,Beauty & Essex,American (New),4.0,$$$,146 Essex St,40.720434786101286,-73.98686057623863,https://www.yelp.com/biz/beauty-and-essex-new-york-2?adjust_creative=-uBzzloii2ivvF3N0jkhKQ&utm_campaign=yelp_api_v3&utm_medium=api_v3_business_search&utm_source=-uBzzloii2ivvF3N0jkhKQ,pfmAcS-g6SiNG0KlLvrqnA
14,Parker & Quinn,American (New),4.0,$$,64 W 39th St,40.7525862175813,-73.9850713153442,https://www.yelp.com/biz/parker-and-quinn-new-york?adjust_creative=-uBzzloii2ivvF3N0jkhKQ&utm_campaign=yelp_api_v3&utm_medium=api_v3_business_search&utm_source=-uBzzloii2ivvF3N0jkhKQ,IOHaEgK1zDvUvB3SfKuGCw
15,Hillstone Restaurant,American (New),4.0,$$$,378 Park Ave S,40.7427534,-73.9847308,https://www.yelp.com/biz/hillstone-restaurant-new-york?adjust_creative=-uBzzloii2ivvF3N0jkhKQ&utm_campaign=yelp_api_v3&utm_medium=api_v3_business_search&utm_source=-uBzzloii2ivvF3N0jkhKQ,01isnBO1rFO2LTOeNfYl9w
16,Fine & Rare,American (New),4.5,$$$,9 E 37th St,40.7501754760742,-73.9821929931641,https://www.yelp.com/biz/fine-and-rare-new-york?adjust_creative=-uBzzloii2ivvF3N0jkhKQ&utm_campaign=yelp_api_v3&utm_medium=api_v3_business_search&utm_source=-uBzzloii2ivvF3N0jkhKQ,Xk3BVvlX-KXh6kJhbClMKw
17,The Smith,American (New),4.0,$$,956 2nd Ave,40.755165,-73.967868,https://www.yelp.com/biz/the-smith-new-york-2?adjust_creative=-uBzzloii2ivvF3N0jkhKQ&utm_campaign=yelp_api_v3&utm_medium=api_v3_business_search&utm_source=-uBzzloii2ivvF3N0jkhKQ,C-8mGN7lt5rIraO5n-15ug
18,Craft,American (New),4.0,$$$$,43 E 19th St,40.73818,-73.98866,https://www.yelp.com/biz/craft-new-york?adjust_creative=-uBzzloii2ivvF3N0jkhKQ&utm_campaign=yelp_api_v3&utm_medium=api_v3_business_search&utm_source=-uBzzloii2ivvF3N0jkhKQ,Rgm8BwcoqfIVSl2QSEOhbQ
19,The Leroy House,American (New),4.5,$$$,430 Hudson St,40.73063,-74.00661,https://www.yelp.com/biz/the-leroy-house-new-york-5?adjust_creative=-uBzzloii2ivvF3N0jkhKQ&utm_campaign=yelp_api_v3&utm_medium=api_v3_business_search&utm_source=-uBzzloii2ivvF3N0jkhKQ,AA9wpuJRhkSHUePAiv3otA
20,Del Frisco's Grille,American (New),3.5,$$$,221 River St,40.7383784,-74.0275858,https://www.yelp.com/biz/del-friscos-grille-hoboken?adjust_creative=-uBzzloii2ivvF3N0jkhKQ&utm_campaign=yelp_api_v3&utm_medium=api_v3_business_search&utm_source=-uBzzloii2ivvF3N0jkhKQ,Vyq_AKX1k7M8CLH4Qq1maA
21,HAVEN Riverfront Restaurant and Bar,American (New),4.0,$$$,2 Main St,40.803426,-73.9907,https://www.yelp.com/biz/haven-riverfront-restaurant-and-bar-edgewater-2?adjust_creative=-uBzzloii2ivvF3N0jkhKQ&utm_campaign=yelp_api_v3&utm_medium=api_v3_business_search&utm_source=-uBzzloii2ivvF3N0jkhKQ,ME0627wYk0ikhX2yf1fN7w
22,The Hutton,American (New),4.5,$$,225 Hutton St,40.746707841754,-74.0555749833584,https://www.yelp.com/biz/the-hutton-jersey-city?adjust_creative=-uBzzloii2ivvF3N0jkhKQ&utm_campaign=yelp_api_v3&utm_medium=api_v3_business_search&utm_source=-uBzzloii2ivvF3N0jkhKQ,gt-0HkY2DC-NscmhOsKOWw
23,Mayfield,American (New),4.0,$$,688 Franklin Ave,40.674924094277564,-73.95660173893404,https://www.yelp.com/biz/mayfield-brooklyn?adjust_creative=-uBzzloii2ivvF3N0jkhKQ&utm_campaign=yelp_api_v3&utm_medium=api_v3_business_search&utm_source=-uBzzloii2ivvF3N0jkhKQ,DOdamkEm9JWR9s6VH_NuOQ
24,Hunt & Fish Club,American (New),4.0,$$$,125 W 44th St,40.75673,-73.9843,https://www.yelp.com/biz/hunt-and-fish-club-new-york-2?adjust_creative=-uBzzloii2ivvF3N0jkhKQ&utm_campaign=yelp_api_v3&utm_medium=api_v3_business_search&utm_source=-uBzzloii2ivvF3N0jkhKQ,mWi1AZgb8HJjDsnz5lXsLA
25,The Musket Room,American (New),4.0,$$$,265 Elizabeth St,40.72392,-73.99378,https://www.yelp.com/biz/the-musket-room-new-york?adjust_creative=-uBzzloii2ivvF3N0jkhKQ&utm_campaign=yelp_api_v3&utm_medium=api_v3_business_search&utm_source=-uBzzloii2ivvF3N0jkhKQ,vscYK65F_MUH8WqACKSdog
26,Merchants River House,American (New),4.0,$$,375 S End Ave,40.7112882252543,-74.0176175854584,https://www.yelp.com/biz/merchants-river-house-new-york?adjust_creative=-uBzzloii2ivvF3N0jkhKQ&utm_campaign=yelp_api_v3&utm_medium=api_v3_business_search&utm_source=-uBzzloii2ivvF3N0jkhKQ,XAeGAF5MGr7P6A13SnXbjQ
27,Buttermilk Channel,American (New),4.0,$$,524 Court St,40.675919,-73.999059,https://www.yelp.com/biz/buttermilk-channel-brooklyn?adjust_creative=-uBzzloii2ivvF3N0jkhKQ&utm_campaign=yelp_api_v3&utm_medium=api_v3_business_search&utm_source=-uBzzloii2ivvF3N0jkhKQ,rU9cKxAVU4Gd_JhAqp_bTA
28,Bill's Townhouse,American (New),4.5,$$$,57 E 54th St,40.7602615356445,-73.9729461669922,https://www.yelp.com/biz/bills-townhouse-new-york?adjust_creative=-uBzzloii2ivvF3N0jkhKQ&utm_campaign=yelp_api_v3&utm_medium=api_v3_business_search&utm_source=-uBzzloii2ivvF3N0jkhKQ,P7yE1T1TDFIiYgLdEYR3Gw
29,Monk Mcginn's,American (New),4.5,$$,57 Murray St,40.71432,-74.00972,https://www.yelp.com/biz/monk-mcginns-new-york?adjust_creative=-uBzzloii2ivvF3N0jkhKQ&utm_campaign=yelp_api_v3&utm_medium=api_v3_business_search&utm_source=-uBzzloii2ivvF3N0jkhKQ,F-QQCnbsw48dfx4qVf-WoQ
30,The Smith,American (New),4.0,$$$,1150 Broadway,40.74424,-73.98878,https://www.yelp.com/biz/the-smith-new-york-7?adjust_creative=-uBzzloii2ivvF3N0jkhKQ&utm_campaign=yelp_api_v3&utm_medium=api_v3_business_search&utm_source=-uBzzloii2ivvF3N0jkhKQ,Xd_l7jtUAZZAAvK8-mI2Jw
31,The Milling Room,American (New),4.0,$$$,446 Columbus Ave,40.7835485472543,-73.9744088718635,https://www.yelp.com/biz/the-milling-room-new-york-2?adjust_creative=-uBzzloii2ivvF3N0jkhKQ&utm_campaign=yelp_api_v3&utm_medium=api_v3_business_search&utm_source=-uBzzloii2ivvF3N0jkhKQ,PnGSE8JGbMZKtdHi9go7Kg
32,Antique Bar & Bakery,American (New),4.0,$$$,122 Willow Ave,40.739005,-74.034587,https://www.yelp.com/biz/antique-bar-and-bakery-hoboken-2?adjust_creative=-uBzzloii2ivvF3N0jkhKQ&utm_campaign=yelp_api_v3&utm_medium=api_v3_business_search&utm_source=-uBzzloii2ivvF3N0jkhKQ,Y-RLUYOQSNJssvQFoWE3qg
33,The Loyal,American (New),4.0,$$,289 Bleecker St,40.7321627859791,-74.0033025943349,https://www.yelp.com/biz/the-loyal-new-york?adjust_creative=-uBzzloii2ivvF3N0jkhKQ&utm_campaign=yelp_api_v3&utm_medium=api_v3_business_search&utm_source=-uBzzloii2ivvF3N0jkhKQ,4PeBRQZgHMW80J5YIaT39A
34,Employees Only,American (New),4.0,$$$,510 Hudson St,40.73343,-74.00617,https://www.yelp.com/biz/employees-only-new-york?adjust_creative=-uBzzloii2ivvF3N0jkhKQ&utm_campaign=yelp_api_v3&utm_medium=api_v3_business_search&utm_source=-uBzzloii2ivvF3N0jkhKQ,SjG7CnTIuUBIo9T4BThkGQ
35,The Ribbon,American (New),3.5,$$,20 W 72nd St,40.7765198,-73.9774628,https://www.yelp.com/biz/the-ribbon-new-york-8?adjust_creative=-uBzzloii2ivvF3N0jkhKQ&utm_campaign=yelp_api_v3&utm_medium=api_v3_business_search&utm_source=-uBzzloii2ivvF3N0jkhKQ,WqmqQ8c9NivfIRn3sO2KiA
36,Marc Forgione,American (New),4.5,$$$,134 Reade St,40.71647,-74.0095599,https://www.yelp.com/biz/marc-forgione-new-york-2?adjust_creative=-uBzzloii2ivvF3N0jkhKQ&utm_campaign=yelp_api_v3&utm_medium=api_v3_business_search&utm_source=-uBzzloii2ivvF3N0jkhKQ,DRitJoNGTkHXZvH_YpLIAw
37,Houston's Restaurant,American (Traditional),4.0,$$$,1 Riverside Sq Mall,40.905192,-74.031119,https://www.yelp.com/biz/houstons-restaurant-hackensack-3?adjust_creative=-uBzzloii2ivvF3N0jkhKQ&utm_campaign=yelp_api_v3&utm_medium=api_v3_business_search&utm_source=-uBzzloii2ivvF3N0jkhKQ,43w_Xf2HWy5z8ilkPI8cLQ
38,BLVD Bistro,American (Traditional),4.0,$$,2149 Frederick Douglass Blvd,40.80438,-73.9558,https://www.yelp.com/biz/blvd-bistro-new-york?adjust_creative=-uBzzloii2ivvF3N0jkhKQ&utm_campaign=yelp_api_v3&utm_medium=api_v3_business_search&utm_source=-uBzzloii2ivvF3N0jkhKQ,Z-hDHjP4Eza6BA4G97tzVA
39,Park Avenue Tavern,American (Traditional),4.0,$$,99 Park Ave,40.75031,-73.9783999,https://www.yelp.com/biz/park-avenue-tavern-new-york?adjust_creative=-uBzzloii2ivvF3N0jkhKQ&utm_campaign=yelp_api_v3&utm_medium=api_v3_business_search&utm_source=-uBzzloii2ivvF3N0jkhKQ,LHxZgTddXIp_S1sL3nNG9w
40,Gray Hawk Grill,American (Traditional),,,1556 2nd Ave,40.774353,-73.95401,,
41,The Standard Grill,American (Traditional),3.5,$$$,848 Washington St,40.740829,-74.008071,https://www.yelp.com/biz/the-standard-grill-new-york-3?adjust_creative=-uBzzloii2ivvF3N0jkhKQ&utm_campaign=yelp_api_v3&utm_medium=api_v3_business_search&utm_source=-uBzzloii2ivvF3N0jkhKQ,oYIdKuDLo54U4lN72NqWkg
42,Chadwick's,American (Traditional),4.0,$$$,8822 3rd Ave,40.62156,-74.03201,https://www.yelp.com/biz/chadwicks-brooklyn-3?adjust_creative=-uBzzloii2ivvF3N0jkhKQ&utm_campaign=yelp_api_v3&utm_medium=api_v3_business_search&utm_source=-uBzzloii2ivvF3N0jkhKQ,9OKc9dAnIVmBWae_x8a0bg
43,Pee Dee Steak House,American (Traditional),4.0,$$,50 W 125th St,40.8069267272949,-73.944206237793,https://www.yelp.com/biz/pee-dee-steak-house-new-york-2?adjust_creative=-uBzzloii2ivvF3N0jkhKQ&utm_campaign=yelp_api_v3&utm_medium=api_v3_business_search&utm_source=-uBzzloii2ivvF3N0jkhKQ,p9nYMrQbrPMzKBBBj73uFA
44,Quality Eats,American (Traditional),4.0,$$$,19 Greenwich Ave,40.7345,-74.00004,https://www.yelp.com/biz/quality-eats-new-york?adjust_creative=-uBzzloii2ivvF3N0jkhKQ&utm_campaign=yelp_api_v3&utm_medium=api_v3_business_search&utm_source=-uBzzloii2ivvF3N0jkhKQ,JI_teX5hC2rvHRbAo9JRTw
45,Blue Ribbon Brasserie - SoHo,American (Traditional),4.5,$$$,97 Sullivan St,40.725456,-74.003027,https://www.yelp.com/biz/blue-ribbon-brasserie-soho-new-york?adjust_creative=-uBzzloii2ivvF3N0jkhKQ&utm_campaign=yelp_api_v3&utm_medium=api_v3_business_search&utm_source=-uBzzloii2ivvF3N0jkhKQ,txSykTj5nbwmpiVNoK_Dyg
46,Rocco Steakhouse,American (Traditional),4.5,$$$,72 Madison Ave,40.7438607,-73.9861214,https://www.yelp.com/biz/rocco-steakhouse-new-york?adjust_creative=-uBzzloii2ivvF3N0jkhKQ&utm_campaign=yelp_api_v3&utm_medium=api_v3_business_search&utm_source=-uBzzloii2ivvF3N0jkhKQ,REDWyPG0UJc5u8iU8mP6Hw
47,Gage and Tollner,American (Traditional),4.0,$$$$,372 Fulton St,40.691328,-73.987861,https://www.yelp.com/biz/gage-and-tollner-brooklyn?adjust_creative=-uBzzloii2ivvF3N0jkhKQ&utm_campaign=yelp_api_v3&utm_medium=api_v3_business_search&utm_source=-uBzzloii2ivvF3N0jkhKQ,G5YZ7UcqCEYtezOxEETZjQ
48,El Mate,Argentine,4.5,$$,550 Court St,40.6749782203506,-73.9995224876405,https://www.yelp.com/biz/el-mate-brooklyn?adjust_creative=-uBzzloii2ivvF3N0jkhKQ&utm_campaign=yelp_api_v3&utm_medium=api_v3_business_search&utm_source=-uBzzloii2ivvF3N0jkhKQ,L0XYugkXpuACPMQ451MB8g
49,Buenos Aires,Argentine,4.0,$$$,513 E 6th St,40.7253150939941,-73.983039855957,https://www.yelp.com/biz/buenos-aires-new-york?adjust_creative=-uBzzloii2ivvF3N0jkhKQ&utm_campaign=yelp_api_v3&utm_medium=api_v3_business_search&utm_source=-uBzzloii2ivvF3N0jkhKQ,ZgIfySJ3cnB1svoyJAiCzg
50,Libertador Steakhouse - Brooklyn,Argentine,4.0,$$,404 Henry St,40.6872890722053,-73.9980973979345,https://www.yelp.com/biz/libertador-steakhouse-brooklyn-brooklyn?adjust_creative=-uBzzloii2ivvF3N0jkhKQ&utm_campaign=yelp_api_v3&utm_medium=api_v3_business_search&utm_source=-uBzzloii2ivvF3N0jkhKQ,F37Gp6exe2v8yuzr_gy5BQ
51,R40,Argentine,4.5,$$$,47-16 Vernon Blvd,40.74501,-73.95363,https://www.yelp.com/biz/r40-long-island-city-2?adjust_creative=-uBzzloii2ivvF3N0jkhKQ&utm_campaign=yelp_api_v3&utm_medium=api_v3_business_search&utm_source=-uBzzloii2ivvF3N0jkhKQ,q0hMNf-YhfDMFQyUQdsIJg
52,Porteno Restaurant,Argentine,4.0,$$$,299 10th Ave,40.75045738551275,-74.00238634488645,https://www.yelp.com/biz/porteno-restaurant-new-york?adjust_creative=-uBzzloii2ivvF3N0jkhKQ&utm_campaign=yelp_api_v3&utm_medium=api_v3_business_search&utm_source=-uBzzloii2ivvF3N0jkhKQ,PbezejIP9RHrjw-k459iZA
53,La Cabana Argentinan Steakhouse,Argentine,4.0,$$,8607 Northern Blvd,40.75624,-73.88132,https://www.yelp.com/biz/la-cabana-argentinan-steakhouse-jackson-heights?adjust_creative=-uBzzloii2ivvF3N0jkhKQ&utm_campaign=yelp_api_v3&utm_medium=api_v3_business_search&utm_source=-uBzzloii2ivvF3N0jkhKQ,R0yz_bRt689ZWAS9SmrvFA
54,Balvanera,Argentine,4.5,$$$,152 Stanton St,40.72063,-73.98539,https://www.yelp.com/biz/balvanera-new-york-3?adjust_creative=-uBzzloii2ivvF3N0jkhKQ&utm_campaign=yelp_api_v3&utm_medium=api_v3_business_search&utm_source=-uBzzloii2ivvF3N0jkhKQ,e_EQojNWskn_hFbKA_UZ-Q
55,Cafe Argentino,Argentine,4.0,$$,499 Grand St,40.711199,-73.95137,https://www.yelp.com/biz/cafe-argentino-brooklyn?adjust_creative=-uBzzloii2ivvF3N0jkhKQ&utm_campaign=yelp_api_v3&utm_medium=api_v3_business_search&utm_source=-uBzzloii2ivvF3N0jkhKQ,m-Syr8BpEbgK-6zSgY_7Kg
56,The Thirsty Koala,Australian,4.5,$$,35-12 Ditmars Blvd,40.774416,-73.908739,https://www.yelp.com/biz/the-thirsty-koala-astoria?adjust_creative=-uBzzloii2ivvF3N0jkhKQ&utm_campaign=yelp_api_v3&utm_medium=api_v3_business_search&utm_source=-uBzzloii2ivvF3N0jkhKQ,iNiq1vgWpEa48jlPAce8wQ
57,Cafe Patoro,Bakeries,4.5,$,223 Front St,40.7072720974983,-74.0023160353303,https://www.yelp.com/biz/cafe-patoro-new-york?adjust_creative=-uBzzloii2ivvF3N0jkhKQ&utm_campaign=yelp_api_v3&utm_medium=api_v3_business_search&utm_source=-uBzzloii2ivvF3N0jkhKQ,wWhZvkaFrntlSf1CWvD1Zw
58,Butcher Bar,Barbeque,4.0,$$,37-10 30th Ave,40.76431,-73.9164,https://www.yelp.com/biz/butcher-bar-astoria-2?adjust_creative=-uBzzloii2ivvF3N0jkhKQ&utm_campaign=yelp_api_v3&utm_medium=api_v3_business_search&utm_source=-uBzzloii2ivvF3N0jkhKQ,nkfUKb7oWQt54Uz9VQLhUg
59,Fette Sau,Barbeque,4.0,$$,354 Metropolitan Ave,40.714066,-73.956327,https://www.yelp.com/biz/fette-sau-brooklyn?adjust_creative=-uBzzloii2ivvF3N0jkhKQ&utm_campaign=yelp_api_v3&utm_medium=api_v3_business_search&utm_source=-uBzzloii2ivvF3N0jkhKQ,mlGfXoxc8cEss8Yms6VrXg
60,Hometown Bar-B-Que,Barbeque,4.0,$$,454 Van Brunt St,40.67486,-74.01602,https://www.yelp.com/biz/hometown-bar-b-que-brooklyn-3?adjust_creative=-uBzzloii2ivvF3N0jkhKQ&utm_campaign=yelp_api_v3&utm_medium=api_v3_business_search&utm_source=-uBzzloii2ivvF3N0jkhKQ,Ms3CAGddVbgetiQrpzqxPQ
61,Mable's Smokehouse & Banquet Hall,Barbeque,4.0,$$,44 Berry St,40.7211890204726,-73.9570004492998,https://www.yelp.com/biz/mables-smokehouse-and-banquet-hall-brooklyn-6?adjust_creative=-uBzzloii2ivvF3N0jkhKQ&utm_campaign=yelp_api_v3&utm_medium=api_v3_business_search&utm_source=-uBzzloii2ivvF3N0jkhKQ,nsAU6F2vmdnphmfIa_RuWg
62,K Rico Steakhouse,Bars,4.5,$$$,772 9th Ave,40.764345,-73.98798,https://www.yelp.com/biz/k-rico-steakhouse-new-york?adjust_creative=-uBzzloii2ivvF3N0jkhKQ&utm_campaign=yelp_api_v3&utm_medium=api_v3_business_search&utm_source=-uBzzloii2ivvF3N0jkhKQ,sGqKDtizXj3tg9jnAc9FeQ
63,Excuse My French,Bars,4.5,$$,96 Orchard St,40.71844,-73.98981,https://www.yelp.com/biz/excuse-my-french-new-york?adjust_creative=-uBzzloii2ivvF3N0jkhKQ&utm_campaign=yelp_api_v3&utm_medium=api_v3_business_search&utm_source=-uBzzloii2ivvF3N0jkhKQ,iexl39DYyy_76Xq3ExaJkQ
64,Pennsylvania 6 NYC,Bars,4.0,$$,132 W 31st St,40.7483655239542,-73.9907944748688,https://www.yelp.com/biz/pennsylvania-6-nyc-new-york?adjust_creative=-uBzzloii2ivvF3N0jkhKQ&utm_campaign=yelp_api_v3&utm_medium=api_v3_business_search&utm_source=-uBzzloii2ivvF3N0jkhKQ,F0MuzanyO6YEen8VtP5LOg
65,Steak 'N Lobster,Bars,4.0,$$,129 W 29th St,40.7472,-73.990979,https://www.yelp.com/biz/steak-n-lobster-new-york-2?adjust_creative=-uBzzloii2ivvF3N0jkhKQ&utm_campaign=yelp_api_v3&utm_medium=api_v3_business_search&utm_source=-uBzzloii2ivvF3N0jkhKQ,MIsxw3cb4ByYyH2G1KzrZQ
66,Liberty Prime Steakhouse,Bars,4.0,$$$,111 Montgomery St,40.7168985,-74.0399027,https://www.yelp.com/biz/liberty-prime-steakhouse-jersey-city?adjust_creative=-uBzzloii2ivvF3N0jkhKQ&utm_campaign=yelp_api_v3&utm_medium=api_v3_business_search&utm_source=-uBzzloii2ivvF3N0jkhKQ,LmjIvh6gRGzxFBI99doR9w
67,The Rag Trader & Bo Peep Cocktail and Highball Store,Bars,4.5,$$,70 W 36th St,40.75059,-73.98628,https://www.yelp.com/biz/the-rag-trader-and-bo-peep-cocktail-and-highball-store-new-york?adjust_creative=-uBzzloii2ivvF3N0jkhKQ&utm_campaign=yelp_api_v3&utm_medium=api_v3_business_search&utm_source=-uBzzloii2ivvF3N0jkhKQ,qCf1QN11Qdncpqb7PhuyVw
68,Rainhas Churrascaria,Brazilian,4.0,$$$,108-01 Northern Blvd,40.75824,-73.86068,https://www.yelp.com/biz/rainhas-churrascaria-corona?adjust_creative=-uBzzloii2ivvF3N0jkhKQ&utm_campaign=yelp_api_v3&utm_medium=api_v3_business_search&utm_source=-uBzzloii2ivvF3N0jkhKQ,hWmzrNyhPO3phBstCynSvw
69,Fogo de Chao Brazilian Steakhouse,Brazilian,4.0,$$$$,40 W 53rd St,40.7610765,-73.9777711,https://www.yelp.com/biz/fogo-de-chao-brazilian-steakhouse-new-york-6?adjust_creative=-uBzzloii2ivvF3N0jkhKQ&utm_campaign=yelp_api_v3&utm_medium=api_v3_business_search&utm_source=-uBzzloii2ivvF3N0jkhKQ,7B2XMvV5uGuKyl19-HTSvg
70,Churrascaria Plataforma,Brazilian,4.0,$$$$,316 W 49th St,40.76202,-73.98765,https://www.yelp.com/biz/churrascaria-plataforma-new-york-3?adjust_creative=-uBzzloii2ivvF3N0jkhKQ&utm_campaign=yelp_api_v3&utm_medium=api_v3_business_search&utm_source=-uBzzloii2ivvF3N0jkhKQ,VnjcxOUuZAeJMiDIU-7hUQ
71,Emporium Brasil,Brazilian,4.0,$$,15 W 46th St,40.75653,-73.97989,https://www.yelp.com/biz/emporium-brasil-new-york-2?adjust_creative=-uBzzloii2ivvF3N0jkhKQ&utm_campaign=yelp_api_v3&utm_medium=api_v3_business_search&utm_source=-uBzzloii2ivvF3N0jkhKQ,53zd9Zi8EKMpLd6OXNm8Mw
72,Ipanema Restaurant,Brazilian,4.0,$$,3 West 36th St,40.75005,-73.98416,https://www.yelp.com/biz/ipanema-restaurant-new-york-2?adjust_creative=-uBzzloii2ivvF3N0jkhKQ&utm_campaign=yelp_api_v3&utm_medium=api_v3_business_search&utm_source=-uBzzloii2ivvF3N0jkhKQ,-udRA8VRsQJoIaT-kxCrGg
73,ABC Kitchen,Breakfast & Brunch,4.0,$$$,35 E 18th St,40.737832,-73.989649,https://www.yelp.com/biz/abc-kitchen-new-york?adjust_creative=-uBzzloii2ivvF3N0jkhKQ&utm_campaign=yelp_api_v3&utm_medium=api_v3_business_search&utm_source=-uBzzloii2ivvF3N0jkhKQ,dMhRafXdr765DHe0k-QfaQ
74,Jane,Breakfast & Brunch,4.0,$$,100 W Houston St,40.7273779,-74.00025,https://www.yelp.com/biz/jane-new-york-2?adjust_creative=-uBzzloii2ivvF3N0jkhKQ&utm_campaign=yelp_api_v3&utm_medium=api_v3_business_search&utm_source=-uBzzloii2ivvF3N0jkhKQ,uoT2_Wrt1noD6kZOID7tUg
75,Cebu Bar & Bistro,Breakfast & Brunch,4.0,$$,8801 3rd Ave,40.62186,-74.031383,https://www.yelp.com/biz/cebu-bar-and-bistro-brooklyn-2?adjust_creative=-uBzzloii2ivvF3N0jkhKQ&utm_campaign=yelp_api_v3&utm_medium=api_v3_business_search&utm_source=-uBzzloii2ivvF3N0jkhKQ,uuHujhrkVQdS8XVSGWW2mA
76,Dellapietras,Butcher,4.5,$$$,193 Atlantic Ave,40.690118,-73.993177,https://www.yelp.com/biz/dellapietras-brooklyn?adjust_creative=-uBzzloii2ivvF3N0jkhKQ&utm_campaign=yelp_api_v3&utm_medium=api_v3_business_search&utm_source=-uBzzloii2ivvF3N0jkhKQ,TzDkDGzBeoChpXkkwezGSw
77,Soco,Cajun/Creole,4.0,$$,509 Myrtle Ave,40.693866,-73.964535,https://www.yelp.com/biz/soco-brooklyn?adjust_creative=-uBzzloii2ivvF3N0jkhKQ&utm_campaign=yelp_api_v3&utm_medium=api_v3_business_search&utm_source=-uBzzloii2ivvF3N0jkhKQ,oOsJn3leUnWDfErRWMf81g
78,Rayon's Jamaican & International Restaurant,Caribbean,,,160 Havemeyer St,40.71169574331532,-73.95781015582,,
79,The Dead Rabbit,Cocktail Bars,4.0,$$,30 Water St,40.70329,-74.01102,https://www.yelp.com/biz/the-dead-rabbit-new-york?adjust_creative=-uBzzloii2ivvF3N0jkhKQ&utm_campaign=yelp_api_v3&utm_medium=api_v3_business_search&utm_source=-uBzzloii2ivvF3N0jkhKQ,RemvTpxalDjSew5HwmNzUQ
80,Tanner Smiths,Cocktail Bars,4.5,$$,204 W 55th St,40.76442,-73.98169,https://www.yelp.com/biz/tanner-smiths-new-york-2?adjust_creative=-uBzzloii2ivvF3N0jkhKQ&utm_campaign=yelp_api_v3&utm_medium=api_v3_business_search&utm_source=-uBzzloii2ivvF3N0jkhKQ,z5hRX3iJ5Ty_S38iG_WY3Q
81,Maison Pickle,Cocktail Bars,4.0,$$,2315 Broadway,40.7870473,-73.9781361,https://www.yelp.com/biz/maison-pickle-new-york?adjust_creative=-uBzzloii2ivvF3N0jkhKQ&utm_campaign=yelp_api_v3&utm_medium=api_v3_business_search&utm_source=-uBzzloii2ivvF3N0jkhKQ,XsElXaLxUPKquI78poB8yw
82,Angel's Share,Cocktail Bars,4.5,$$,8 Stuyvesant St,40.7297097529882,-73.9891492245369,https://www.yelp.com/biz/angels-share-new-york?adjust_creative=-uBzzloii2ivvF3N0jkhKQ&utm_campaign=yelp_api_v3&utm_medium=api_v3_business_search&utm_source=-uBzzloii2ivvF3N0jkhKQ,ZD22cMZvSmfNsXS9vKizGA
83,Brooklyn Chop House,Dim Sum,4.0,$$$,150 Nassau St,40.7115099,-74.00597,https://www.yelp.com/biz/brooklyn-chop-house-new-york-3?adjust_creative=-uBzzloii2ivvF3N0jkhKQ&utm_campaign=yelp_api_v3&utm_medium=api_v3_business_search&utm_source=-uBzzloii2ivvF3N0jkhKQ,A0saPXtRGKl-SVJGQyQAOw
84,Steak Freak,Food Trucks,4.5,$,50 St 6th Ave,40.7545583408224,-73.9842533892464,https://www.yelp.com/biz/steak-freak-new-york?adjust_creative=-uBzzloii2ivvF3N0jkhKQ&utm_campaign=yelp_api_v3&utm_medium=api_v3_business_search&utm_source=-uBzzloii2ivvF3N0jkhKQ,ZdhzqQd3haOn1eAiwH2WDw
85,Amélie,French,4.5,$$$,22 W 8th St,40.7327,-73.99766,https://www.yelp.com/biz/am%C3%A9lie-new-york?adjust_creative=-uBzzloii2ivvF3N0jkhKQ&utm_campaign=yelp_api_v3&utm_medium=api_v3_business_search&utm_source=-uBzzloii2ivvF3N0jkhKQ,ETgJqJHV7BW6pIr9Ox74sA
86,Minetta Tavern,French,4.0,$$$,113 Macdougal St,40.7300047976758,-74.0006073834151,https://www.yelp.com/biz/minetta-tavern-new-york?adjust_creative=-uBzzloii2ivvF3N0jkhKQ&utm_campaign=yelp_api_v3&utm_medium=api_v3_business_search&utm_source=-uBzzloii2ivvF3N0jkhKQ,PYcL2z9gHj6-ZTlViT9Nqw
87,Boucherie West Village,French,4.5,$$$,99 7th Ave S,40.733063,-74.0028772,https://www.yelp.com/biz/boucherie-west-village-new-york-3?adjust_creative=-uBzzloii2ivvF3N0jkhKQ&utm_campaign=yelp_api_v3&utm_medium=api_v3_business_search&utm_source=-uBzzloii2ivvF3N0jkhKQ,s3jou_L_LVYGkNHiuhjlew
88,Quality Bistro,French,4.5,$$$$,120 W 55th St,40.76306,-73.9786,https://www.yelp.com/biz/quality-bistro-new-york-3?adjust_creative=-uBzzloii2ivvF3N0jkhKQ&utm_campaign=yelp_api_v3&utm_medium=api_v3_business_search&utm_source=-uBzzloii2ivvF3N0jkhKQ,tmzWZtu9Nimn7Hfas9XmcA
89,La Grande Boucherie,French,4.5,$$$,145 W 53rd St,40.7626274,-73.98084109999999,https://www.yelp.com/biz/la-grande-boucherie-new-york-2?adjust_creative=-uBzzloii2ivvF3N0jkhKQ&utm_campaign=yelp_api_v3&utm_medium=api_v3_business_search&utm_source=-uBzzloii2ivvF3N0jkhKQ,DGhWO1sUWydVeR5j5ZZaMw
90,Balthazar,French,4.0,$$$,80 Spring St,40.7226892950401,-73.9982149184027,https://www.yelp.com/biz/balthazar-new-york-2?adjust_creative=-uBzzloii2ivvF3N0jkhKQ&utm_campaign=yelp_api_v3&utm_medium=api_v3_business_search&utm_source=-uBzzloii2ivvF3N0jkhKQ,KgpOYAG-r_eDsQXFXt0nnQ
91,La Sirène-Soho,French,4.5,$$$,558 Broome St,40.7243642217227,-74.005708694458,https://www.yelp.com/biz/la-sir%C3%A8ne-soho-new-york?adjust_creative=-uBzzloii2ivvF3N0jkhKQ&utm_campaign=yelp_api_v3&utm_medium=api_v3_business_search&utm_source=-uBzzloii2ivvF3N0jkhKQ,FiRB9Ek3Xo9JHwXgBYITYg
92,Daniel,French,4.5,$$$$,60 E 65th St,40.7667736797858,-73.967607,https://www.yelp.com/biz/daniel-new-york-4?adjust_creative=-uBzzloii2ivvF3N0jkhKQ&utm_campaign=yelp_api_v3&utm_medium=api_v3_business_search&utm_source=-uBzzloii2ivvF3N0jkhKQ,DZaN3bNWfwcm__sNw5bvDg
93,Il Mulino Prime - Gramercy,Italian,,,43 E 20th St,40.73875,-73.9885,,
94,Lilia,Italian,4.0,$$$,567 Union Ave,40.71757,-73.95236,https://www.yelp.com/biz/lilia-brooklyn?adjust_creative=-uBzzloii2ivvF3N0jkhKQ&utm_campaign=yelp_api_v3&utm_medium=api_v3_business_search&utm_source=-uBzzloii2ivvF3N0jkhKQ,zwOAiVT4pAmpNGXzj-t5MA
95,Carmine's Italian Restaurant - Upper West Side,Italian,4.0,$$$,2450 Broadway,40.791077,-73.973763,https://www.yelp.com/biz/carmines-italian-restaurant-upper-west-side-new-york?adjust_creative=-uBzzloii2ivvF3N0jkhKQ&utm_campaign=yelp_api_v3&utm_medium=api_v3_business_search&utm_source=-uBzzloii2ivvF3N0jkhKQ,mTWlEiCUEBlxBAkIikkB1A
96,Giardino D'oro,Italian,4.5,$$$,5 Gold St,40.70758,-74.00715,https://www.yelp.com/biz/giardino-d-oro-new-york?adjust_creative=-uBzzloii2ivvF3N0jkhKQ&utm_campaign=yelp_api_v3&utm_medium=api_v3_business_search&utm_source=-uBzzloii2ivvF3N0jkhKQ,wUoLj0v2cJ9T4mgebQqoZw
97,Scarpetta,Italian,4.0,$$$,88 Madison Ave,40.744509,-73.9856,https://www.yelp.com/biz/scarpetta-new-york?adjust_creative=-uBzzloii2ivvF3N0jkhKQ&utm_campaign=yelp_api_v3&utm_medium=api_v3_business_search&utm_source=-uBzzloii2ivvF3N0jkhKQ,raqwXUBlnc0e8c7CYmxEJQ
98,Bohemian Restaurant,Japanese,4.5,$$$,57 Great Jones St,40.72639,-73.99236,https://www.yelp.com/biz/bohemian-restaurant-new-york?adjust_creative=-uBzzloii2ivvF3N0jkhKQ&utm_campaign=yelp_api_v3&utm_medium=api_v3_business_search&utm_source=-uBzzloii2ivvF3N0jkhKQ,8fr5FYU1ip0phERt1mrekg
99,Ichibantei,Japanese,4.0,$$,401 E 13th St,40.73063,-73.98275,https://www.yelp.com/biz/ichibantei-new-york?adjust_creative=-uBzzloii2ivvF3N0jkhKQ&utm_campaign=yelp_api_v3&utm_medium=api_v3_business_search&utm_source=-uBzzloii2ivvF3N0jkhKQ,kesYSgOJW5krU6L8n9qQ4Q
100,Yakiniku Futago,Japanese,4.5,$$$$,37 W 17th St,40.738851870947,-73.9941236398979,https://www.yelp.com/biz/yakiniku-futago-new-york?adjust_creative=-uBzzloii2ivvF3N0jkhKQ&utm_campaign=yelp_api_v3&utm_medium=api_v3_business_search&utm_source=-uBzzloii2ivvF3N0jkhKQ,6FZf17rNThWKoF4EU18wnw
101,Karasu,Japanese,4.0,$$$,166 Dekalb Ave,40.689411,-73.973256,https://www.yelp.com/biz/karasu-brooklyn-2?adjust_creative=-uBzzloii2ivvF3N0jkhKQ&utm_campaign=yelp_api_v3&utm_medium=api_v3_business_search&utm_source=-uBzzloii2ivvF3N0jkhKQ,eyjeP9CJZ_gYgeJFP_vtpQ
102,Hillstone Restaurant,Jazz & Blues,4.0,$$$,888 3rd Ave,40.758352,-73.969112,https://www.yelp.com/biz/hillstone-restaurant-new-york-3?adjust_creative=-uBzzloii2ivvF3N0jkhKQ&utm_campaign=yelp_api_v3&utm_medium=api_v3_business_search&utm_source=-uBzzloii2ivvF3N0jkhKQ,mHBhUxHgDGjsB1LJl4qW0w
103,Cote,Korean,4.0,$$$$,16 W 22nd St,40.741321394744844,-73.99130256661059,https://www.yelp.com/biz/cote-new-york-6?adjust_creative=-uBzzloii2ivvF3N0jkhKQ&utm_campaign=yelp_api_v3&utm_medium=api_v3_business_search&utm_source=-uBzzloii2ivvF3N0jkhKQ,28CNHYULci66pJAz-0_pOg
104,Yoon Haeundae Galbi,Korean,4.5,$$$,8 W 36th St,40.74996750318778,-73.98443095513923,https://www.yelp.com/biz/yoon-haeundae-galbi-new-york-2?adjust_creative=-uBzzloii2ivvF3N0jkhKQ&utm_campaign=yelp_api_v3&utm_medium=api_v3_business_search&utm_source=-uBzzloii2ivvF3N0jkhKQ,EKkHfSYTm266-ZBve3SdgA
105,Buena Vista Restaurant & Bar,Latin American,4.5,$$,536 9th Ave,40.75686,-73.99356,https://www.yelp.com/biz/buena-vista-restaurant-and-bar-new-york?adjust_creative=-uBzzloii2ivvF3N0jkhKQ&utm_campaign=yelp_api_v3&utm_medium=api_v3_business_search&utm_source=-uBzzloii2ivvF3N0jkhKQ,PGpCaNkB1meojnbgRmb2gQ
106,R Lounge at Two Times Square,Lounges,4.0,$$,"Two Times Square, 714 Seventh Avenue at W. 48th Street",40.759683705851,-73.9845943450927,https://www.yelp.com/biz/r-lounge-at-two-times-square-new-york?adjust_creative=-uBzzloii2ivvF3N0jkhKQ&utm_campaign=yelp_api_v3&utm_medium=api_v3_business_search&utm_source=-uBzzloii2ivvF3N0jkhKQ,iq9_CMtUT1SwGcEL8fSDNQ
107,Clover Club,Lounges,4.0,$$,210 Smith St,40.6846046447754,-73.9921875,https://www.yelp.com/biz/clover-club-brooklyn?adjust_creative=-uBzzloii2ivvF3N0jkhKQ&utm_campaign=yelp_api_v3&utm_medium=api_v3_business_search&utm_source=-uBzzloii2ivvF3N0jkhKQ,4MqJOLaeqCgBFQmMFPfe3g
108,Celestine,Mediterranean,4.0,$$$,1 John St,40.704676,-73.987975,https://www.yelp.com/biz/celestine-brooklyn?adjust_creative=-uBzzloii2ivvF3N0jkhKQ&utm_campaign=yelp_api_v3&utm_medium=api_v3_business_search&utm_source=-uBzzloii2ivvF3N0jkhKQ,4aF0F8w7yXX9o5_QFky_ig
109,Speedy Romeo,Pizza,4.0,$$,376 Classon Ave,40.6875154792236,-73.959874469611,https://www.yelp.com/biz/speedy-romeo-brooklyn?adjust_creative=-uBzzloii2ivvF3N0jkhKQ&utm_campaign=yelp_api_v3&utm_medium=api_v3_business_search&utm_source=-uBzzloii2ivvF3N0jkhKQ,zHtCLIChaKxqFXfMZQHkMQ
110,Fernandes Steak House,Portuguese,4.0,$$$,158 Fleming Ave,40.73272,-74.14004,https://www.yelp.com/biz/fernandes-steak-house-newark?adjust_creative=-uBzzloii2ivvF3N0jkhKQ&utm_campaign=yelp_api_v3&utm_medium=api_v3_business_search&utm_source=-uBzzloii2ivvF3N0jkhKQ,XUXRTgv4Lq_EnUDaKvGuCQ
111,Shorty's,Sandwiches,4.0,$$,62 Pearl St,40.7034454,-74.0110779,https://www.yelp.com/biz/shortys-new-york-3?adjust_creative=-uBzzloii2ivvF3N0jkhKQ&utm_campaign=yelp_api_v3&utm_medium=api_v3_business_search&utm_source=-uBzzloii2ivvF3N0jkhKQ,Ai9zcAveCf-eRPup4HIXhw
112,Sea Fire Grill,Seafood,4.5,$$$,158 E 48th St,40.7547012104496,-73.972255513072,https://www.yelp.com/biz/sea-fire-grill-new-york?adjust_creative=-uBzzloii2ivvF3N0jkhKQ&utm_campaign=yelp_api_v3&utm_medium=api_v3_business_search&utm_source=-uBzzloii2ivvF3N0jkhKQ,ryvBsB9FrBBZDak87iGS1w
113,Royal 35 Steakhouse,Seafood,4.5,$$$$,1 E 35th St,40.74897,-73.98348,https://www.yelp.com/biz/royal-35-steakhouse-new-york?adjust_creative=-uBzzloii2ivvF3N0jkhKQ&utm_campaign=yelp_api_v3&utm_medium=api_v3_business_search&utm_source=-uBzzloii2ivvF3N0jkhKQ,dS9rQ7SvIGngPE4y2xkSKw
114,Ocean Prime,Seafood,4.5,$$$$,123 W 52nd St,40.7617438,-73.9805565,https://www.yelp.com/biz/ocean-prime-new-york?adjust_creative=-uBzzloii2ivvF3N0jkhKQ&utm_campaign=yelp_api_v3&utm_medium=api_v3_business_search&utm_source=-uBzzloii2ivvF3N0jkhKQ,3Gz07E5YJjDTJPSuzsAStQ
115,Oceans New York,Seafood,4.5,$$$,233 Park Ave S,40.737408,-73.987887,https://www.yelp.com/biz/oceans-new-york-new-york?adjust_creative=-uBzzloii2ivvF3N0jkhKQ&utm_campaign=yelp_api_v3&utm_medium=api_v3_business_search&utm_source=-uBzzloii2ivvF3N0jkhKQ,afbl_jCNpomzJiDBdomb6g
116,Chart House,Seafood,4.0,$$$,1700 Harbor Blvd,40.7607,-74.018038,https://www.yelp.com/biz/chart-house-weehawken?adjust_creative=-uBzzloii2ivvF3N0jkhKQ&utm_campaign=yelp_api_v3&utm_medium=api_v3_business_search&utm_source=-uBzzloii2ivvF3N0jkhKQ,_WsfOuvObbp1tH4cBE-jNw
117,Burger & Lobster - Flatiron NYC,Seafood,4.0,$$,39 W 19th St,40.74007,-73.99344,https://www.yelp.com/biz/burger-and-lobster-flatiron-nyc-new-york?adjust_creative=-uBzzloii2ivvF3N0jkhKQ&utm_campaign=yelp_api_v3&utm_medium=api_v3_business_search&utm_source=-uBzzloii2ivvF3N0jkhKQ,UA2M9QFZghe-9th2KwLoWQ
118,Benjamin Steakhouse Prime,Seafood,4.5,$$$$,23 E 40th St,40.7513861026193,-73.97969250136879,https://www.yelp.com/biz/benjamin-steakhouse-prime-new-york-4?adjust_creative=-uBzzloii2ivvF3N0jkhKQ&utm_campaign=yelp_api_v3&utm_medium=api_v3_business_search&utm_source=-uBzzloii2ivvF3N0jkhKQ,zR92VSkXj1rt5KTJ15bkAw
119,The Capital Grille,Seafood,4.0,$$$,120 Broadway,40.70811739982277,-74.01022643450419,https://www.yelp.com/biz/the-capital-grille-new-york-7?adjust_creative=-uBzzloii2ivvF3N0jkhKQ&utm_campaign=yelp_api_v3&utm_medium=api_v3_business_search&utm_source=-uBzzloii2ivvF3N0jkhKQ,ud4-0gH8YlAExTBJoADPtw
120,Maite,Spanish,4.0,$$,159 Central Ave,40.69924,-73.926797,https://www.yelp.com/biz/maite-brooklyn?adjust_creative=-uBzzloii2ivvF3N0jkhKQ&utm_campaign=yelp_api_v3&utm_medium=api_v3_business_search&utm_source=-uBzzloii2ivvF3N0jkhKQ,Om6KGbN524K6pu9IkPT0Rg
121,Strip House Speakeasy,Steakhouses,4.0,$$$,11 E 12th St,40.7344415,-73.9934246,https://www.yelp.com/biz/strip-house-speakeasy-new-york?adjust_creative=-uBzzloii2ivvF3N0jkhKQ&utm_campaign=yelp_api_v3&utm_medium=api_v3_business_search&utm_source=-uBzzloii2ivvF3N0jkhKQ,QMrLryZNAIHV1K2UXsuaug
122,Old Homestead Steak House,Steakhouses,3.5,$$$$,56 9th Ave,40.74121,-74.00477,https://www.yelp.com/biz/old-homestead-steak-house-new-york?adjust_creative=-uBzzloii2ivvF3N0jkhKQ&utm_campaign=yelp_api_v3&utm_medium=api_v3_business_search&utm_source=-uBzzloii2ivvF3N0jkhKQ,dqXZa8fcvHsFvtZVtwRNkA
123,Del Frisco's Grille,Steakhouses,3.5,$$$,50 Rockefeller Plz,40.7596566,-73.9783161,https://www.yelp.com/biz/del-friscos-grille-new-york?adjust_creative=-uBzzloii2ivvF3N0jkhKQ&utm_campaign=yelp_api_v3&utm_medium=api_v3_business_search&utm_source=-uBzzloii2ivvF3N0jkhKQ,oSAiyZF-xTqdRkwN5KrV_Q
124,Dino & Harrys Steak House,Steakhouses,3.5,$$$,163 14th St,40.753367,-74.027678,https://www.yelp.com/biz/dino-and-harrys-steak-house-hoboken-5?adjust_creative=-uBzzloii2ivvF3N0jkhKQ&utm_campaign=yelp_api_v3&utm_medium=api_v3_business_search&utm_source=-uBzzloii2ivvF3N0jkhKQ,kgGfvA1zfh83no_2sD3_XA
125,Il Mulino Prime - Soho,Steakhouses,3.5,$$$,331 W Broadway,40.7222497494839,-74.0037372711639,https://www.yelp.com/biz/il-mulino-prime-soho-new-york?adjust_creative=-uBzzloii2ivvF3N0jkhKQ&utm_campaign=yelp_api_v3&utm_medium=api_v3_business_search&utm_source=-uBzzloii2ivvF3N0jkhKQ,GSZvuUdsCPisoNbttCqEvw
126,STK Steakhouse Downtown NYC,Steakhouses,3.5,$$$,26 Little West 12th St,40.73988,-74.0072,https://www.yelp.com/biz/stk-steakhouse-downtown-new-york?adjust_creative=-uBzzloii2ivvF3N0jkhKQ&utm_campaign=yelp_api_v3&utm_medium=api_v3_business_search&utm_source=-uBzzloii2ivvF3N0jkhKQ,TYKqS9eoC4xiixTNP_xsMQ
127,Sparks Steak House,Steakhouses,3.5,$$$$,210 E 46th St,40.75303,-73.972329,https://www.yelp.com/biz/sparks-steak-house-new-york?adjust_creative=-uBzzloii2ivvF3N0jkhKQ&utm_campaign=yelp_api_v3&utm_medium=api_v3_business_search&utm_source=-uBzzloii2ivvF3N0jkhKQ,IY9NuJdUQHkTjBqZYfFNSQ
128,Strip House - Downtown,Steakhouses,4.0,$$$$,13 E 12th St,40.73445,-73.99337,https://www.yelp.com/biz/strip-house-downtown-new-york-3?adjust_creative=-uBzzloii2ivvF3N0jkhKQ&utm_campaign=yelp_api_v3&utm_medium=api_v3_business_search&utm_source=-uBzzloii2ivvF3N0jkhKQ,DijUyfUGs6WoN4dp0_OANQ
129,Wolfgang's Steakhouse,Steakhouses,3.0,$$$,250 W 41st St,40.7560922459689,-73.9894847244675,https://www.yelp.com/biz/wolfgangs-steakhouse-new-york-10?adjust_creative=-uBzzloii2ivvF3N0jkhKQ&utm_campaign=yelp_api_v3&utm_medium=api_v3_business_search&utm_source=-uBzzloii2ivvF3N0jkhKQ,VNKcgjNlNhMMozhDPFpC6w
130,Bobby Van's Steakhouse,Steakhouses,3.5,$$$,25 Broad St,40.70606,-74.01114,https://www.yelp.com/biz/bobby-vans-steakhouse-new-york-3?adjust_creative=-uBzzloii2ivvF3N0jkhKQ&utm_campaign=yelp_api_v3&utm_medium=api_v3_business_search&utm_source=-uBzzloii2ivvF3N0jkhKQ,DC58K8Z_piVm7iAK0ZI_tQ
131,Boucherie Union Square,Steakhouses,4.5,$$$,225 Park Ave S,40.73725824850519,-73.9882252705524,https://www.yelp.com/biz/boucherie-union-square-new-york-city?adjust_creative=-uBzzloii2ivvF3N0jkhKQ&utm_campaign=yelp_api_v3&utm_medium=api_v3_business_search&utm_source=-uBzzloii2ivvF3N0jkhKQ,8XHbZIKDQbXhyKIGiukVeQ
132,Ricardo Steak House,Steakhouses,4.0,$$$,2145 2nd Ave,40.793509,-73.94066,https://www.yelp.com/biz/ricardo-steak-house-new-york?adjust_creative=-uBzzloii2ivvF3N0jkhKQ&utm_campaign=yelp_api_v3&utm_medium=api_v3_business_search&utm_source=-uBzzloii2ivvF3N0jkhKQ,CfWe636m2CAUg4FAdl_zVQ
133,Benjamin Steakhouse,Steakhouses,4.0,$$$$,52 E 41st St,40.751743253865065,-73.97909946269179,https://www.yelp.com/biz/benjamin-steakhouse-new-york-city?adjust_creative=-uBzzloii2ivvF3N0jkhKQ&utm_campaign=yelp_api_v3&utm_medium=api_v3_business_search&utm_source=-uBzzloii2ivvF3N0jkhKQ,sSSV7G16yUijp-Peq4fmsA
134,Morton's The Steakhouse,Steakhouses,4.0,$$$,136 Washington St,40.7097005194611,-74.0139538049698,https://www.yelp.com/biz/mortons-the-steakhouse-new-york-9?adjust_creative=-uBzzloii2ivvF3N0jkhKQ&utm_campaign=yelp_api_v3&utm_medium=api_v3_business_search&utm_source=-uBzzloii2ivvF3N0jkhKQ,suEoAFFWEj-RA3smDVqDbA
135,CUT,Steakhouses,4.0,$$$$,99 Church St,40.712808,-74.009065,https://www.yelp.com/biz/cut-new-york-9?adjust_creative=-uBzzloii2ivvF3N0jkhKQ&utm_campaign=yelp_api_v3&utm_medium=api_v3_business_search&utm_source=-uBzzloii2ivvF3N0jkhKQ,q202UCgXiL2H53LsHeDsQA
136,The Cecil Steakhouse,Steakhouses,3.5,$$$,210 W 118th St,40.8048153132292,-73.9523577197469,https://www.yelp.com/biz/the-cecil-steakhouse-new-york?adjust_creative=-uBzzloii2ivvF3N0jkhKQ&utm_campaign=yelp_api_v3&utm_medium=api_v3_business_search&utm_source=-uBzzloii2ivvF3N0jkhKQ,twvQigBbR8xysrUjZclbtA
137,Strip House,Steakhouses,4.0,$$$$,15 W 44th St,40.7552982092827,-73.98068987648,https://www.yelp.com/biz/strip-house-new-york-6?adjust_creative=-uBzzloii2ivvF3N0jkhKQ&utm_campaign=yelp_api_v3&utm_medium=api_v3_business_search&utm_source=-uBzzloii2ivvF3N0jkhKQ,432F7ulSgnm1fNyefqgrNw
138,Peter Luger,Steakhouses,4.0,$$$$,178 Broadway,40.709945,-73.962478,https://www.yelp.com/biz/peter-luger-brooklyn-2?adjust_creative=-uBzzloii2ivvF3N0jkhKQ&utm_campaign=yelp_api_v3&utm_medium=api_v3_business_search&utm_source=-uBzzloii2ivvF3N0jkhKQ,4yPqqJDJOQX69gC66YUDkA
139,Flatiron Restaurant,Steakhouses,,,397 5th Ave,40.67051,-73.98501,,
140,Club A Steakhouse,Steakhouses,4.5,$$$,240 E 58th St,40.76006,-73.96557,https://www.yelp.com/biz/club-a-steakhouse-new-york?adjust_creative=-uBzzloii2ivvF3N0jkhKQ&utm_campaign=yelp_api_v3&utm_medium=api_v3_business_search&utm_source=-uBzzloii2ivvF3N0jkhKQ,A_YpTLbAlEqeLVSs9bxbEA
141,Frankie & Johnnie's Steak House,Steakhouses,3.5,$$$,32 W 37th St,40.75083,-73.98491,https://www.yelp.com/biz/frankie-and-johnnies-steak-house-new-york-3?adjust_creative=-uBzzloii2ivvF3N0jkhKQ&utm_campaign=yelp_api_v3&utm_medium=api_v3_business_search&utm_source=-uBzzloii2ivvF3N0jkhKQ,pzfPgFS01LJAudksr86wYA
142,Uncle Jack's Steakhouse,Steakhouses,3.5,$$$,3940 Bell Blvd,40.76418,-73.7716,https://www.yelp.com/biz/uncle-jacks-steakhouse-bayside-5?adjust_creative=-uBzzloii2ivvF3N0jkhKQ&utm_campaign=yelp_api_v3&utm_medium=api_v3_business_search&utm_source=-uBzzloii2ivvF3N0jkhKQ,Nl-gzT-pEBUBBWSa6N1gkA
143,BLT Steak,Steakhouses,4.0,$$$$,106 E 57th St,40.761162,-73.970335,https://www.yelp.com/biz/blt-steak-new-york?adjust_creative=-uBzzloii2ivvF3N0jkhKQ&utm_campaign=yelp_api_v3&utm_medium=api_v3_business_search&utm_source=-uBzzloii2ivvF3N0jkhKQ,VqPoQGy0q5Q8BWlb0XvZuw
144,Tuscany Steakhouse,Steakhouses,4.5,$$$,117 West 58 St,40.76546,-73.97724,https://www.yelp.com/biz/tuscany-steakhouse-new-york?adjust_creative=-uBzzloii2ivvF3N0jkhKQ&utm_campaign=yelp_api_v3&utm_medium=api_v3_business_search&utm_source=-uBzzloii2ivvF3N0jkhKQ,4WDHrSodF1Xidv9ezS6Sgg
145,Empire Steak House,Steakhouses,4.0,$$$,151 E 50th St,40.756172,-73.97128,https://www.yelp.com/biz/empire-steak-house-new-york-11?adjust_creative=-uBzzloii2ivvF3N0jkhKQ&utm_campaign=yelp_api_v3&utm_medium=api_v3_business_search&utm_source=-uBzzloii2ivvF3N0jkhKQ,DeiVNRCo4kw5XUsHbXFkUg
146,Uncle Jack's Steakhouse - Westside,Steakhouses,3.5,$$$$,440 9th Ave,40.75367,-73.99549,https://www.yelp.com/biz/uncle-jacks-steakhouse-westside-new-york-3?adjust_creative=-uBzzloii2ivvF3N0jkhKQ&utm_campaign=yelp_api_v3&utm_medium=api_v3_business_search&utm_source=-uBzzloii2ivvF3N0jkhKQ,fiNNzhD1BRLP8iA1r3m2Cg
147,212 Steakhouse,Steakhouses,4.0,$$$,316 E 53rd St,40.75634,-73.966489,https://www.yelp.com/biz/212-steakhouse-new-york-5?adjust_creative=-uBzzloii2ivvF3N0jkhKQ&utm_campaign=yelp_api_v3&utm_medium=api_v3_business_search&utm_source=-uBzzloii2ivvF3N0jkhKQ,uTXRhiUm5yXLLjC1oGy7ig
148,Keens Steakhouse,Steakhouses,4.0,$$$$,72 W 36th St,40.75071,-73.98652,https://www.yelp.com/biz/keens-steakhouse-new-york?adjust_creative=-uBzzloii2ivvF3N0jkhKQ&utm_campaign=yelp_api_v3&utm_medium=api_v3_business_search&utm_source=-uBzzloii2ivvF3N0jkhKQ,pQuZDnefX038xurT1BhDXA
149,Gallaghers Steakhouse,Steakhouses,4.0,$$$$,228 W 52nd St,40.762876,-73.983837,https://www.yelp.com/biz/gallaghers-steakhouse-new-york?adjust_creative=-uBzzloii2ivvF3N0jkhKQ&utm_campaign=yelp_api_v3&utm_medium=api_v3_business_search&utm_source=-uBzzloii2ivvF3N0jkhKQ,hk3ohp_A4L4UgWTexDxf_Q
150,STK Steakhouse Rooftop NYC,Steakhouses,3.5,$$$,26 Little West 12th St,40.73988952257089,-74.00737963498764,https://www.yelp.com/biz/stk-steakhouse-rooftop-nyc-new-york?adjust_creative=-uBzzloii2ivvF3N0jkhKQ&utm_campaign=yelp_api_v3&utm_medium=api_v3_business_search&utm_source=-uBzzloii2ivvF3N0jkhKQ,YJnxQvkqwAiWfqUFlAnE0Q
151,Wolfgang's Steakhouse,Steakhouses,,,1359 Broadway,40.7519327567805,-73.9878857508302,,
152,Robert's Steakhouse,Steakhouses,4.0,$$$$,536 W 28th St,40.75141,-74.00352,https://www.yelp.com/biz/roberts-steakhouse-new-york-3?adjust_creative=-uBzzloii2ivvF3N0jkhKQ&utm_campaign=yelp_api_v3&utm_medium=api_v3_business_search&utm_source=-uBzzloii2ivvF3N0jkhKQ,cF3deEEqK3Fhj22k0pE1_Q
153,Butcher & Banker,Steakhouses,3.5,$$$,481 8th Ave,40.752579,-73.993484,https://www.yelp.com/biz/butcher-and-banker-new-york-3?adjust_creative=-uBzzloii2ivvF3N0jkhKQ&utm_campaign=yelp_api_v3&utm_medium=api_v3_business_search&utm_source=-uBzzloii2ivvF3N0jkhKQ,UIEeOn92c5TYtGjjRJiQzw
154,The Capital Grille,Steakhouses,4.0,$$$,155 E 42nd St,40.75125579843528,-73.9748856,https://www.yelp.com/biz/the-capital-grille-new-york-6?adjust_creative=-uBzzloii2ivvF3N0jkhKQ&utm_campaign=yelp_api_v3&utm_medium=api_v3_business_search&utm_source=-uBzzloii2ivvF3N0jkhKQ,kctef59qqlzJNqAc1ZGEvg
155,Bowery Meat Company,Steakhouses,4.0,$$$,9 E 1st St,40.72453,-73.9917876,https://www.yelp.com/biz/bowery-meat-company-new-york?adjust_creative=-uBzzloii2ivvF3N0jkhKQ&utm_campaign=yelp_api_v3&utm_medium=api_v3_business_search&utm_source=-uBzzloii2ivvF3N0jkhKQ,qpkFmGyvbZv-g2fbwyNQUg
156,Amber Steakhouse,Steakhouses,4.5,$$$,119 Nassau Ave,40.724464173096,-73.949018043155,https://www.yelp.com/biz/amber-steakhouse-brooklyn?adjust_creative=-uBzzloii2ivvF3N0jkhKQ&utm_campaign=yelp_api_v3&utm_medium=api_v3_business_search&utm_source=-uBzzloii2ivvF3N0jkhKQ,l2ROlwwJcTPmi_2l3A9oyQ
157,Mastro's Steakhouse,Steakhouses,4.0,$$$$,1285 6th Ave,40.761105,-73.980164,https://www.yelp.com/biz/mastros-steakhouse-new-york?adjust_creative=-uBzzloii2ivvF3N0jkhKQ&utm_campaign=yelp_api_v3&utm_medium=api_v3_business_search&utm_source=-uBzzloii2ivvF3N0jkhKQ,iAoHFfB_T8U31PhIzD-o_g
158,4 Charles Prime Rib,Steakhouses,4.5,$$$,4 Charles St,40.73513,-74.00065,https://www.yelp.com/biz/4-charles-prime-rib-new-york?adjust_creative=-uBzzloii2ivvF3N0jkhKQ&utm_campaign=yelp_api_v3&utm_medium=api_v3_business_search&utm_source=-uBzzloii2ivvF3N0jkhKQ,ZOa13veZkzGjA-x3kMfOmA
159,The Capital Grille,Steakhouses,4.0,$$$,120 W 51st St,40.7607390928484,-73.9813780866211,https://www.yelp.com/biz/the-capital-grille-new-york-5?adjust_creative=-uBzzloii2ivvF3N0jkhKQ&utm_campaign=yelp_api_v3&utm_medium=api_v3_business_search&utm_source=-uBzzloii2ivvF3N0jkhKQ,Maks_EfVcTOe20TnGQy_MQ
160,David Burke Tavern,Steakhouses,4.0,$$$,135 E 62nd St,40.76436,-73.96714,https://www.yelp.com/biz/david-burke-tavern-new-york?adjust_creative=-uBzzloii2ivvF3N0jkhKQ&utm_campaign=yelp_api_v3&utm_medium=api_v3_business_search&utm_source=-uBzzloii2ivvF3N0jkhKQ,XvcRtA3pD6gpICLsdsQVbA
161,Harry's,Steakhouses,4.0,$$$,1 Hanover Sq,40.704512,-74.009834,https://www.yelp.com/biz/harrys-new-york-3?adjust_creative=-uBzzloii2ivvF3N0jkhKQ&utm_campaign=yelp_api_v3&utm_medium=api_v3_business_search&utm_source=-uBzzloii2ivvF3N0jkhKQ,pNYcGGAj4AYaExlmrEmfUw
162,Le Relais De Venise L'Entrecôte,Steakhouses,4.0,$$$,590 Lexington Ave,40.7577089110773,-73.9717626571655,https://www.yelp.com/biz/le-relais-de-venise-l-entrec%C3%B4te-new-york-4?adjust_creative=-uBzzloii2ivvF3N0jkhKQ&utm_campaign=yelp_api_v3&utm_medium=api_v3_business_search&utm_source=-uBzzloii2ivvF3N0jkhKQ,9vYSRXdp5JtFmqhi0FigMA
163,BLT Prime,Steakhouses,,,1032 Lexington Ave,40.77161,-73.96169,,
164,Donohue's Steak House,Steakhouses,3.5,$$,845 Lexington Ave,40.765426,-73.96553,https://www.yelp.com/biz/donohues-steak-house-new-york?adjust_creative=-uBzzloii2ivvF3N0jkhKQ&utm_campaign=yelp_api_v3&utm_medium=api_v3_business_search&utm_source=-uBzzloii2ivvF3N0jkhKQ,ZPo-xIreq2EcdrbJXZVS-w
165,Hawksmoor,Steakhouses,,,109 E 22nd St,40.73977538644137,-73.986388401965,,
166,Edward's Steak House,Steakhouses,4.0,$$$,239 Marin Blvd,40.71628,-74.04281,https://www.yelp.com/biz/edwards-steak-house-jersey-city?adjust_creative=-uBzzloii2ivvF3N0jkhKQ&utm_campaign=yelp_api_v3&utm_medium=api_v3_business_search&utm_source=-uBzzloii2ivvF3N0jkhKQ,FNIJejLUqeqYjW1lqYO5hw
167,Fleming’s Prime Steakhouse & Wine Bar,Steakhouses,4.0,$$$,90 The Promenade,40.8059111677674,-73.9875190460327,https://www.yelp.com/biz/fleming-s-prime-steakhouse-and-wine-bar-edgewater?adjust_creative=-uBzzloii2ivvF3N0jkhKQ&utm_campaign=yelp_api_v3&utm_medium=api_v3_business_search&utm_source=-uBzzloii2ivvF3N0jkhKQ,mZ1gKg1OT9-YHxplYLKIpw
168,Wolfgang's Steakhouse,Steakhouses,4.0,$$$$,4 Park Ave,40.7466818653462,-73.9820571484794,https://www.yelp.com/biz/wolfgangs-steakhouse-new-york-4?adjust_creative=-uBzzloii2ivvF3N0jkhKQ&utm_campaign=yelp_api_v3&utm_medium=api_v3_business_search&utm_source=-uBzzloii2ivvF3N0jkhKQ,ikb5lhHmb2xndNZM-jr_Mw
169,Ruth's Chris Steak House,Steakhouses,4.0,$$$,148 W 51st St,40.7613252601449,-73.9822581410407,https://www.yelp.com/biz/ruths-chris-steak-house-new-york-5?adjust_creative=-uBzzloii2ivvF3N0jkhKQ&utm_campaign=yelp_api_v3&utm_medium=api_v3_business_search&utm_source=-uBzzloii2ivvF3N0jkhKQ,ulKoAGcGOdsXgr0o_l6avA
170,STK Steakhouse Midtown NYC,Steakhouses,3.5,$$$,1114 Avenue Of The Americas,40.754669,-73.98285,https://www.yelp.com/biz/stk-midtown-new-york?adjust_creative=-uBzzloii2ivvF3N0jkhKQ&utm_campaign=yelp_api_v3&utm_medium=api_v3_business_search&utm_source=-uBzzloii2ivvF3N0jkhKQ,ryng69yOCoveA68KE6jl-Q
171,Meet The Meat,Steakhouses,4.5,$$$,2392 21st St,40.7769295040115,-73.9214426951538,https://www.yelp.com/biz/meet-the-meat-astoria?adjust_creative=-uBzzloii2ivvF3N0jkhKQ&utm_campaign=yelp_api_v3&utm_medium=api_v3_business_search&utm_source=-uBzzloii2ivvF3N0jkhKQ,7K9WGGP9SOUxdlJ4ozFy8A
172,M. Wells,Steakhouses,3.5,$$$,43-15 Crescent St,40.748687950334634,-73.9423496466214,https://www.yelp.com/biz/m-wells-long-island-city-2?adjust_creative=-uBzzloii2ivvF3N0jkhKQ&utm_campaign=yelp_api_v3&utm_medium=api_v3_business_search&utm_source=-uBzzloii2ivvF3N0jkhKQ,OMv26_R8kaek1G7_QhBPkg
173,West Side Steakhouse,Steakhouses,4.0,$$$,597 10th Ave,40.7606,-73.995,https://www.yelp.com/biz/west-side-steakhouse-new-york-2?adjust_creative=-uBzzloii2ivvF3N0jkhKQ&utm_campaign=yelp_api_v3&utm_medium=api_v3_business_search&utm_source=-uBzzloii2ivvF3N0jkhKQ,Ucya5uGBVUA3azs-HX0sTA
174,Chimu Bistro,Steakhouses,4.0,$$,482 Union Ave,40.714903,-73.95144,https://www.yelp.com/biz/chimu-bistro-brooklyn?adjust_creative=-uBzzloii2ivvF3N0jkhKQ&utm_campaign=yelp_api_v3&utm_medium=api_v3_business_search&utm_source=-uBzzloii2ivvF3N0jkhKQ,2E2f5H4SltGyD8ciTu8AKg
175,Hunters Steak & Ale House,Steakhouses,4.0,$$$,9404 4th Ave,40.61668,-74.03121,https://www.yelp.com/biz/hunters-steak-and-ale-house-brooklyn?adjust_creative=-uBzzloii2ivvF3N0jkhKQ&utm_campaign=yelp_api_v3&utm_medium=api_v3_business_search&utm_source=-uBzzloii2ivvF3N0jkhKQ,JOP6kIBIPMoQkygEqU9l5g
176,Carne Mare,Steakhouses,,,89 South St,40.70634,-74.00383,,
177,Smith & Wollensky,Steakhouses,3.5,$$$$,797 3rd Ave,40.75526,-73.9709472466553,https://www.yelp.com/biz/smith-and-wollensky-new-york?adjust_creative=-uBzzloii2ivvF3N0jkhKQ&utm_campaign=yelp_api_v3&utm_medium=api_v3_business_search&utm_source=-uBzzloii2ivvF3N0jkhKQ,L3L6xDdrS8c67BLZROg79A
178,MarkJoseph Steakhouse,Steakhouses,4.0,$$$$,261 Water St,40.70837,-74.00152,https://www.yelp.com/biz/markjoseph-steakhouse-new-york-2?adjust_creative=-uBzzloii2ivvF3N0jkhKQ&utm_campaign=yelp_api_v3&utm_medium=api_v3_business_search&utm_source=-uBzzloii2ivvF3N0jkhKQ,3hRE9hN7Yp9AHJD8ahAVDQ
179,Reserve Cut,Steakhouses,4.0,$$$$,40 Broad St,40.706043,-74.011776,https://www.yelp.com/biz/reserve-cut-new-york?adjust_creative=-uBzzloii2ivvF3N0jkhKQ&utm_campaign=yelp_api_v3&utm_medium=api_v3_business_search&utm_source=-uBzzloii2ivvF3N0jkhKQ,D9nQb14gqhCAOaUUvJz3-Q
180,DK Restaurant NYC,Steakhouses,3.5,$$$,207 W 36th St,40.752533,-73.9899368,https://www.yelp.com/biz/dk-restaurant-nyc-new-york?adjust_creative=-uBzzloii2ivvF3N0jkhKQ&utm_campaign=yelp_api_v3&utm_medium=api_v3_business_search&utm_source=-uBzzloii2ivvF3N0jkhKQ,njpz2-Vd-EnoFu5YiIBTVA
181,Catch Steak,Steakhouses,3.5,$$$$,88 9th Ave,40.7423522,-74.0040829,https://www.yelp.com/biz/catch-steak-new-york?adjust_creative=-uBzzloii2ivvF3N0jkhKQ&utm_campaign=yelp_api_v3&utm_medium=api_v3_business_search&utm_source=-uBzzloii2ivvF3N0jkhKQ,A5VEyiXOSdP0D-rbztjX9Q
182,The Loft Steakhouse,Steakhouses,4.5,$$$,1306 40th St,40.6399094,-73.9866452,https://www.yelp.com/biz/the-loft-steakhouse-borough-park?adjust_creative=-uBzzloii2ivvF3N0jkhKQ&utm_campaign=yelp_api_v3&utm_medium=api_v3_business_search&utm_source=-uBzzloii2ivvF3N0jkhKQ,8PlsB1AXfAJ2RSR0MNbDrQ
183,Morton's The Steakhouse,Steakhouses,4.0,$$$$,551 5th Ave,40.7552153,-73.9787657,https://www.yelp.com/biz/mortons-the-steakhouse-new-york-2?adjust_creative=-uBzzloii2ivvF3N0jkhKQ&utm_campaign=yelp_api_v3&utm_medium=api_v3_business_search&utm_source=-uBzzloii2ivvF3N0jkhKQ,K_nsaXmlsyg0I8PoIjPXrA
184,Quality Eats,Steakhouses,3.5,$$,1496 2nd Ave,40.77246055407929,-73.95538748145974,https://www.yelp.com/biz/quality-eats-new-york-3?adjust_creative=-uBzzloii2ivvF3N0jkhKQ&utm_campaign=yelp_api_v3&utm_medium=api_v3_business_search&utm_source=-uBzzloii2ivvF3N0jkhKQ,fwH7iD4-xY2ABrlZznP8CA
185,American Cut Steakhouse Tribeca,Steakhouses,4.0,$$$$,363 Greenwich St,40.71915,-74.00994,https://www.yelp.com/biz/american-cut-steakhouse-tribeca-new-york?adjust_creative=-uBzzloii2ivvF3N0jkhKQ&utm_campaign=yelp_api_v3&utm_medium=api_v3_business_search&utm_source=-uBzzloii2ivvF3N0jkhKQ,d-DQwNxs77Pah2ys0q7w1Q
186,Navy Pier,Steakhouses,,,37 Navy Pier Ct,40.6290959,-74.0737274,,
187,Primal Cut Steakhouse,Steakhouses,4.0,$$$,333 E 60th St,40.7606647,-73.9623119,https://www.yelp.com/biz/primal-cut-steakhouse-new-york?adjust_creative=-uBzzloii2ivvF3N0jkhKQ&utm_campaign=yelp_api_v3&utm_medium=api_v3_business_search&utm_source=-uBzzloii2ivvF3N0jkhKQ,kdhY8Ccrti0avzpcYjYzhg
188,Tabernacle Steakhouse,Steakhouses,,,315 W 36th St,40.75396,-73.99342,,
189,Benchmark,Steakhouses,3.5,$$$,339-A 2nd St,40.6737976074219,-73.9831466674805,https://www.yelp.com/biz/benchmark-brooklyn?adjust_creative=-uBzzloii2ivvF3N0jkhKQ&utm_campaign=yelp_api_v3&utm_medium=api_v3_business_search&utm_source=-uBzzloii2ivvF3N0jkhKQ,GvI6UCd6sf_I4p2hAE2gjA
190,TBar,Steakhouses,4.0,$$$,1278 3rd Ave,40.770822,-73.960092,https://www.yelp.com/biz/tbar-new-york-2?adjust_creative=-uBzzloii2ivvF3N0jkhKQ&utm_campaign=yelp_api_v3&utm_medium=api_v3_business_search&utm_source=-uBzzloii2ivvF3N0jkhKQ,FhK_owSqLZLLqtFLzjK-fQ
191,Quality Meats,Steakhouses,4.0,$$$$,57 W 58th St,40.764958,-73.976206,https://www.yelp.com/biz/quality-meats-new-york?adjust_creative=-uBzzloii2ivvF3N0jkhKQ&utm_campaign=yelp_api_v3&utm_medium=api_v3_business_search&utm_source=-uBzzloii2ivvF3N0jkhKQ,kB-lmHs7yNwLIlQyp0kMmQ
192,DeStefano's Steakhouse,Steakhouses,4.5,$$$,593 Lorimer St,40.71462413989243,-73.9497399,https://www.yelp.com/biz/destefanos-steakhouse-brooklyn?adjust_creative=-uBzzloii2ivvF3N0jkhKQ&utm_campaign=yelp_api_v3&utm_medium=api_v3_business_search&utm_source=-uBzzloii2ivvF3N0jkhKQ,hthvpEL7JEbfxfD6iP9axQ
193,Cabana Lounge,Steakhouses,,,1836 McDonald Ave,40.608071,-73.973229,,
194,Ruth's Chris Steak House,Steakhouses,4.0,$$$,499 Washington Blvd,40.72598,-74.03594,https://www.yelp.com/biz/ruths-chris-steak-house-jersey-city-2?adjust_creative=-uBzzloii2ivvF3N0jkhKQ&utm_campaign=yelp_api_v3&utm_medium=api_v3_business_search&utm_source=-uBzzloii2ivvF3N0jkhKQ,konIfjua5_tgylM0YIb4Ng
195,Del Frisco's Grille,Steakhouses,3.5,$$$,250 Vesey St,40.714167,-74.016111,https://www.yelp.com/biz/del-friscos-grille-new-york-4?adjust_creative=-uBzzloii2ivvF3N0jkhKQ&utm_campaign=yelp_api_v3&utm_medium=api_v3_business_search&utm_source=-uBzzloii2ivvF3N0jkhKQ,Fl8f8jOGyTV9_SqHgbGZbA
196,Patrick Steakhouse,Steakhouses,,,227 Rogers Ave,40.66863,-73.95325,,
197,Wolfgang's Steakhouse,Steakhouses,4.0,$$$$,409 Greenwich St,40.7211087,-74.0098128,https://www.yelp.com/biz/wolfgangs-steakhouse-new-york-2?adjust_creative=-uBzzloii2ivvF3N0jkhKQ&utm_campaign=yelp_api_v3&utm_medium=api_v3_business_search&utm_source=-uBzzloii2ivvF3N0jkhKQ,hFZ5qw8gvWiBUbmbahSalg
198,Del Frisco's Double Eagle Steakhouse,Steakhouses,4.0,$$$$,1221 Ave Of The Americas,40.759412,-73.982221,https://www.yelp.com/biz/del-friscos-double-eagle-steakhouse-new-york?adjust_creative=-uBzzloii2ivvF3N0jkhKQ&utm_campaign=yelp_api_v3&utm_medium=api_v3_business_search&utm_source=-uBzzloii2ivvF3N0jkhKQ,b8a-8u_A51v2IzyjLVsx6w
199,Lighthouse,Wine Bars,4.0,$$,145 Borinquen Pl,40.7104080536563,-73.9539040490168,https://www.yelp.com/biz/lighthouse-brooklyn-2?adjust_creative=-uBzzloii2ivvF3N0jkhKQ&utm_campaign=yelp_api_v3&utm_medium=api_v3_business_search&utm_source=-uBzzloii2ivvF3N0jkhKQ,DhBhEWMVLDxYF14a1znUvA
